~VERSION INFORMATION
 VERS.                 2.0:   CWLS LOG ASCII STANDARD - VERSION 2.0
 WRAP.                  NO:   SINGLE LINE PER DEPTH STEP
 CREA.                 09/07/2026 11:19:35
#CREATED USING IP VERSION 4.5.2019.2902 BY RADU VLADUTIU ON 09/07/2026 11:19:35
~WELL INFORMATION
#MNEM.UNIT       DATA                          DESCRIPTION MNEMONIC
#---------      ---------------------------   --------------------------
 STRT    .M         1340.0000                 : START DEPTH
 STOP    .M         2032.0000                 : STOP DEPTH
 STEP    .M         0.1000                    : STEP VALUE
 NULL    .      -999.0000                     : NULL VALUE
 DATE    .      09/07/2026                    : LAS file Creation Date
 WELL   .      175-Filitelnic           : Well Name
 COMP   .      S.N.G.N. Romgaz - Medias : Company
 FLD    .      Filitelnic               : Field
 STATE  .      Romania                  : State
 UWI    .                               : Unique Well Identifier (UWI)
 LOC    .                               : Location
 PDAT   .      KB                       : Permanent Datum
 EPDAT  .      511.7300                 : Elevation of Permanent Datum
 KB     .      511.7300                 : KB Elevation
 RWS    .      -999                     : Def_Rw
 WST    .      -999                     : Def_Rwt
 CNTY   .      Mures                    : County
 PROV   .                               : Province
 SRVC   .      PROSPECTIUNI             : Contractor
 GDAT   .      WGS 84                   : Geodatum
 LONG   .      0                        : Longitude
 LATI   .      0                        : Latitude
 COORDIN.                               : Grid System
 XCOORD .                               : X or East-West Coordinate
 YCOORD .                               : Y or North-South Coordinate
~CURVE INFORMATION
#MNEM              UNIT       API CODE   Curve Type Comments
#----------  --------------- ----------  ---------- -----------
 DEPTH      .M                         : Depth       
 BVWRAS     .Dec                       : BVWtdt      
 LS         .CPS                       :             Far Average Capture Rates
 GR         .GAPI                      : GammaRay    Gamma Ray
 SS         .CPS                       :             Near Average Capture Rates
 PHIE       .Dec                       : Phi         
 SigRec     .cu                        :             
 SigRecHyd  .cu                        :             
 SigRecWat  .cu                        :             
 SwRAS      .Dec                       : SwTDT       
 VCL        .Dec                       : Vcl         
 CCL        .                          : CollarLoc.  Casing Collar Locator
 SGFC       .CU                        :             Reservoir Sigma
 PS         .MV                        : SP          
~A  DEPTH   BVWRAS      LS        GR        SS       PHIE     SigRec  SigRecHy~ SigRecWa~   SwRAS      VCL       CCL       SGFC       PS    
# ...
1476.8000    0.0006 5076.1699   70.6431 12187.2021    0.0006   29.2599   29.2192   29.2599    1.0000    0.6663 2171.0000   34.3752   -1.4965 
1476.9000    0.0011 5055.0391   68.9234 12178.6025    0.0011   28.3745   28.2958   28.3745    1.0000    0.6366 2182.0000   34.3075   -1.7843 
1477.0000    0.0029 5062.0986   66.2344 12021.4141    0.0029   27.0547   26.8494   27.0547    1.0000    0.5902 2180.0000   35.1263   -2.1096 
1477.1000    0.0158 4982.8013   60.6920 11919.3535    0.0158   24.9488   23.8454   24.9488    1.0000    0.4947 2169.0000   35.2285   -2.4724 
1477.2000    0.0196 4981.9399   59.8566 11955.8076    0.0196   24.7593   23.3879   24.7593    1.0000    0.4803 2179.0000   35.2253   -3.0238 
1477.3000    0.0149 4991.5864   60.9128 11979.7109    0.0149   25.0062   23.9661   25.0062    1.0000    0.4985 2181.0000   35.5569   -3.5909 
1477.4000    0.0077 5017.5376   63.2160 12025.9092    0.0077   25.7585   25.2190   25.7585    1.0000    0.5382 2170.0000   35.5005   -3.9535 
1477.5000    0.0019 5101.3691   67.4295 12233.6953    0.0019   27.6283   27.4927   27.6283    1.0000    0.6109 2169.0000   34.8713   -4.4994 
1477.6000    0.0016 5161.3931   68.0360 12459.7412    0.0016   27.9280   27.8189   27.9280    1.0000    0.6213 2176.0000   34.7430   -5.0765 
1477.7000    0.0020 5218.6968   67.3695 12631.8135    0.0020   27.5989   27.4604   27.5989    1.0000    0.6098 2169.0000   34.2948   -5.4316 
1477.8000    0.0057 5354.5322   64.1882 12792.5850    0.0057   26.1456   25.7452   26.1456    1.0000    0.5550 2174.0000   34.1578   -5.9742 
1477.9000    0.0072 5421.7813   63.4625 12819.7344    0.0072   25.8533   25.3525   25.8533    1.0000    0.5425 2176.0000   34.0793   -6.5669 
1478.0000    0.0063 5459.4800   63.8630 12822.9688    0.0063   26.0123   25.5693   26.0123    1.0000    0.5494 2168.0000   33.9984   -6.9050 
1478.1000    0.0027 5468.2217   66.4324 12535.5713    0.0027   27.1479   26.9560   27.1479    1.0000    0.5937 2177.0000   34.0095   -7.4472 
1478.2000    0.0018 5420.1660   67.6006 12492.9336    0.0018   27.7123   27.5847   27.7123    1.0000    0.6138 2168.0000   34.6808   -8.0664 
1478.3000    0.0012 5417.5303   68.6802 12304.5488    0.0012   28.2513   28.1651   28.2513    1.0000    0.6324 2176.0000   34.1575   -8.3743 
1478.4000    0.0004 5303.4600   72.5473 12147.4365    0.0004   29.8987   29.8738   29.8987    1.0000    0.6873 2180.0000   34.5826   -8.9136 
1478.5000    0.0007 5228.3018   75.3245 12060.1846    0.0007   28.9656   28.9148   28.9656    1.0000    0.6565 2181.0000   33.8617   -9.5098 
1478.6000    0.0005 5180.9712   77.1989 12067.9063    0.0005   29.5841   29.5524   29.5841    1.0000    0.6770 2166.0000   34.3409   -9.6131 
1478.7000    0.0003 5047.0151   74.8073 11842.0420    0.0003   30.1016   30.0804   30.1016    1.0000    0.6939 2180.0000   34.7379   -9.6638 
1478.8000    0.0003 5014.0410   72.1546 11692.1211    0.0003   30.0525   30.0304   30.0525    1.0000    0.6923 2178.0000   35.2001   -9.5415 
1478.9000    0.0007 4946.5698   70.2715 11600.7744    0.0007   29.0668   29.0198   29.0668    1.0000    0.6599 2172.0000   35.3976   -9.2722 
1479.0000    0.0009 4946.9834   69.5555 11544.0107    0.0009   28.6973   28.6353   28.6973    1.0000    0.6475 2182.0000   35.3710   -8.5307 
1479.1000    0.0006 4897.0205   70.7509 11458.3193    0.0006   29.3161   29.2771   29.3161    1.0000    0.6681 2184.0000   35.6606   -7.4089 
1479.2000    0.0004 4878.5288   71.6203 11576.1934    0.0004   29.7712   29.7437   29.7712    1.0000    0.6831 2179.0000   35.5937   -7.3213 
1479.3000    0.0003 4854.5103   71.9679 11715.4834    0.0003   29.9541   29.9302   29.9541    1.0000    0.6891 2176.0000   35.6962   -7.6107 
1479.4000    0.0005 4904.3696   71.2793 11738.6621    0.0005   29.5923   29.5607   29.5923    1.0000    0.6772 2184.0000   35.2522   -8.6936 
1479.5000    0.0002 4964.8237   71.1592 11781.6006    0.0002   29.2441   29.2268   29.2441    1.0000    0.6752 2178.0000   35.1480   -9.7605 
1479.6000    0.0015 5023.1045   71.1455 11795.1133    0.0015   26.9085   26.8030   26.9085    1.0000    0.5963 2173.0000   35.0176  -10.7684 
1479.7000    0.0034 5173.7266   68.4480 11940.3857    0.0034   25.8329   25.5982   25.8329    1.0000    0.5572 2186.0000   34.1558  -11.4711 
1479.8000    0.0066 5255.2065   65.9932 12062.6494    0.0066   24.9578   24.4979   24.9578    1.0000    0.5216 2177.0000   33.2151  -11.7663 
1479.9000    0.0104 5358.8857   64.2025 12232.1025    0.0104   24.4177   23.6917   24.4177    1.0000    0.4957 2172.0000   33.0034  -12.2327 
1480.0000    0.0053 5563.8589   66.7818 12693.3193    0.0053   25.2246   24.8519   25.2246    1.0000    0.5331 2178.0000   32.4025  -13.4039 
1480.1000    0.0052 5696.1763   70.8030 12914.4082    0.0052   25.2573   24.8939   25.2573    1.0000    0.5344 2177.0000   31.7331  -15.2649 
1480.2000    0.0067 5881.4727   73.7035 13236.8799    0.0067   24.9306   24.4605   24.9306    1.0000    0.5204 2173.0000   31.3945  -16.7494 
1480.3000    0.0335 6255.0444   68.1901 14346.4287    0.0335   23.6205   21.2727   23.6205    1.0000    0.4188 2179.0000   28.9345  -17.1045 
1480.4000    0.0459 6469.3970   61.0402 14793.7832    0.0459   23.7011   20.4904   23.7011    1.0000    0.3943 2173.0000   28.3421  -17.5605 
1480.5000    0.0794 6634.6377   53.6643 15175.2324    0.0794   24.3865   18.8305   24.3865    1.0000    0.3430 2175.0000   27.8567  -18.6242 
1480.6000    0.1266 6816.7563   47.6217 15461.2080    0.1266   24.8848   16.0239   24.8848    1.0000    0.2554 2185.0000   27.5395  -20.6368 
1480.7000    0.1379 6955.4604   43.0470 15361.9063    0.1379   23.6102   13.9603   23.6102    1.0000    0.1891 2171.0000   27.9943  -22.3773 
1480.8000    0.1326 6934.8735   45.1774 15087.5850    0.1326   24.2038   14.9213   24.2038    1.0000    0.2200 2179.0000   28.2999  -23.0269 
1480.9000    0.1223 6952.0459   49.0722 15002.8555    0.1223   25.2440   16.6799   25.2440    1.0000    0.2764 2192.0000   28.2243  -23.3883 
1481.0000    0.0643 6938.3184   55.1425 15057.1895    0.0643   24.0299   19.5257   24.0299    1.0000    0.3644 2170.0000   28.2575  -23.8177 
1481.1000    0.0564 6957.2715   55.9792 15196.4629    0.0564   23.8685   19.9178   23.8685    1.0000    0.3765 2177.0000   28.0548  -24.8879 
1481.2000    0.0713 6929.3652   55.6286 15328.9551    0.0713   24.1886   19.1985   24.1886    1.0000    0.3543 2175.0000   27.3738  -27.5418 
1481.3000    0.0900 6828.8081   52.6605 15217.1943    0.0900   24.6563   18.3573   24.6563    1.0000    0.3284 2173.0000   28.5514  -29.9194 
1481.4000    0.1066 6751.0288   51.0407 15004.7188    0.1066   25.0594   17.5950   25.0594    1.0000    0.3049 2179.0000   28.8617  -30.8135 
1481.5000    0.1139 6657.2021   50.2538 14746.2832    0.1139   25.1974   17.2268   25.1974    1.0000    0.2935 2180.0000   28.8839  -31.2865 
1481.6000    0.0918 6547.7588   52.4869 14439.9668    0.0918   24.7031   18.2755   24.7031    1.0000    0.3259 2165.0000   29.8483  -33.6212 
1481.7000    0.0740 6572.8545   54.1784 14489.5781    0.0740   24.2544   19.0726   24.2544    1.0000    0.3504 2174.0000   29.8755  -45.4818 
1481.8000    0.0675 6637.9404   54.8196 14607.1514    0.0675   24.1010   19.3741   24.1010    1.0000    0.3597 2177.0000   29.2284  -45.4597 
1481.9000    0.0992 6867.1943   51.7780 15157.8340    0.0992   24.8881   17.9415   24.8881    1.0000    0.3156 2178.0000   27.2456  -45.1755 
1482.0000    0.1164 7018.9595   49.9454 15388.4912    0.1164   25.2326   17.0832   25.2326    1.0000    0.2891 2172.0000   26.2852  -43.0194 
1482.1000    0.1189 7173.5068   49.6151 15562.2773    0.1189   25.2546   16.9300   25.2546    1.0000    0.2843 2176.0000   26.2249  -41.6398 
1482.2000    0.1118 7220.3911   50.4882 15742.5840    0.1118   25.1627   17.3362   25.1627    1.0000    0.2969 2172.0000   26.3729  -40.1304 
1482.3000    0.0991 7081.9395   51.8459 15387.4951    0.0991   24.8850   17.9475   24.8850    1.0000    0.3158 2176.0000   26.4425  -37.4903 
1482.4000    0.0954 6949.0586   52.5444 15036.2012    0.0954   24.7938   18.1145   24.7938    1.0000    0.3209 2186.0000   26.5669  -36.1107 
