~VERSION INFORMATION
 VERS.                 2.0:   CWLS LOG ASCII STANDARD - VERSION 2.0
 WRAP.                  NO:   SINGLE LINE PER DEPTH STEP
 CREA.                 09/07/2026 11:19:35
#CREATED USING IP VERSION 4.5.2019.2902 BY RADU VLADUTIU ON 09/07/2026 11:19:35
~WELL INFORMATION
#MNEM.UNIT       DATA                          DESCRIPTION MNEMONIC
#---------      ---------------------------   --------------------------
 STRT    .M         1340.0000                 : START DEPTH
 STOP    .M         2032.0000                 : STOP DEPTH
 STEP    .M         0.1000                    : STEP VALUE
 NULL    .      -999.0000                     : NULL VALUE
 DATE    .      09/07/2026                    : LAS file Creation Date
 WELL   .      175-Filitelnic           : Well Name
 COMP   .      S.N.G.N. Romgaz - Medias : Company
 FLD    .      Filitelnic               : Field
 STATE  .      Romania                  : State
 UWI    .                               : Unique Well Identifier (UWI)
 LOC    .                               : Location
 PDAT   .      KB                       : Permanent Datum
 EPDAT  .      511.7300                 : Elevation of Permanent Datum
 KB     .      511.7300                 : KB Elevation
 RWS    .      -999                     : Def_Rw
 WST    .      -999                     : Def_Rwt
 CNTY   .      Mures                    : County
 PROV   .                               : Province
 SRVC   .      PROSPECTIUNI             : Contractor
 GDAT   .      WGS 84                   : Geodatum
 LONG   .      0                        : Longitude
 LATI   .      0                        : Latitude
 COORDIN.                               : Grid System
 XCOORD .                               : X or East-West Coordinate
 YCOORD .                               : Y or North-South Coordinate
~CURVE INFORMATION
#MNEM              UNIT       API CODE   Curve Type Comments
#----------  --------------- ----------  ---------- -----------
 DEPTH      .M                         : Depth       
 BVWRAS     .Dec                       : BVWtdt      
 LS         .CPS                       :             Far Average Capture Rates
 GR         .GAPI                      : GammaRay    Gamma Ray
 SS         .CPS                       :             Near Average Capture Rates
 PHIE       .Dec                       : Phi         
 SigRec     .cu                        :             
 SigRecHyd  .cu                        :             
 SigRecWat  .cu                        :             
 SwRAS      .Dec                       : SwTDT       
 VCL        .Dec                       : Vcl         
 CCL        .                          : CollarLoc.  Casing Collar Locator
 SGFC       .CU                        :             Reservoir Sigma
 PS         .MV                        : SP          
~A  DEPTH   BVWRAS      LS        GR        SS       PHIE     SigRec  SigRecHy~ SigRecWa~   SwRAS      VCL       CCL       SGFC       PS    
# ...
1887.2000    0.0993 9113.0635   49.5427 19053.2930    0.1357   20.6726   14.5187   22.9303    0.7316    0.2019 2159.0000   20.6726  -17.9637 
1887.3000    0.0997 9835.0859   46.6158 19996.5898    0.1399   20.0033   13.8229   22.4948    0.7127    0.1772 2147.0000   20.0033  -20.8969 
1887.4000    0.0999 10208.5400   44.9164 20336.6270    0.1416   19.7313   13.5402   22.3179    0.7053    0.1672 2198.0000   19.7313  -22.4800 
1887.5000    0.1000 10470.3516   43.7107 20711.8770    0.1433   19.4593   13.2574   22.1409    0.6981    0.1572 2178.0000   19.4593  -23.9864 
1887.6000    0.1004 10746.6514   42.2372 21187.3535    0.1470   18.8621   12.6367   21.7524    0.6829    0.1351 2165.0000   18.8621  -25.9576 
1887.7000    0.1004 10772.1973   41.0994 21112.4844    0.1473   18.8167   12.5895   21.7229    0.6818    0.1335 2185.0000   18.8167  -26.0709 
1887.8000    0.1004 10735.5205   39.9067 21044.1074    0.1464   18.9557   12.7339   21.8133    0.6853    0.1386 2160.0000   18.9557  -26.0955 
1887.9000    0.1002 10320.4268   40.3597 20462.7676    0.1446   19.2420   13.0315   21.9995    0.6925    0.1491 2172.0000   19.2420  -26.1436 
1888.0000    0.0999 9990.1084   42.3150 19966.3789    0.1416   19.7322   13.5412   22.3185    0.7053    0.1672 2184.0000   19.7322  -25.1134 
1888.1000    0.0996 9673.6582   44.8037 19426.6055    0.1388   20.1722   13.9985   22.6047    0.7174    0.1835 2160.0000   20.1722  -24.0392 
1888.2000    0.0989 8859.5879   49.0110 18441.9512    0.1320   21.2582   15.1274   23.3112    0.7491    0.2236 2166.0000   21.2582  -22.0514 
1888.3000    0.0980 8480.0879   49.6121 17842.1758    0.1175   22.4954   16.4202   23.7043    0.8340    0.2692 2178.0000   22.4954  -21.0072 
1888.4000    0.0973 8058.0020   48.8596 17317.1270    0.0993   23.2051   17.1716   23.3310    0.9796    0.2954 2176.0000   23.2051  -19.9967 
1888.5000    0.0901 7662.4937   47.2323 16681.2617    0.0901   23.1117   17.5259   23.1117    1.0000    0.3077 2193.0000   23.9512  -18.0052 
1888.6000    0.1014 6959.3125   46.1936 15479.8848    0.1014   23.3778   17.0931   23.3778    1.0000    0.2927 2193.0000   24.9004  -16.9669 
1888.7000    0.0789 6587.3198   48.2681 14808.8164    0.0789   22.8463   17.9575   22.8463    1.0000    0.3227 2182.0000   26.2087  -15.9563 
1888.8000    0.0513 6309.7534   51.0682 14226.4766    0.0513   22.3018   19.1213   22.3018    1.0000    0.3633 2153.0000   28.5103  -13.9589 
1888.9000    0.0299 5873.1763   53.9641 13232.8701    0.0299   22.1721   20.3178   22.1721    1.0000    0.4053 2187.0000   30.4946  -12.9266 
1889.0000    0.0276 5761.5566   54.3572 13070.6777    0.0276   22.1912   20.4797   22.1912    1.0000    0.4110 2176.0000   31.7490  -11.9160 
1889.1000    0.0238 5677.9868   55.0723 12974.2002    0.0238   22.2473   20.7737   22.2473    1.0000    0.4213 2180.0000   32.7558   -9.5005 
1889.2000    0.0178 5647.1685   56.3798 13170.8516    0.0178   22.4164   21.3102   22.4164    1.0000    0.4403 2184.0000   32.7200   -8.1469 
1889.3000    0.0176 5664.0479   56.4424 13348.1387    0.0176   22.4265   21.3358   22.4265    1.0000    0.4412 2171.0000   33.2883   -6.8106 
1889.4000    0.0176 5729.1860   56.4383 13492.1279    0.0176   22.4259   21.3342   22.4259    1.0000    0.4411 2169.0000   32.1760   -4.1783 
1889.5000    0.0145 5915.5229   57.2746 13553.9238    0.0145   22.5771   21.6766   22.5771    1.0000    0.4533 2193.0000   31.4384   -4.2028 
1889.6000    0.0111 6074.5566   58.3910 13724.6104    0.0111   22.8224   22.1331   22.8224    1.0000    0.4694 2197.0000   30.7117   -4.2273 
1889.7000    0.0087 6342.9951   59.3823 13923.8135    0.0087   23.0762   22.5378   23.0762    1.0000    0.4838 2171.0000   29.1485   -4.2519 
1889.8000    0.0259 7088.3896   58.4482 15116.0146    0.0259   22.2126   20.6093   22.2126    1.0000    0.4155 2173.0000   26.4612   -4.2764 
1889.9000    0.0734 7627.7529   56.9985 16109.1465    0.0734   22.7217   18.1733   22.7217    1.0000    0.3302 2189.0000   24.1495   -4.4318 
1890.0000    0.0951 8159.2412   55.5611 17250.1836    0.0951   23.2310   17.3349   23.2310    1.0000    0.3011 2195.0000   23.3590   -9.5677 
1890.1000    0.0988 8675.6855   54.0267 18258.0996    0.1315   21.3348   15.2070   23.3610    0.7515    0.2264 2184.0000   21.3348  -14.6139 
1890.2000    0.0995 9695.0566   49.9854 19976.0918    0.1381   20.2809   14.1115   22.6754    0.7204    0.1875 2189.0000   20.2809  -25.6415 
1890.3000    0.0998 10150.4736   47.8900 20667.8262    0.1411   19.8018   13.6134   22.3637    0.7072    0.1698 2211.0000   19.8018  -31.3556 
1890.4000    0.1008 10650.9961   46.1600 21188.0664    0.1505   18.3114   12.0643   21.3941    0.6696    0.1148 2201.0000   18.3114  -36.9225 
1890.5000    0.1010 11422.1006   43.6886 22141.2363    0.1529   17.9192   11.6565   21.1390    0.6604    0.1003 2157.0000   17.9192  -40.8259 
1890.6000    0.1013 11786.7314   42.3926 22621.4004    0.1554   17.5330   11.2551   20.8878    0.6517    0.0861 2179.0000   17.5330  -41.1011 
1890.7000    0.1015 12047.6875   40.7403 23000.1445    0.1581   17.0973   10.8022   20.6043    0.6422    0.0700 2175.0000   17.0973  -41.1782 
1890.8000    0.1018 12395.6768   36.9188 23340.5645    0.1600   16.7276   10.4183   20.3383    0.6360    0.0564 2184.0000   16.7276  -41.2288 
1890.9000    0.1017 12434.2969   35.3467 23182.0000    0.1600   16.7637   10.4556   20.3756    0.6359    0.0577 2171.0000   16.7637  -40.2460 
1891.0000    0.1017 12478.2061   34.0823 23184.1133    0.1595   16.8810   10.5773   20.4636    0.6376    0.0620 2189.0000   16.8810  -39.1744 
1891.1000    0.1014 12295.2266   32.2463 23025.7227    0.1572   17.2418   10.9524   20.6983    0.6453    0.0753 2187.0000   17.2418  -35.1052 
1891.2000    0.1014 12047.9365   32.2545 23092.3047    0.1563   17.3806   11.0967   20.7886    0.6484    0.0805 2181.0000   17.3806  -32.6777 
1891.3000    0.1012 11855.4453   33.0600 22961.8691    0.1544   17.6939   11.4223   20.9924    0.6553    0.0920 2163.0000   17.6939  -30.4822 
1891.4000    0.1008 11152.3418   34.5282 22300.1699    0.1510   18.2224   11.9718   21.3363    0.6675    0.1115 2171.0000   18.2224  -26.3621 
1891.5000    0.1033 10662.6426   34.2980 21556.4434    0.1496   18.6199   12.2177   21.4902    0.6904    0.1203 2169.0000   18.6199  -23.8766 
1891.6000    0.1056 10001.5439   34.2997 20495.4238    0.1496   18.7687   12.2184   21.4906    0.7064    0.1203 2160.0000   18.7687  -21.6811 
1891.7000    0.1211 9363.3691   36.0601 19115.3867    0.1452   20.4457   12.9371   21.9404    0.8340    0.1458 2187.0000   20.4457  -17.6190 
1891.8000    0.0982 8121.3491   46.3198 16790.1289    0.1225   22.2582   16.1701   23.7635    0.8018    0.2604 2181.0000   22.2582  -15.0755 
1891.9000    0.0556 7606.3394   52.0989 15952.6387    0.0556   22.3685   18.9239   22.3685    1.0000    0.3564 2190.0000   24.8587  -12.8800 
1892.0000    0.0215 7238.5571   56.1846 15491.8701    0.0215   22.2978   20.9641   22.2978    1.0000    0.4281 2207.0000   26.8004   -8.8759 
1892.1000    0.0088 7107.0791   59.3402 15628.5859    0.0088   23.0648   22.5206   23.0648    1.0000    0.4832 2177.0000   28.3233   -7.2806 
1892.2000    0.0118 7286.0088   59.9242 16004.0498    0.0118   22.7615   22.0274   22.7615    1.0000    0.4657 2165.0000   27.8201   -6.3198 
1892.3000    0.0214 7605.5898   60.3180 16613.2266    0.0214   22.3018   20.9775   22.3018    1.0000    0.4285 2185.0000   26.8132   -8.3863 
1892.4000    0.0976 8409.1064   60.4002 18440.8418    0.1070   22.9223   16.8718   23.5030    0.9124    0.2850 2180.0000   22.9223  -10.0749 
1892.5000    0.0984 8839.9814   59.8872 19133.7344    0.1264   22.0273   15.9277   23.7628    0.7785    0.2519 2179.0000   22.0273  -11.4561 
1892.6000    0.0989 9210.2266   58.8329 19709.2949    0.1321   21.2495   15.1183   23.3055    0.7489    0.2232 2200.0000   21.2495  -13.9022 
1892.7000    0.0993 9722.9922   55.5776 20279.0469    0.1358   20.6593   14.5048   22.9216    0.7312    0.2014 2166.0000   20.6593  -15.6118 
1892.8000    0.0994 9954.7725   53.6931 20363.8223    0.1367   20.5051   14.3446   22.8213    0.7268    0.1958 2172.0000   20.5051  -16.9930 
