~VERSION INFORMATION
 VERS.                 2.0:   CWLS LOG ASCII STANDARD - VERSION 2.0
 WRAP.                  NO:   SINGLE LINE PER DEPTH STEP
 CREA.                 09/07/2026 11:19:35
#CREATED USING IP VERSION 4.5.2019.2902 BY RADU VLADUTIU ON 09/07/2026 11:19:35
~WELL INFORMATION
#MNEM.UNIT       DATA                          DESCRIPTION MNEMONIC
#---------      ---------------------------   --------------------------
 STRT    .M         1340.0000                 : START DEPTH
 STOP    .M         2032.0000                 : STOP DEPTH
 STEP    .M         0.1000                    : STEP VALUE
 NULL    .      -999.0000                     : NULL VALUE
 DATE    .      09/07/2026                    : LAS file Creation Date
 WELL   .      175-Filitelnic           : Well Name
 COMP   .      S.N.G.N. Romgaz - Medias : Company
 FLD    .      Filitelnic               : Field
 STATE  .      Romania                  : State
 UWI    .                               : Unique Well Identifier (UWI)
 LOC    .                               : Location
 PDAT   .      KB                       : Permanent Datum
 EPDAT  .      511.7300                 : Elevation of Permanent Datum
 KB     .      511.7300                 : KB Elevation
 RWS    .      -999                     : Def_Rw
 WST    .      -999                     : Def_Rwt
 CNTY   .      Mures                    : County
 PROV   .                               : Province
 SRVC   .      PROSPECTIUNI             : Contractor
 GDAT   .      WGS 84                   : Geodatum
 LONG   .      0                        : Longitude
 LATI   .      0                        : Latitude
 COORDIN.                               : Grid System
 XCOORD .                               : X or East-West Coordinate
 YCOORD .                               : Y or North-South Coordinate
~CURVE INFORMATION
#MNEM              UNIT       API CODE   Curve Type Comments
#----------  --------------- ----------  ---------- -----------
 DEPTH      .M                         : Depth       
 BVWRAS     .Dec                       : BVWtdt      
 LS         .CPS                       :             Far Average Capture Rates
 GR         .GAPI                      : GammaRay    Gamma Ray
 SS         .CPS                       :             Near Average Capture Rates
 PHIE       .Dec                       : Phi         
 SigRec     .cu                        :             
 SigRecHyd  .cu                        :             
 SigRecWat  .cu                        :             
 SwRAS      .Dec                       : SwTDT       
 VCL        .Dec                       : Vcl         
 CCL        .                          : CollarLoc.  Casing Collar Locator
 SGFC       .CU                        :             Reservoir Sigma
 PS         .MV                        : SP          
~A  DEPTH   BVWRAS      LS        GR        SS       PHIE     SigRec  SigRecHy~ SigRecWa~   SwRAS      VCL       CCL       SGFC       PS    
# ...
1568.0000    0.0268 6097.5283   63.8259 14040.6719    0.0268   23.6636   21.7867   23.6636    1.0000    0.4350 2166.0000   29.3264   -8.9180 
1568.1000    0.0788 6486.7832   59.8136 14890.4590    0.0788   24.3727   18.8552   24.3727    1.0000    0.3437 2151.0000   27.1181   -8.4157 
1568.2000    0.0657 6541.8032   58.6320 15034.5293    0.0657   24.0605   19.4592   24.0605    1.0000    0.3623 2192.0000   27.5684   -7.9266 
1568.3000    0.1035 6587.2129   57.6800 14984.7012    0.1035   24.9904   17.7420   24.9904    1.0000    0.3095 2169.0000   26.2893   -7.6647 
1568.4000    0.0758 6572.4146   56.9305 14425.7236    0.0758   24.2989   18.9895   24.2989    1.0000    0.3479 2174.0000   27.2181   -7.4900 
1568.5000    0.0630 6456.4673   57.9154 14183.3418    0.0630   24.0001   19.5922   24.0001    1.0000    0.3664 2140.0000   27.6678   -7.0653 
1568.6000    0.0661 6358.6270   59.2522 14009.6484    0.0661   24.0681   19.4430   24.0681    1.0000    0.3618 2191.0000   27.5563   -6.5932 
1568.7000    0.0501 6202.1772   58.7852 13840.3359    0.0501   23.7606   20.2506   23.7606    1.0000    0.3868 2175.0000   28.1615   -6.1419 
1568.8000    0.0519 6222.8994   56.4870 13865.0820    0.0519   23.7887   20.1550   23.7887    1.0000    0.3839 2200.0000   28.6248   -5.0695 
1568.9000    0.0727 6178.2891   54.3069 13949.5400    0.0727   24.2225   19.1330   24.2225    1.0000    0.3523 2171.0000   28.5058   -4.2830 
1569.0000    0.0564 6257.7969   55.9813 14125.1494    0.0564   23.8681   19.9187   23.8681    1.0000    0.3765 2190.0000   28.2861   -3.7134 
1569.1000    0.0507 6340.0601   58.8309 14353.5449    0.0507   23.7691   20.2209   23.7691    1.0000    0.3859 2169.0000   28.1392   -2.6091 
1569.2000    0.0602 6367.1968   60.3359 14503.8301    0.0602   23.9414   19.7302   23.9414    1.0000    0.3707 2156.0000   27.7710   -1.7426 
1569.3000    0.0651 6333.7373   59.3833 14470.6504    0.0651   24.0466   19.4891   24.0466    1.0000    0.3633 2183.0000   27.5907   -1.0634 
1569.4000    0.0838 6167.6313   53.2433 13957.6309    0.0838   24.4987   18.6321   24.4987    1.0000    0.3369 2190.0000   27.8580   -0.8830 
1569.5000    0.1029 6056.4761   51.4206 13523.4150    0.1029   24.9749   17.7734   24.9749    1.0000    0.3104 2222.0000   28.4793   -0.9096 
1569.6000    0.0960 5908.0913   52.0939 13030.8525    0.0960   24.8073   18.0903   24.8073    1.0000    0.3202 2183.0000   28.9834   -1.3220 
1569.7000    0.0345 5867.1826   58.7448 12704.4756    0.0345   23.6205   21.2030   23.6205    1.0000    0.4166 2163.0000   30.4148   -1.8679 
1569.8000    0.0280 5970.1772   61.9072 13044.4795    0.0280   23.6502   21.6931   23.6502    1.0000    0.4320 2151.0000   29.2549   -2.4019 
1569.9000    0.0611 6202.5630   63.9310 13639.3682    0.0611   23.9612   19.6826   23.9612    1.0000    0.3692 2166.0000   27.7354   -3.2829 
1570.0000    0.1292 6845.5278   62.9298 15250.2539    0.1292   24.5887   15.5445   24.5887    1.0000    0.2400 2153.0000   24.6076   -3.9122 
1570.1000    0.1339 7254.5815   58.6502 16043.3945    0.1368   23.5205   14.1463   23.7251    0.9786    0.1951 2166.0000   23.5205   -4.3712 
1570.2000    0.1420 7645.7373   52.6038 16770.1504    0.1508   21.5311   11.5876   22.1446    0.9419    0.1129 2169.0000   21.5311   -5.0151 
1570.3000    0.1426 8156.0161   42.7299 17647.3125    0.1517   21.3993   11.4181   22.0399    0.9397    0.1074 2197.0000   21.3993   -5.1621 
1570.4000    0.1429 8240.6465   41.0629 17807.7109    0.1522   21.3299   11.3289   21.9848    0.9385    0.1045 2170.0000   21.3299   -5.0593 
1570.5000    0.1423 8266.4922   41.6209 17893.9238    0.1512   21.4804   11.5224   22.1044    0.9410    0.1108 2160.0000   21.4804   -4.6923 
1570.6000    0.1372 7986.0156   46.2169 17350.7852    0.1425   22.7132   13.1080   23.0837    0.9629    0.1617 2199.0000   22.7132   -4.3884 
1570.7000    0.1335 7672.3398   47.8824 16720.6719    0.1361   23.6289   14.2857   23.8112    0.9809    0.1995 2178.0000   23.6289   -4.1630 
1570.8000    0.1312 7326.6523   49.0540 16053.7529    0.1322   24.1841   14.9998   24.2522    0.9926    0.2225 2188.0000   24.1841   -3.7891 
1570.9000    0.1274 6947.4253   51.1038 15307.4268    0.1274   24.7975   15.8826   24.7975    1.0000    0.2508 2169.0000   24.8705   -3.5018 
1571.0000    0.0602 6389.0737   57.8593 14013.5859    0.0602   23.9423   19.7280   23.9423    1.0000    0.3706 2181.0000   27.7694   -3.2824 
1571.1000    0.0365 6168.2622   59.6778 13749.0127    0.0365   23.6243   21.0720   23.6243    1.0000    0.4125 2191.0000   28.7820   -2.9045 
1571.2000    0.0279 6039.1587   59.8192 13685.8906    0.0279   23.6508   21.6976   23.6508    1.0000    0.4322 2177.0000   29.7836   -2.6158 
1571.3000    0.0321 5930.1128   59.1226 13570.8408    0.0321   23.6231   21.3772   23.6231    1.0000    0.4221 2164.0000   30.1016   -2.3997 
1571.4000    0.0301 5937.3828   59.4393 13614.0664    0.0301   23.6321   21.5230   23.6321    1.0000    0.4267 2189.0000   30.5570   -2.0207 
1571.5000    0.0238 5981.4653   60.5814 13662.0781    0.0238   23.7138   22.0470   23.7138    1.0000    0.4432 2197.0000   30.8666   -1.7079 
1571.6000    0.0182 5938.1416   64.2217 13724.2627    0.0182   23.8852   22.6142   23.8852    1.0000    0.4612 2162.0000   29.9616   -1.4597 
1571.7000    0.0116 5890.0068   64.0716 13732.4658    0.0116   24.2936   23.4790   24.2936    1.0000    0.4889 2164.0000   30.6305   -1.2157 
1571.8000    0.0184 5834.6689   61.9883 13630.3076    0.0184   23.8746   22.5855   23.8746    1.0000    0.4603 2221.0000   29.9395   -1.1231 
1571.9000    0.0390 5715.5840   58.1067 13241.0645    0.0390   23.6361   20.9080   23.6361    1.0000    0.4073 2193.0000   29.4549   -1.1001 
1572.0000    0.0373 5663.9609   58.3427 12987.0996    0.0373   23.6274   21.0172   23.6274    1.0000    0.4108 2187.0000   30.3554   -1.2013 
1572.1000    0.0309 5634.4766   59.3207 12763.7012    0.0309   23.6280   21.4685   23.6280    1.0000    0.4249 2172.0000   31.7747   -1.3530 
1572.2000    0.0316 5694.6367   59.1986 12626.8643    0.0316   23.6247   21.4122   23.6247    1.0000    0.4232 2176.0000   32.2800   -1.5011 
1572.3000    0.0375 5750.7383   58.3130 12798.8779    0.0375   23.6283   21.0035   23.6283    1.0000    0.4103 2200.0000   32.5175   -1.7223 
1572.4000    0.0409 5862.5278   57.8481 13021.0605    0.0409   23.6497   20.7882   23.6497    1.0000    0.4036 2146.0000   32.2595   -1.8764 
1572.5000    0.0401 5986.6069   57.9551 13352.0107    0.0401   23.6435   20.8378   23.6435    1.0000    0.4051 2183.0000   30.5033   -1.9817 
1572.6000    0.0420 6289.8169   57.6968 14204.2979    0.0420   23.6595   20.7180   23.6595    1.0000    0.4014 2165.0000   30.0886   -1.9469 
1572.7000    0.0551 6402.8184   56.1301 14666.5645    0.0551   23.8433   19.9883   23.8433    1.0000    0.3787 2161.0000   29.2252   -1.8445 
1572.8000    0.0748 6510.6504   54.1078 14931.1260    0.0748   24.2721   19.0393   24.2721    1.0000    0.3494 2166.0000   29.1911   -1.5621 
1572.9000    0.0830 6608.3633   53.3216 15212.7939    0.0830   24.4777   18.6690   24.4777    1.0000    0.3380 2173.0000   28.9262   -1.3001 
1573.0000    0.0609 6562.8389   55.4971 15093.5146    0.0609   23.9572   19.6920   23.9572    1.0000    0.3695 2172.0000   28.7563   -1.0908 
1573.1000    0.0390 6522.4380   58.1074 14874.4785    0.0390   23.6361   20.9083   23.6361    1.0000    0.4074 2165.0000   28.9288   -1.0021 
1573.2000    0.0343 6508.0879   59.5796 14386.2676    0.0343   23.6203   21.2227   23.6203    1.0000    0.4172 2159.0000   28.8965   -1.3920 
1573.3000    0.0338 6530.9131   58.9289 14252.7744    0.0338   23.6203   21.2513   23.6203    1.0000    0.4181 2184.0000   28.9182   -1.9899 
1573.4000    0.0591 6519.4360   58.1196 14302.4580    0.0591   23.9196   19.7840   23.9196    1.0000    0.3724 2201.0000   27.8113   -3.2641 
1573.5000    0.0973 6489.0845   55.4203 14655.8857    0.0973   24.8394   18.0318   24.8394    1.0000    0.3184 2176.0000   26.5053   -4.3007 
1573.6000    0.1017 6466.0879   53.9419 14804.5625    0.1017   24.9462   17.8304   24.9462    1.0000    0.3122 2190.0000   26.3552   -5.0476 
