~VERSION INFORMATION
 VERS.                 2.0:   CWLS LOG ASCII STANDARD - VERSION 2.0
 WRAP.                  NO:   SINGLE LINE PER DEPTH STEP
 CREA.                 09/07/2026 11:19:35
#CREATED USING IP VERSION 4.5.2019.2902 BY RADU VLADUTIU ON 09/07/2026 11:19:35
~WELL INFORMATION
#MNEM.UNIT       DATA                          DESCRIPTION MNEMONIC
#---------      ---------------------------   --------------------------
 STRT    .M         1340.0000                 : START DEPTH
 STOP    .M         2032.0000                 : STOP DEPTH
 STEP    .M         0.1000                    : STEP VALUE
 NULL    .      -999.0000                     : NULL VALUE
 DATE    .      09/07/2026                    : LAS file Creation Date
 WELL   .      175-Filitelnic           : Well Name
 COMP   .      S.N.G.N. Romgaz - Medias : Company
 FLD    .      Filitelnic               : Field
 STATE  .      Romania                  : State
 UWI    .                               : Unique Well Identifier (UWI)
 LOC    .                               : Location
 PDAT   .      KB                       : Permanent Datum
 EPDAT  .      511.7300                 : Elevation of Permanent Datum
 KB     .      511.7300                 : KB Elevation
 RWS    .      -999                     : Def_Rw
 WST    .      -999                     : Def_Rwt
 CNTY   .      Mures                    : County
 PROV   .                               : Province
 SRVC   .      PROSPECTIUNI             : Contractor
 GDAT   .      WGS 84                   : Geodatum
 LONG   .      0                        : Longitude
 LATI   .      0                        : Latitude
 COORDIN.                               : Grid System
 XCOORD .                               : X or East-West Coordinate
 YCOORD .                               : Y or North-South Coordinate
~CURVE INFORMATION
#MNEM              UNIT       API CODE   Curve Type Comments
#----------  --------------- ----------  ---------- -----------
 DEPTH      .M                         : Depth       
 BVWRAS     .Dec                       : BVWtdt      
 LS         .CPS                       :             Far Average Capture Rates
 GR         .GAPI                      : GammaRay    Gamma Ray
 SS         .CPS                       :             Near Average Capture Rates
 PHIE       .Dec                       : Phi         
 SigRec     .cu                        :             
 SigRecHyd  .cu                        :             
 SigRecWat  .cu                        :             
 SwRAS      .Dec                       : SwTDT       
 VCL        .Dec                       : Vcl         
 CCL        .                          : CollarLoc.  Casing Collar Locator
 SGFC       .CU                        :             Reservoir Sigma
 PS         .MV                        : SP          
~A  DEPTH   BVWRAS      LS        GR        SS       PHIE     SigRec  SigRecHy~ SigRecWa~   SwRAS      VCL       CCL       SGFC       PS    
# ...
1841.6000    0.0324 5604.1108   56.1909 12963.1992    0.0324   22.9557   20.6876   22.9557    1.0000    0.4231 2177.0000   33.1287   -7.0340 
1841.7000    0.0294 5582.8657   56.7170 12918.0928    0.0294   22.9717   20.9163   22.9717    1.0000    0.4307 2188.0000   33.3755   -7.0610 
1841.8000    0.0313 5567.3530   56.3760 12832.1377    0.0313   22.9598   20.7682   22.9598    1.0000    0.4257 2187.0000   33.7570   -7.6427 
1841.9000    0.0334 5519.7319   56.0266 12868.6709    0.0334   22.9536   20.6161   22.9536    1.0000    0.4207 2181.0000   33.5820   -7.8636 
1842.0000    0.0348 5433.9165   55.7995 12798.9688    0.0348   22.9528   20.5171   22.9528    1.0000    0.4174 2173.0000   33.4073   -8.0909 
1842.1000    0.0379 5453.2358   55.3155 12678.8555    0.0379   22.9598   20.3059   22.9598    1.0000    0.4104 2168.0000   33.6941   -8.4180 
1842.2000    0.0317 5443.8066   56.3038 12637.5137    0.0317   22.9580   20.7368   22.9580    1.0000    0.4247 2171.0000   33.9632   -8.7565 
1842.3000    0.0177 5474.6123   59.2201 12686.4893    0.0177   23.2335   21.9976   23.2335    1.0000    0.4670 2173.0000   34.9637   -9.2475 
1842.4000    0.0064 5511.7773   63.5124 12652.8740    0.0064   24.2769   23.8298   24.2769    1.0000    0.5292 2189.0000   34.0280   -9.5490 
1842.5000    0.0012 5602.8604   69.2932 12774.4658    0.0012   26.3594   26.2723   26.3594    1.0000    0.6129 2176.0000   32.7939   -9.8676 
1842.6000    0.0014 5683.1606   68.7998 12794.2080    0.0014   26.1657   26.0644   26.1657    1.0000    0.6058 2163.0000   32.5781  -10.3925 
1842.7000    0.0026 5685.5425   66.7612 12792.9150    0.0026   25.3895   25.2046   25.3895    1.0000    0.5762 2178.0000   32.3442  -10.6793 
1842.8000    0.0091 5660.3369   62.1209 12746.7305    0.0091   23.8720   23.2383   23.8720    1.0000    0.5090 2163.0000   32.6618  -10.9871 
1842.9000    0.0135 5635.4888   60.4325 12715.4346    0.0135   23.4617   22.5176   23.4617    1.0000    0.4845 2189.0000   32.5993  -11.5058 
1843.0000    0.0179 5559.5200   59.1612 12665.4990    0.0179   23.2240   21.9723   23.2240    1.0000    0.4661 2199.0000   34.1271  -11.4981 
1843.1000    0.0161 5412.8384   59.6556 12604.7969    0.0161   23.3085   22.1847   23.3085    1.0000    0.4733 2178.0000   34.5421  -11.4582 
1843.2000    0.0090 5341.7798   62.1538 12533.7686    0.0090   23.8809   23.2523   23.8809    1.0000    0.5095 2200.0000   35.1385  -11.0714 
1843.3000    0.0044 5301.1338   64.9129 12478.5107    0.0044   24.7325   24.4234   24.7325    1.0000    0.5495 2176.0000   36.0923  -10.8278 
1843.4000    0.0026 5263.9404   66.8610 12264.2158    0.0026   25.4264   25.2468   25.4264    1.0000    0.5777 2165.0000   36.9799  -10.5303 
1843.5000    0.0025 5259.1489   66.9252 12210.4600    0.0025   25.4502   25.2739   25.4502    1.0000    0.5786 2185.0000   36.8184   -9.7030 
1843.6000    0.0022 5269.0527   67.4304 12238.1260    0.0022   25.6394   25.4870   25.6394    1.0000    0.5859 2177.0000   36.9451   -9.1758 
1843.7000    0.0027 5265.7886   66.7469 12322.1094    0.0027   25.3842   25.1986   25.3842    1.0000    0.5760 2163.0000   35.7473   -8.6053 
1843.8000    0.0046 5298.1738   64.7913 12357.4355    0.0046   24.6913   24.3719   24.6913    1.0000    0.5477 2188.0000   35.3507   -7.6597 
1843.9000    0.0063 5286.4019   63.5674 12327.5977    0.0063   24.2940   23.8532   24.2940    1.0000    0.5300 2169.0000   34.8199   -7.1237 
1844.0000    0.0053 5268.7813   64.2420 12272.9082    0.0053   24.5089   24.1392   24.5089    1.0000    0.5397 2183.0000   35.0341   -6.5429 
1844.1000    0.0023 5255.0166   67.1746 12253.9150    0.0023   25.5432   25.3791   25.5432    1.0000    0.5822 2179.0000   35.0328   -5.6040 
1844.2000    0.0030 5239.0840   66.3392 12293.5361    0.0030   25.2349   25.0264   25.2349    1.0000    0.5701 2157.0000   35.5227   -5.0679 
1844.3000    0.0056 5231.7363   64.0380 12371.0537    0.0056   24.4428   24.0528   24.4428    1.0000    0.5368 2170.0000   35.8488   -4.4565 
1844.4000    0.0119 5313.8032   60.9743 12596.7617    0.0119   23.5825   22.7493   23.5825    1.0000    0.4924 2191.0000   35.9769   -3.3157 
1844.5000    0.0096 5395.8882   61.8694 12717.6445    0.0096   23.8048   23.1312   23.8048    1.0000    0.5054 2182.0000   34.0924   -3.0711 
1844.6000    0.0054 5520.5747   64.1885 12892.4316    0.0054   24.4915   24.1166   24.4915    1.0000    0.5390 2178.0000   32.9316   -2.7882 
1844.7000    0.0023 5798.0825   70.2723 13323.9355    0.0023   25.5613   25.3995   25.5613    1.0000    0.5829 2174.0000   30.3574   -2.2450 
1844.8000    0.0032 5949.1978   72.6631 13586.7793    0.0032   25.1437   24.9199   25.1437    1.0000    0.5665 2156.0000   29.9689   -2.0449 
1844.9000    0.0143 6121.0420   74.5585 13854.4883    0.0143   23.4110   22.4131   23.4110    1.0000    0.4810 2188.0000   27.9514   -1.8966 
1845.0000    0.0275 6307.8359   77.6515 14187.9365    0.0275   22.9897   21.0658   22.9897    1.0000    0.4357 2183.0000   26.8819   -2.1246 
1845.1000    0.0335 6363.5146   77.9951 14345.2344    0.0335   22.9534   20.6052   22.9534    1.0000    0.4203 2195.0000   26.5194   -2.2475 
1845.2000    0.0391 6341.0420   76.7561 14268.2539    0.0391   22.9654   20.2254   22.9654    1.0000    0.4077 2179.0000   26.2217   -2.3734 
1845.3000    0.0117 6258.7495   70.8269 14008.2285    0.0117   23.5960   22.7740   23.5960    1.0000    0.4932 2164.0000   28.2400   -2.5209 
1845.4000    0.0097 6203.1040   68.5910 13920.4336    0.0097   23.7926   23.1115   23.7926    1.0000    0.5047 2165.0000   28.5105   -2.6071 
1845.5000    0.0228 6193.6743   67.5033 13830.2041    0.0228   23.0684   21.4716   23.0684    1.0000    0.4493 2179.0000   27.2026   -2.2856 
1845.6000    0.0068 6163.8882   66.5850 13603.8633    0.0068   24.1967   23.7186   24.1967    1.0000    0.5254 2194.0000   28.9987   -2.0568 
1845.7000    0.0064 6246.9424   63.5128 13936.5781    0.0064   24.2770   23.8300   24.2770    1.0000    0.5292 2189.0000   29.6602   -1.8228 
1845.8000    0.0087 6384.6035   62.2814 14225.7666    0.0087   23.9159   23.3067   23.9159    1.0000    0.5113 2164.0000   29.4731   -1.5706 
1845.9000    0.0102 6541.7910   61.6118 14440.2178    0.0102   23.7381   23.0214   23.7381    1.0000    0.5016 2189.0000   29.1226   -1.4172 
1846.0000    0.0278 6893.5684   59.7192 15349.6943    0.0278   22.9864   21.0417   22.9864    1.0000    0.4349 2187.0000   26.8629   -1.2985 
1846.1000    0.0458 7015.3325   57.3375 15721.6719    0.0458   23.0193   19.8125   23.0193    1.0000    0.3940 2159.0000   25.8992   -1.4198 
1846.2000    0.0557 7154.9434   53.9935 15937.4492    0.0557   23.1515   19.2517   23.1515    1.0000    0.3756 2180.0000   25.4630   -1.6935 
1846.3000    0.0993 7230.3716   47.0429 16008.1895    0.0993   23.6281   16.6755   23.6281    1.0000    0.2905 2180.0000   25.6378   -2.0288 
1846.4000    0.1031 7221.3174   45.1941 15855.9873    0.1031   23.1050   15.8891   23.1050    1.0000    0.2637 2173.0000   25.8186   -2.6763 
1846.5000    0.1030 7198.1372   45.2336 15752.8213    0.1030   23.1162   15.9059   23.1162    1.0000    0.2643 2173.0000   25.6137   -3.0237 
1846.6000    0.0832 7035.3823   49.6330 15609.5479    0.0832   23.6274   17.8045   23.6274    1.0000    0.3280 2188.0000   26.1723   -3.4230 
1846.7000    0.0596 6952.9097   52.4408 15666.4766    0.0596   23.2143   19.0436   23.2143    1.0000    0.3687 2171.0000   26.1288   -4.0630 
1846.8000    0.0431 6849.7031   54.5605 15515.0811    0.0431   22.9932   19.9756   22.9932    1.0000    0.3994 2172.0000   26.1580   -4.4132 
1846.9000    0.0349 6708.3418   55.7819 15158.4082    0.0349   22.9529   20.5095   22.9529    1.0000    0.4171 2192.0000   27.0506   -4.8161 
1847.0000    0.0362 6657.2920   55.5828 14923.9434    0.0362   22.9545   20.4226   22.9545    1.0000    0.4142 2202.0000   27.2152   -5.4505 
1847.1000    0.0387 6586.9927   55.1983 14705.3662    0.0387   22.9632   20.2547   22.9632    1.0000    0.4087 2186.0000   27.7664   -5.8012 
1847.2000    0.0413 6545.3350   54.8152 14607.3945    0.0413   22.9789   20.0872   22.9789    1.0000    0.4031 2180.0000   27.7623   -6.1752 
