~VERSION INFORMATION
 VERS.                 2.0:   CWLS LOG ASCII STANDARD - VERSION 2.0
 WRAP.                  NO:   SINGLE LINE PER DEPTH STEP
 CREA.                 09/07/2026 11:19:35
#CREATED USING IP VERSION 4.5.2019.2902 BY RADU VLADUTIU ON 09/07/2026 11:19:35
~WELL INFORMATION
#MNEM.UNIT       DATA                          DESCRIPTION MNEMONIC
#---------      ---------------------------   --------------------------
 STRT    .M         1340.0000                 : START DEPTH
 STOP    .M         2032.0000                 : STOP DEPTH
 STEP    .M         0.1000                    : STEP VALUE
 NULL    .      -999.0000                     : NULL VALUE
 DATE    .      09/07/2026                    : LAS file Creation Date
 WELL   .      175-Filitelnic           : Well Name
 COMP   .      S.N.G.N. Romgaz - Medias : Company
 FLD    .      Filitelnic               : Field
 STATE  .      Romania                  : State
 UWI    .                               : Unique Well Identifier (UWI)
 LOC    .                               : Location
 PDAT   .      KB                       : Permanent Datum
 EPDAT  .      511.7300                 : Elevation of Permanent Datum
 KB     .      511.7300                 : KB Elevation
 RWS    .      -999                     : Def_Rw
 WST    .      -999                     : Def_Rwt
 CNTY   .      Mures                    : County
 PROV   .                               : Province
 SRVC   .      PROSPECTIUNI             : Contractor
 GDAT   .      WGS 84                   : Geodatum
 LONG   .      0                        : Longitude
 LATI   .      0                        : Latitude
 COORDIN.                               : Grid System
 XCOORD .                               : X or East-West Coordinate
 YCOORD .                               : Y or North-South Coordinate
~CURVE INFORMATION
#MNEM              UNIT       API CODE   Curve Type Comments
#----------  --------------- ----------  ---------- -----------
 DEPTH      .M                         : Depth       
 BVWRAS     .Dec                       : BVWtdt      
 LS         .CPS                       :             Far Average Capture Rates
 GR         .GAPI                      : GammaRay    Gamma Ray
 SS         .CPS                       :             Near Average Capture Rates
 PHIE       .Dec                       : Phi         
 SigRec     .cu                        :             
 SigRecHyd  .cu                        :             
 SigRecWat  .cu                        :             
 SwRAS      .Dec                       : SwTDT       
 VCL        .Dec                       : Vcl         
 CCL        .                          : CollarLoc.  Casing Collar Locator
 SGFC       .CU                        :             Reservoir Sigma
 PS         .MV                        : SP          
~A  DEPTH   BVWRAS      LS        GR        SS       PHIE     SigRec  SigRecHy~ SigRecWa~   SwRAS      VCL       CCL       SGFC       PS    
# ...
1796.0000    0.0098 5859.2485   61.7854 13491.7236    0.0098   23.7828   23.0954   23.7828    1.0000    0.5041 2160.0000   32.6515   -2.0946 
1796.1000    0.0128 5893.2188   60.6762 13552.8564    0.0128   23.5147   22.6219   23.5147    1.0000    0.4881 2148.0000   32.5286   -1.9153 
1796.2000    0.0115 5878.0645   61.1182 13625.5342    0.0115   23.6164   22.8108   23.6164    1.0000    0.4945 2208.0000   32.8295   -1.7416 
1796.3000    0.0103 5874.9492   61.6023 13650.5938    0.0103   23.7356   23.0173   23.7356    1.0000    0.5015 2171.0000   33.0359   -1.7339 
1796.4000    0.0142 5852.7212   60.1941 13816.6611    0.0142   23.4121   22.4156   23.4121    1.0000    0.4811 2111.0000   32.3213   -1.7349 
1796.5000    0.0158 5837.8872   59.7389 13697.0361    0.0158   23.3237   22.2204   23.3237    1.0000    0.4745 2211.0000   31.5172   -1.7736 
1796.6000    0.0139 5791.5669   60.3113 13521.2793    0.0139   23.4362   22.4657   23.4362    1.0000    0.4828 2206.0000   31.2062   -1.7805 
1796.7000    0.0096 5711.0166   61.8914 13192.5898    0.0096   23.8106   23.1406   23.8106    1.0000    0.5057 2211.0000   30.5560   -1.7382 
1796.8000    0.0112 5680.4004   61.2335 13039.6338    0.0112   23.6440   22.8600   23.6440    1.0000    0.4961 2172.0000   30.2337   -1.4805 
1796.9000    0.0144 5718.3062   60.1337 13030.7871    0.0144   23.3999   22.3897   23.3999    1.0000    0.4802 1827.0000   30.2713   -1.3235 
1797.0000    0.0151 5754.4146   59.9396 13411.1855    0.0151   23.3617   22.3065   23.3617    1.0000    0.4774 2073.0000   30.0704   -1.1465 
1797.1000    0.0127 5817.7627   60.6930 13609.3145    0.0127   23.5184   22.6291   23.5184    1.0000    0.4883 2160.0000   30.5018   -0.8978 
1797.2000    0.0095 5857.2061   61.9051 13731.4268    0.0095   23.8142   23.1464   23.8142    1.0000    0.5059 2181.0000   30.6241   -0.7424 
1797.3000    0.0034 5953.8721   65.8960 13938.2314    0.0034   25.0752   24.8392   25.0752    1.0000    0.5637 2189.0000   30.2157   -0.5653 
1797.4000    0.0022 5990.1099   67.3790 13865.9912    0.0022   25.6200   25.4654   25.6200    1.0000    0.5852 2170.0000   30.8515   -0.3575 
1797.5000    0.0020 5985.4414   67.8670 13899.2393    0.0020   25.7366   25.5952   25.7366    1.0000    0.5897 2173.0000   30.5161   -0.4379 
1797.6000    0.0040 5987.4619   66.6056 14015.2480    0.0040   24.8658   24.5876   24.8658    1.0000    0.5551 2189.0000   29.7001   -0.5546 
1797.7000    0.0043 6016.3687   64.9739 14123.1787    0.0043   24.7533   24.4492   24.7533    1.0000    0.5503 2172.0000   30.5250   -0.8113 
1797.8000    0.0073 6023.1201   62.9846 14098.4375    0.0073   24.1171   23.6057   24.1171    1.0000    0.5215 2176.0000   30.7431   -1.0041 
1797.9000    0.0108 6043.7285   61.3974 14108.4795    0.0108   23.6842   22.9299   23.6842    1.0000    0.4985 2175.0000   31.5631   -1.2152 
1798.0000    0.0121 6030.8340   60.9054 13935.7842    0.0121   23.5665   22.7199   23.5665    1.0000    0.4914 2177.0000   31.5657   -1.5014 
1798.1000    0.0124 6014.7988   60.8045 13966.7959    0.0124   23.5435   22.6767   23.5435    1.0000    0.4899 2168.0000   31.6123   -1.8435 
1798.2000    0.0149 5963.9619   59.9919 13909.9268    0.0149   23.3718   22.3289   23.3718    1.0000    0.4781 2182.0000   31.3031   -2.3529 
1798.3000    0.0202 5975.7046   58.5938 13925.6885    0.0202   23.1403   21.7281   23.1403    1.0000    0.4579 2180.0000   31.3611   -2.6371 
1798.4000    0.0165 5957.3770   59.5263 13934.4609    0.0165   23.2854   22.1292   23.2854    1.0000    0.4714 2195.0000   31.0336   -2.9798 
1798.5000    0.0113 5947.4956   61.1954 13966.5996    0.0113   23.6348   22.8437   23.6348    1.0000    0.4956 2187.0000   30.7839   -3.4898 
1798.6000    0.0080 5975.7563   62.6460 13936.0264    0.0080   24.0185   23.4618   24.0185    1.0000    0.5166 2178.0000   31.4597   -3.7724 
1798.7000    0.0099 5937.6636   61.7566 13969.8740    0.0099   23.7753   23.0831   23.7753    1.0000    0.5037 2192.0000   31.5031   -4.1164 
1798.8000    0.0136 5906.1870   60.3936 13876.5000    0.0136   23.4535   22.5010   23.4535    1.0000    0.4840 2187.0000   31.6755   -4.6378 
1798.9000    0.0181 5850.9961   59.1164 13755.3994    0.0181   23.2168   21.9531   23.2168    1.0000    0.4655 2178.0000   31.8443   -4.9680 
1799.0000    0.0146 5845.5679   60.0890 13670.7373    0.0146   23.3910   22.3705   23.3910    1.0000    0.4796 2180.0000   32.4115   -5.4100 
1799.1000    0.0100 5784.7686   61.6976 13552.5967    0.0100   23.7600   23.0580   23.7600    1.0000    0.5029 2183.0000   33.4126   -6.1596 
1799.2000    0.0069 5719.6265   63.2020 13548.5645    0.0069   24.1820   23.6980   24.1820    1.0000    0.5247 2172.0000   32.9282   -6.5682 
1799.3000    0.0086 5753.2930   62.3144 13596.8779    0.0086   23.9250   23.3207   23.9250    1.0000    0.5118 2176.0000   34.0539   -7.0762 
1799.4000    0.0117 5779.9990   61.0614 13643.2383    0.0117   23.6029   22.7865   23.6029    1.0000    0.4936 2178.0000   33.0897   -7.8090 
1799.5000    0.0139 5730.4116   60.2956 13677.1162    0.0139   23.4330   22.4590   23.4330    1.0000    0.4825 2176.0000   33.0654   -8.1217 
1799.6000    0.0121 5721.7480   60.8915 13656.6270    0.0121   23.5633   22.7139   23.5633    1.0000    0.4912 2167.0000   32.9300   -8.4828 
1799.7000    0.0098 5756.9443   61.8040 13586.4160    0.0098   23.7876   23.1033   23.7876    1.0000    0.5044 2182.0000   32.7210   -8.9550 
1799.8000    0.0079 5790.4482   62.6562 13558.6787    0.0079   24.0214   23.4661   24.0214    1.0000    0.5168 2183.0000   33.1281   -9.2555 
1799.9000    0.0092 5712.1865   62.0528 13474.8701    0.0092   23.8536   23.2093   23.8536    1.0000    0.5080 2192.0000   33.5539   -9.5252 
1800.0000    0.0128 5684.1357   60.6590 13459.6436    0.0128   23.5109   22.6145   23.5109    1.0000    0.4878 2171.0000   35.0313   -9.6746 
1800.1000    0.0170 5712.5850   59.3962 13416.4766    0.0170   23.2628   22.0733   23.2628    1.0000    0.4695 2176.0000   34.5964   -9.7584 
1800.2000    0.0184 5658.8857   59.0250 13213.5625    0.0184   23.2026   21.9138   23.2026    1.0000    0.4641 2178.0000   34.4179   -9.8798 
1800.3000    0.0158 5605.5654   59.7273 13209.6641    0.0158   23.3216   22.2154   23.3216    1.0000    0.4743 2180.0000   34.1419  -10.0774 
1800.4000    0.0144 5588.5879   60.1590 13233.2676    0.0144   23.4050   22.4005   23.4050    1.0000    0.4806 2166.0000   34.4139  -10.1428 
1800.5000    0.0167 5588.1265   59.4838 13166.4844    0.0167   23.2779   22.1109   23.2779    1.0000    0.4708 2176.0000   33.5990  -10.2258 
1800.6000    0.0187 5592.5435   58.9520 13162.6367    0.0187   23.1914   21.8823   23.1914    1.0000    0.4631 2179.0000   33.2659  -10.3343 
1800.7000    0.0209 5589.4438   58.4196 13159.4531    0.0209   23.1175   21.6530   23.1175    1.0000    0.4554 2189.0000   33.2131  -10.3577 
1800.8000    0.0180 5599.4673   59.1182 13189.4102    0.0180   23.2171   21.9538   23.2171    1.0000    0.4655 2173.0000   32.7100  -10.3339 
1800.9000    0.0129 5628.8052   60.6173 13297.6748    0.0129   23.5017   22.5967   23.5017    1.0000    0.4872 2173.0000   33.0930  -10.1889 
1801.0000    0.0089 5638.2842   62.1763 13260.6318    0.0089   23.8871   23.2619   23.8871    1.0000    0.5098 2175.0000   32.9171  -10.0988 
1801.1000    0.0062 5644.9956   63.6271 13334.6572    0.0062   24.3126   23.8785   24.3126    1.0000    0.5308 2176.0000   33.4174  -10.0116 
1801.2000    0.0034 5650.7617   65.9112 13399.9121    0.0034   25.0807   24.8456   25.0807    1.0000    0.5639 2179.0000   33.5348   -9.9328 
1801.3000    0.0031 5661.9175   66.2389 13352.0537    0.0031   25.1985   24.9841   25.1985    1.0000    0.5687 2187.0000   32.3850   -9.8486 
1801.4000    0.0030 5640.6313   66.3232 13281.9258    0.0030   25.2291   25.0197   25.2291    1.0000    0.5699 2184.0000   33.9625   -9.7858 
1801.5000    0.0021 5606.4434   67.5857 13175.1484    0.0021   25.6981   25.5526   25.6981    1.0000    0.5882 2170.0000   34.3613   -9.8250 
1801.6000    0.0016 5585.9663   68.4581 13172.0215    0.0016   26.0327   25.9204   26.0327    1.0000    0.6008 2174.0000   32.5956   -9.8737 
