~VERSION INFORMATION
 VERS.                 2.0:   CWLS LOG ASCII STANDARD - VERSION 2.0
 WRAP.                  NO:   SINGLE LINE PER DEPTH STEP
 CREA.                 09/07/2026 11:19:35
#CREATED USING IP VERSION 4.5.2019.2902 BY RADU VLADUTIU ON 09/07/2026 11:19:35
~WELL INFORMATION
#MNEM.UNIT       DATA                          DESCRIPTION MNEMONIC
#---------      ---------------------------   --------------------------
 STRT    .M         1340.0000                 : START DEPTH
 STOP    .M         2032.0000                 : STOP DEPTH
 STEP    .M         0.1000                    : STEP VALUE
 NULL    .      -999.0000                     : NULL VALUE
 DATE    .      09/07/2026                    : LAS file Creation Date
 WELL   .      175-Filitelnic           : Well Name
 COMP   .      S.N.G.N. Romgaz - Medias : Company
 FLD    .      Filitelnic               : Field
 STATE  .      Romania                  : State
 UWI    .                               : Unique Well Identifier (UWI)
 LOC    .                               : Location
 PDAT   .      KB                       : Permanent Datum
 EPDAT  .      511.7300                 : Elevation of Permanent Datum
 KB     .      511.7300                 : KB Elevation
 RWS    .      -999                     : Def_Rw
 WST    .      -999                     : Def_Rwt
 CNTY   .      Mures                    : County
 PROV   .                               : Province
 SRVC   .      PROSPECTIUNI             : Contractor
 GDAT   .      WGS 84                   : Geodatum
 LONG   .      0                        : Longitude
 LATI   .      0                        : Latitude
 COORDIN.                               : Grid System
 XCOORD .                               : X or East-West Coordinate
 YCOORD .                               : Y or North-South Coordinate
~CURVE INFORMATION
#MNEM              UNIT       API CODE   Curve Type Comments
#----------  --------------- ----------  ---------- -----------
 DEPTH      .M                         : Depth       
 BVWRAS     .Dec                       : BVWtdt      
 LS         .CPS                       :             Far Average Capture Rates
 GR         .GAPI                      : GammaRay    Gamma Ray
 SS         .CPS                       :             Near Average Capture Rates
 PHIE       .Dec                       : Phi         
 SigRec     .cu                        :             
 SigRecHyd  .cu                        :             
 SigRecWat  .cu                        :             
 SwRAS      .Dec                       : SwTDT       
 VCL        .Dec                       : Vcl         
 CCL        .                          : CollarLoc.  Casing Collar Locator
 SGFC       .CU                        :             Reservoir Sigma
 PS         .MV                        : SP          
~A  DEPTH   BVWRAS      LS        GR        SS       PHIE     SigRec  SigRecHy~ SigRecWa~   SwRAS      VCL       CCL       SGFC       PS    
# ...
1978.2000    0.0027 5614.2734   63.6622 13505.2451    0.0027   24.4482   24.2805   24.4482    1.0000    0.5458 2168.0000   34.2548   -0.8066 
1978.3000    0.0013 5624.4727   66.1121 13405.3799    0.0013   25.3562   25.2761   25.3562    1.0000    0.5813 2177.0000   34.7571   -1.0245 
1978.4000    0.0011 5615.9385   66.5075 13279.0801    0.0011   25.5075   25.4367   25.5075    1.0000    0.5871 2166.0000   34.7008   -1.1814 
1978.5000    0.0038 5672.7021   62.4948 13138.7314    0.0038   24.0399   23.8057   24.0399    1.0000    0.5289 2189.0000   34.4989   -1.3715 
1978.6000    0.0062 5668.4199   60.7057 13087.3350    0.0062   23.4593   23.0773   23.4593    1.0000    0.5030 2174.0000   34.2887   -1.5962 
1978.7000    0.0068 5763.3398   60.3396 13124.8672    0.0068   23.3488   22.9281   23.3488    1.0000    0.4977 2167.0000   33.6658   -1.6591 
1978.8000    0.0043 5824.9463   62.0060 13199.8467    0.0043   23.8753   23.6068   23.8753    1.0000    0.5218 2181.0000   33.4036   -1.7036 
1978.9000    0.0040 5850.6631   62.2489 13232.6914    0.0040   23.9566   23.7057   23.9566    1.0000    0.5253 2179.0000   33.2099   -1.7107 
1979.0000    0.0052 5874.3579   61.3207 13344.2568    0.0052   23.6517   23.3278   23.6517    1.0000    0.5119 2162.0000   33.2542   -1.7870 
1979.1000    0.0088 5873.3945   59.3248 13321.5361    0.0088   23.0607   22.5143   23.0607    1.0000    0.4830 2188.0000   33.6730   -1.8734 
1979.2000    0.0241 5850.8149   55.0071 13437.7402    0.0241   22.2411   20.7469   22.2411    1.0000    0.4204 2175.0000   34.0850   -2.0024 
1979.3000    0.0312 5817.8296   53.7550 13402.1260    0.0312   22.1654   20.2317   22.1654    1.0000    0.4022 2194.0000   34.6381   -2.1542 
1979.4000    0.0368 5838.4873   52.9045 13395.9307    0.0368   22.1637   19.8809   22.1637    1.0000    0.3899 2195.0000   35.3888   -2.3338 
1979.5000    0.0475 5820.2988   51.5119 13439.5605    0.0475   22.2508   19.3051   22.2508    1.0000    0.3697 2178.0000   35.6595   -2.6336 
1979.6000    0.0451 5829.1650   51.8062 13521.0078    0.0451   22.7841   19.9880   22.7841    1.0000    0.3740 2179.0000   35.6594   -2.9870 
1979.7000    0.0610 5865.7954   53.3923 13509.5400    0.0610   23.7351   19.9548   23.7351    1.0000    0.3734 2181.0000   35.8728   -3.5519 
1979.8000    0.0327 5969.8545   57.0846 13608.7412    0.0327   23.6123   21.5849   23.6123    1.0000    0.4277 2182.0000   34.9705   -3.8526 
1979.9000    0.0325 6001.7329   57.1172 13709.7061    0.0325   23.6141   21.5992   23.6141    1.0000    0.4282 2193.0000   33.8915   -4.1982 
1980.0000    0.0364 6031.4541   56.5168 13868.4590    0.0364   23.5899   21.3349   23.5899    1.0000    0.4194 2164.0000   33.2468   -4.7697 
1980.1000    0.0347 6162.8369   56.7747 14113.9844    0.0347   23.5981   21.4485   23.5981    1.0000    0.4232 2190.0000   31.7145   -5.0716 
1980.2000    0.0355 6240.7212   56.6515 14292.4629    0.0355   23.5938   21.3942   23.5938    1.0000    0.4213 2182.0000   31.2654   -5.3787 
1980.3000    0.0412 6263.4102   55.8232 14473.5439    0.0412   23.5843   21.0291   23.5843    1.0000    0.4092 2153.0000   30.8473   -5.6794 
1980.4000    0.0477 6257.6860   54.9715 14245.6484    0.0477   23.6089   20.6532   23.6089    1.0000    0.3966 2184.0000   30.3779   -5.6116 
1980.5000    0.0479 6213.8306   54.9405 14144.4131    0.0479   23.6104   20.6395   23.6104    1.0000    0.3962 2154.0000   30.8920   -5.4962 
1980.6000    0.0522 6149.5083   54.4117 13999.8047    0.0522   23.6427   20.4058   23.6427    1.0000    0.3884 2151.0000   30.7211   -4.9207 
1980.7000    0.0584 6060.6401   53.6842 13782.6387    0.0584   23.7050   20.0840   23.7050    1.0000    0.3777 2159.0000   30.9338   -4.5392 
1980.8000    0.0564 5776.7734   53.9107 13325.2949    0.0564   23.6836   20.1842   23.6836    1.0000    0.3810 2158.0000   31.9435   -4.1382 
1980.9000    0.0499 5644.5298   54.6956 13120.0703    0.0499   23.6239   20.5313   23.6239    1.0000    0.3926 2195.0000   32.1460   -3.4728 
1981.0000    0.0459 5534.8418   55.2028 12812.6152    0.0459   23.5989   20.7554   23.5989    1.0000    0.4000 2161.0000   33.6552   -3.1357 
1981.1000    0.0529 5468.6411   54.3330 12785.4502    0.0529   23.6485   20.3710   23.6485    1.0000    0.3873 2178.0000   33.1650   -2.7855 
1981.2000    0.0556 5488.2749   54.0112 12997.9219    0.0556   23.6746   20.2287   23.6746    1.0000    0.3825 2073.0000   33.1899   -2.1122 
1981.3000    0.0499 5530.7734   54.6991 13232.7959    0.0499   23.6237   20.5328   23.6237    1.0000    0.3926 2187.0000   32.6334   -1.8296 
1981.4000    0.0252 5783.8022   58.4079 13852.5098    0.0252   23.7268   22.1665   23.7268    1.0000    0.4472 2164.0000   32.5428   -1.5463 
1981.5000    0.0171 5893.9595   60.2092 14082.7451    0.0171   24.0161   22.9560   24.0161    1.0000    0.4737 2158.0000   32.3211   -1.2103 
1981.6000    0.0132 5979.7070   61.3218 14051.6943    0.0132   24.2637   23.4425   24.2637    1.0000    0.4900 2186.0000   32.5381   -1.0638 
1981.7000    0.0101 6095.0938   62.4497 14171.2930    0.0101   24.5609   23.9350   24.5609    1.0000    0.5066 2186.0000   30.8465   -0.9194 
1981.8000    0.0095 6125.0317   62.6920 14148.9531    0.0095   24.6302   24.0407   24.6302    1.0000    0.5102 2169.0000   31.1548   -0.9268 
1981.9000    0.0119 6090.5522   61.7603 14097.3428    0.0119   24.3741   23.6341   24.3741    1.0000    0.4965 2169.0000   31.2888   -1.1356 
1982.0000    0.0207 6026.8311   59.3486 14017.7695    0.0207   23.8596   22.5791   23.8596    1.0000    0.4610 2176.0000   31.3306   -1.3494 
1982.1000    0.0491 5960.4370   54.7921 14052.6777    0.0491   23.6183   20.5739   23.6183    1.0000    0.3940 2163.0000   32.4728   -1.7732 
1982.2000    0.0486 5930.9189   54.8503 13858.0537    0.0486   23.6151   20.5997   23.6151    1.0000    0.3949 2185.0000   33.3124   -1.9958 
1982.3000    0.0375 5940.5552   56.3444 13839.0127    0.0375   23.5863   21.2589   23.5863    1.0000    0.4168 2182.0000   33.6505   -2.2074 
1982.4000    0.0186 5911.4600   59.8282 13863.2920    0.0186   23.9428   22.7892   23.9428    1.0000    0.4681 2197.0000   33.9822   -2.6302 
1982.5000    0.0173 5925.9761   60.1619 13870.6240    0.0173   24.0066   22.9353   24.0066    1.0000    0.4730 2186.0000   32.7511   -2.8567 
1982.6000    0.0196 5965.0000   59.5835 13898.8428    0.0196   23.8991   22.6820   23.8991    1.0000    0.4645 2167.0000   33.4351   -3.0656 
1982.7000    0.0265 6022.0981   58.1510 14176.4863    0.0265   23.6978   22.0537   23.6978    1.0000    0.4434 2165.0000   32.2679   -3.2868 
1982.8000    0.0316 6041.3076   57.2697 14247.9453    0.0316   23.6231   21.6663   23.6231    1.0000    0.4304 2180.0000   33.5617   -3.5093 
1982.9000    0.0407 6040.7856   55.8956 14362.6973    0.0407   23.5838   21.0611   23.5838    1.0000    0.4102 2174.0000   33.3367   -3.9012 
1983.0000    0.0639 6078.8296   53.0615 14242.8311    0.0639   23.7722   19.8083   23.7722    1.0000    0.3686 2187.0000   31.8504   -4.0280 
1983.1000    0.0597 6075.4927   53.5357 14110.4287    0.0597   23.7200   20.0183   23.7200    1.0000    0.3755 2189.0000   32.2488   -4.1155 
1983.2000    0.0359 6055.2803   56.5830 14122.3311    0.0359   23.5917   21.3640   23.5917    1.0000    0.4203 2173.0000   32.6586   -3.7765 
1983.3000    0.0038 6079.2539   66.1533 14047.7520    0.0038   25.7836   25.5480   25.7836    1.0000    0.5611 2172.0000   31.1635   -3.4452 
1983.4000    0.0024 6111.5068   68.7418 14118.6094    0.0024   26.4133   26.2672   26.4133    1.0000    0.5854 2162.0000   30.8304   -3.1271 
1983.5000    0.0025 6138.9941   68.7759 14305.2754    0.0025   26.3224   26.1658   26.3224    1.0000    0.5820 2197.0000   30.7388   -2.4955 
1983.6000    0.0031 6189.1431   66.8243 14367.2295    0.0031   26.0345   25.8398   26.0345    1.0000    0.5709 2159.0000   30.6956   -2.0483 
1983.7000    0.0134 6336.4063   61.2599 14507.7441    0.0134   24.2486   23.4155   24.2486    1.0000    0.4891 2190.0000   30.3375   -1.6529 
1983.8000    0.0211 6370.4365   59.2521 14563.4658    0.0211   23.8441   22.5368   23.8441    1.0000    0.4596 2185.0000   30.0891   -1.2715 
