~VERSION INFORMATION
 VERS.                 2.0:   CWLS LOG ASCII STANDARD - VERSION 2.0
 WRAP.                  NO:   SINGLE LINE PER DEPTH STEP
 CREA.                 09/07/2026 11:19:35
#CREATED USING IP VERSION 4.5.2019.2902 BY RADU VLADUTIU ON 09/07/2026 11:19:35
~WELL INFORMATION
#MNEM.UNIT       DATA                          DESCRIPTION MNEMONIC
#---------      ---------------------------   --------------------------
 STRT    .M         1340.0000                 : START DEPTH
 STOP    .M         2032.0000                 : STOP DEPTH
 STEP    .M         0.1000                    : STEP VALUE
 NULL    .      -999.0000                     : NULL VALUE
 DATE    .      09/07/2026                    : LAS file Creation Date
 WELL   .      175-Filitelnic           : Well Name
 COMP   .      S.N.G.N. Romgaz - Medias : Company
 FLD    .      Filitelnic               : Field
 STATE  .      Romania                  : State
 UWI    .                               : Unique Well Identifier (UWI)
 LOC    .                               : Location
 PDAT   .      KB                       : Permanent Datum
 EPDAT  .      511.7300                 : Elevation of Permanent Datum
 KB     .      511.7300                 : KB Elevation
 RWS    .      -999                     : Def_Rw
 WST    .      -999                     : Def_Rwt
 CNTY   .      Mures                    : County
 PROV   .                               : Province
 SRVC   .      PROSPECTIUNI             : Contractor
 GDAT   .      WGS 84                   : Geodatum
 LONG   .      0                        : Longitude
 LATI   .      0                        : Latitude
 COORDIN.                               : Grid System
 XCOORD .                               : X or East-West Coordinate
 YCOORD .                               : Y or North-South Coordinate
~CURVE INFORMATION
#MNEM              UNIT       API CODE   Curve Type Comments
#----------  --------------- ----------  ---------- -----------
 DEPTH      .M                         : Depth       
 BVWRAS     .Dec                       : BVWtdt      
 LS         .CPS                       :             Far Average Capture Rates
 GR         .GAPI                      : GammaRay    Gamma Ray
 SS         .CPS                       :             Near Average Capture Rates
 PHIE       .Dec                       : Phi         
 SigRec     .cu                        :             
 SigRecHyd  .cu                        :             
 SigRecWat  .cu                        :             
 SwRAS      .Dec                       : SwTDT       
 VCL        .Dec                       : Vcl         
 CCL        .                          : CollarLoc.  Casing Collar Locator
 SGFC       .CU                        :             Reservoir Sigma
 PS         .MV                        : SP          
~A  DEPTH   BVWRAS      LS        GR        SS       PHIE     SigRec  SigRecHy~ SigRecWa~   SwRAS      VCL       CCL       SGFC       PS    
# ...
2023.8000    0.0007 5775.0581   96.1533 13268.2168    0.0007   28.0783   28.0378   28.0783    1.0000    0.6454 2175.0000   32.4314   -6.9677 
2023.9000    0.0008 5789.2246   95.4262 13243.3613    0.0008   27.9032   27.8566   27.9032    1.0000    0.6392 2171.0000   32.2675   -8.1325 
2024.0000    0.0007 5810.0723   98.5656 13232.3008    0.0007   27.9435   27.8984   27.9435    1.0000    0.6406 2195.0000   32.3053   -8.9343 
2024.1000    0.0008 5799.7510  100.8872 13211.0908    0.0008   27.8569   27.8086   27.8569    1.0000    0.6376 2192.0000   32.2241   -9.6780 
2024.2000    0.0003 5698.2090  102.0357 13034.2998    0.0003   29.1439   29.1268   29.1439    1.0000    0.6823 2170.0000   33.4167  -11.2869 
2024.3000    0.0001 5616.4351   98.7946 12773.0518    0.0001   30.1040   30.0965   30.1040    1.0000    0.7151 2171.0000   34.2942  -13.0139 
2024.4000    0.0001 5593.3892   96.4211 12621.5156    0.0001   30.5852   30.5790   30.5852    1.0000    0.7315 2167.0000   34.7309  -13.6528 
2024.5000    0.0001 5519.6748   95.8264 12555.2520    0.0001   31.0946   31.0884   31.0946    1.0000    0.7488 2166.0000   35.1920  -13.5577 
2024.6000    0.0001 5405.3940  102.2953 12578.2373    0.0001   31.6236   31.6174   31.6236    1.0000    0.7667 2177.0000   35.6708  -13.3828 
2024.7000    0.0001 5381.8311  108.5748 12588.3682    0.0001   31.7003   31.6941   31.7003    1.0000    0.7693 2171.0000   35.7402  -13.2546 
2024.8000    0.0001 5404.6089  115.0002 12686.5771    0.0001   31.9709   31.9647   31.9709    1.0000    0.7785 2189.0000   35.9851  -13.0640 
2024.9000    0.0001 5357.0381  119.1633 12678.8145    0.0001   32.0613   32.0551   32.0613    1.0000    0.7815 2231.0000   36.0669  -12.8639 
2025.0000    0.0001 5336.9629  119.0145 12632.1289    0.0001   32.0022   31.9960   32.0022    1.0000    0.7795 2186.0000   36.0134  -12.7347 
2025.1000    0.0001 5371.4570  118.5934 12724.3486    0.0001   32.0557   32.0494   32.0557    1.0000    0.7813 2199.0000   36.0618  -12.5707 
2025.2000    0.0001 5389.6519  119.2988 12787.2930    0.0001   32.6701   32.6639   32.6701    1.0000    0.8022 2183.0000   36.6179  -12.4005 
2025.3000    0.0001 5531.2979  121.3904 12957.9092    0.0001   32.1595   32.1533   32.1595    1.0000    0.7849 2166.0000   36.1558  -12.2268 
2025.4000    0.0001 5561.2090  121.0962 13102.4355    0.0001   31.6120   31.6058   31.6120    1.0000    0.7663 2149.0000   35.6603  -12.0777 
2025.5000    0.0001 5660.7646  118.5144 13240.7676    0.0001   31.2778   31.2716   31.2778    1.0000    0.7550 2190.0000   35.3578  -11.9321 
2025.6000    0.0001 5756.0693  108.6015 13385.4297    0.0001   31.1705   31.1643   31.1705    1.0000    0.7513 2199.0000   35.2607  -11.7234 
2025.7000    0.0001 5757.4497  104.0168 13407.7236    0.0001   31.1475   31.1413   31.1475    1.0000    0.7506 2183.0000   35.2398  -11.5844 
2025.8000    0.0001 5797.9497  100.8420 13501.7949    0.0001   31.4674   31.4612   31.4674    1.0000    0.7614 2193.0000   35.5294  -11.4560 
2025.9000    0.0001 5771.1533  100.9696 13575.3086    0.0001   31.7120   31.7058   31.7120    1.0000    0.7697 2148.0000   35.7508  -11.2262 
2026.0000    0.0001 5758.8901  102.9185 13515.6309    0.0001   32.3368   32.3306   32.3368    1.0000    0.7909 2162.0000   36.3163  -11.0923 
2026.1000    0.0001 5736.0693  103.7998 13473.9990    0.0001   31.8475   31.8413   31.8475    1.0000    0.7743 2162.0000   35.8734  -10.9733 
2026.2000    0.0005 5718.9253  102.8717 13468.0186    0.0005   28.5317   28.5035   28.5317    1.0000    0.6611 2168.0000   32.8527  -10.7846 
2026.3000    0.0001 5736.6738  102.4990 13455.1807    0.0001   31.3980   31.3918   31.3980    1.0000    0.7590 2209.0000   35.4666  -10.6890 
2026.4000    0.0001 5724.8120  101.4631 13461.5596    0.0001   30.4013   30.3951   30.4013    1.0000    0.7253 2187.0000   34.5645  -10.6074 
2026.5000    0.0007 5702.4351   99.3672 13506.3291    0.0007   28.0679   28.0271   28.0679    1.0000    0.6450 2168.0000   32.4217  -10.4636 
2026.6000    0.0001 5663.1025   95.6964 13679.4834    0.0001   30.2649   30.2583   30.2649    1.0000    0.7206 2181.0000   34.4407  -10.3815 
2026.7000    0.0002 5664.0552   95.6893 13596.9805    0.0002   29.6837   29.6728   29.6837    1.0000    0.7008 2190.0000   33.9108  -10.3089 
2026.8000    0.0001 5638.1636   97.3906 13583.4434    0.0001   29.9684   29.9599   29.9684    1.0000    0.7105 2165.0000   34.1706  -10.3154 
2026.9000    0.0004 5559.7305  105.2608 13389.0000    0.0004   28.7310   28.7069   28.7310    1.0000    0.6680 2169.0000   33.0368  -10.3340 
2027.0000    0.0004 5508.0391  107.7451 13240.4121    0.0004   28.6973   28.6726   28.6973    1.0000    0.6669 2179.0000   33.0057  -10.3527 
2027.1000    0.0006 5501.5698  107.0844 13011.9287    0.0006   28.1924   28.1554   28.1924    1.0000    0.6494 2172.0000   32.5378  -10.3676 
2027.2000    0.0024 5375.5698  100.4445 12492.6895    0.0024   26.3649   26.2133   26.3649    1.0000    0.5836 2179.0000   30.7817  -10.2963 
2027.3000    0.0009 5348.3984   96.4341 12439.9102    0.0009   27.6336   27.5761   27.6336    1.0000    0.6297 2173.0000   32.0138  -10.2134 
2027.4000    0.0002 5327.7603   92.1499 12455.2822    0.0002   29.7667   29.7566   29.7667    1.0000    0.7036 2219.0000   33.9866  -10.0684 
2027.5000    0.0002 5338.3745   86.9703 12502.0889    0.0002   29.6016   29.5899   29.6016    1.0000    0.6980 2170.0000   33.8358   -9.9149 
2027.6000    0.0002 5360.8418   88.0283 12667.7891    0.0002   29.4358   29.4224   29.4358    1.0000    0.6923 2170.0000   33.6842   -9.1443 
2027.7000    0.0002 5375.2593   90.7893 12842.9307    0.0002   29.7772   29.7672   29.7772    1.0000    0.7040 2177.0000   33.9962   -8.3187 
2027.8000    0.0003 5531.4370   96.9028 12969.2031    0.0003   29.1862   29.1697   29.1862    1.0000    0.6837 2165.0000   33.4555   -7.4971 
2027.9000    0.0006 5562.8877   99.3749 13058.9219    0.0006   28.0948   28.0548   28.0948    1.0000    0.6459 2106.0000   32.4468   -5.9846 
2028.0000    0.0005 5640.7212  101.6199 13293.8770    0.0005   28.3947   28.3632   28.3947    1.0000    0.6564 2176.0000   32.7258   -5.0606 
2028.1000    0.0004 5720.1919  103.7332 13484.4170    0.0004   28.7177   28.6935   28.7177    1.0000    0.6676 2169.0000   33.0246   -4.2296 
2028.2000    0.0005 5842.5518  107.1016 13748.6016    0.0005   28.4999   28.4710   28.4999    1.0000    0.6600 2168.0000   32.8233   -2.7375 
2028.3000    0.0005 5945.6270  108.9784 13861.2373    0.0005   28.4634   28.4336   28.4634    1.0000    0.6588 2179.0000   32.7895   -1.8043 
2028.4000    0.0005 6020.0977  111.7960 13791.3203    0.0005   28.2991   28.2651   28.2991    1.0000    0.6531 2167.0000   32.6370   -0.9596 
2028.5000    0.0012 6124.1929  116.6157 13666.6572    0.0012   27.3007   27.2264   27.3007    1.0000    0.6179 2265.0000   31.6975    0.0393 
2028.6000    0.0017 6177.3447  115.4823 13747.0557    0.0017   26.8086   26.7002   26.8086    1.0000    0.6001 2178.0000   31.2218   -0.0484 
2028.7000    0.0036 6233.7959  112.3314 13836.9893    0.0036   25.8700   25.6494   25.8700    1.0000    0.5645 2178.0000   30.2723   -0.2871 
2028.8000    0.0050 6442.3433  108.4122 14562.1387    0.0050   25.4325   25.1240   25.4325    1.0000    0.5467 2173.0000   29.7981   -0.8472 
2028.9000    0.0067 6514.2139  108.9766 14738.6172    0.0067   25.0459   24.6278   25.0459    1.0000    0.5300 2178.0000   29.3506   -1.1832 
2029.0000    0.0080 6568.7349  109.4559 15022.6572    0.0080   24.8352   24.3390   24.8352    1.0000    0.5202 2178.0000   29.0903   -1.4826 
2029.1000    0.0069 6625.0947  107.4759 15150.9902    0.0069   25.0228   24.5969   25.0228    1.0000    0.5289 2173.0000   29.3227   -2.0886 
2029.2000    0.0090 6624.4297  106.7322 14960.2598    0.0090   24.6904   24.1303   24.6904    1.0000    0.5132 2175.0000   28.9024   -2.5326 
2029.3000    0.0093 6675.4209  107.5245 14782.4531    0.0093   24.6588   24.0836   24.6588    1.0000    0.5116 2181.0000   28.8603   -2.9489 
2029.4000    0.0100 6765.3018 -999.0000 15021.4512    0.0100   24.5762   23.9586   24.5762    1.0000    0.5074 2183.0000   28.7478   -4.2925 
