~VERSION INFORMATION
 VERS.                 2.0:   CWLS LOG ASCII STANDARD - VERSION 2.0
 WRAP.                  NO:   SINGLE LINE PER DEPTH STEP
 CREA.                 09/07/2026 11:19:35
#CREATED USING IP VERSION 4.5.2019.2902 BY RADU VLADUTIU ON 09/07/2026 11:19:35
~WELL INFORMATION
#MNEM.UNIT       DATA                          DESCRIPTION MNEMONIC
#---------      ---------------------------   --------------------------
 STRT    .M         1340.0000                 : START DEPTH
 STOP    .M         2032.0000                 : STOP DEPTH
 STEP    .M         0.1000                    : STEP VALUE
 NULL    .      -999.0000                     : NULL VALUE
 DATE    .      09/07/2026                    : LAS file Creation Date
 WELL   .      175-Filitelnic           : Well Name
 COMP   .      S.N.G.N. Romgaz - Medias : Company
 FLD    .      Filitelnic               : Field
 STATE  .      Romania                  : State
 UWI    .                               : Unique Well Identifier (UWI)
 LOC    .                               : Location
 PDAT   .      KB                       : Permanent Datum
 EPDAT  .      511.7300                 : Elevation of Permanent Datum
 KB     .      511.7300                 : KB Elevation
 RWS    .      -999                     : Def_Rw
 WST    .      -999                     : Def_Rwt
 CNTY   .      Mures                    : County
 PROV   .                               : Province
 SRVC   .      PROSPECTIUNI             : Contractor
 GDAT   .      WGS 84                   : Geodatum
 LONG   .      0                        : Longitude
 LATI   .      0                        : Latitude
 COORDIN.                               : Grid System
 XCOORD .                               : X or East-West Coordinate
 YCOORD .                               : Y or North-South Coordinate
~CURVE INFORMATION
#MNEM              UNIT       API CODE   Curve Type Comments
#----------  --------------- ----------  ---------- -----------
 DEPTH      .M                         : Depth       
 BVWRAS     .Dec                       : BVWtdt      
 LS         .CPS                       :             Far Average Capture Rates
 GR         .GAPI                      : GammaRay    Gamma Ray
 SS         .CPS                       :             Near Average Capture Rates
 PHIE       .Dec                       : Phi         
 SigRec     .cu                        :             
 SigRecHyd  .cu                        :             
 SigRecWat  .cu                        :             
 SwRAS      .Dec                       : SwTDT       
 VCL        .Dec                       : Vcl         
 CCL        .                          : CollarLoc.  Casing Collar Locator
 SGFC       .CU                        :             Reservoir Sigma
 PS         .MV                        : SP          
~A  DEPTH   BVWRAS      LS        GR        SS       PHIE     SigRec  SigRecHy~ SigRecWa~   SwRAS      VCL       CCL       SGFC       PS    
# ...
1659.2000    0.1264 8415.7988   61.6380 18034.9434    0.1335   24.5569   15.8334   25.0471    0.9468    0.2582 2185.0000   24.5569  -35.9018 
1659.3000    0.1227 8214.7891   62.7797 17682.1719    0.1233   25.2461   16.7770   25.2825    0.9957    0.2891 2178.0000   25.2461  -33.3608 
1659.4000    0.1233 8170.5967   61.8171 17599.2266    0.1259   25.1396   16.6285   25.3165    0.9796    0.2843 2183.0000   25.1396  -31.6643 
1659.5000    0.1216 8066.3804   60.2612 17538.4844    0.1216   25.2541   16.8658   25.2541    1.0000    0.2919 2180.0000   25.3096  -30.2522 
1659.6000    0.1233 7864.8618   59.5578 17300.2949    0.1256   25.1515   16.6451   25.3137    0.9813    0.2848 2180.0000   25.1515  -27.7153 
1659.7000    0.1226 7716.9517   59.9868 17130.7773    0.1227   25.2684   16.8082   25.2732    0.9994    0.2901 2166.0000   25.2684  -26.0145 
1659.8000    0.1194 7523.9175   59.9669 16844.4023    0.1194   25.2121   16.9746   25.2121    1.0000    0.2954 2176.0000   25.3872  -24.6025 
1659.9000    0.1076 7249.5586   59.4863 16169.7705    0.1076   24.9303   17.5026   24.9303    1.0000    0.3122 2179.0000   25.7616  -22.0699 
1660.0000    0.0564 6698.9224   59.6206 14831.0000    0.0564   23.5843   19.6948   23.5843    1.0000    0.3817 2179.0000   27.3113  -20.3649 
1660.1000    0.0363 6424.5889   61.5749 14244.6621    0.0363   23.3031   20.7976   23.3031    1.0000    0.4171 2177.0000   28.1017  -18.9528 
1660.2000    0.0129 6204.6274   64.7642 13748.9609    0.0129   23.7961   22.9068   23.7961    1.0000    0.4862 2182.0000   29.6414  -16.4246 
1660.3000    0.0032 6032.2217   71.2282 13563.0283    0.0032   25.4356   25.2177   25.4356    1.0000    0.5632 2178.0000   31.3583  -14.7152 
1660.4000    0.0080 6087.4312   73.3146 13908.7900    0.0080   24.2963   23.7454   24.2963    1.0000    0.5140 2170.0000   30.2619  -13.3031 
1660.5000    0.0173 6276.1553   74.3181 14418.8086    0.0173   23.5502   22.3576   23.5502    1.0000    0.4680 2172.0000   29.2373  -11.3362 
1660.6000    0.1155 6563.5669   71.4914 15303.2676    0.1155   25.1281   17.1556   25.1281    1.0000    0.3012 2187.0000   25.5159   -7.9495 
1660.7000    0.1194 6644.5493   67.5801 15442.7617    0.1194   25.2116   16.9759   25.2116    1.0000    0.2954 2172.0000   25.3881   -4.2179 
1660.8000    0.1052 6667.6035   63.2212 15351.6689    0.1052   24.8648   17.6061   24.8648    1.0000    0.3155 2180.0000   25.8347   -3.3141 
1660.9000    0.0464 6605.7954   60.1447 14654.6553    0.0464   23.4074   20.2041   23.4074    1.0000    0.3980 2169.0000   27.6751   -3.2371 
1661.0000    0.0326 6575.6265   62.0529 14334.9639    0.0326   23.2929   21.0463   23.2929    1.0000    0.4252 2174.0000   28.2814   -3.1738 
1661.1000    0.0225 6539.5454   63.9657 14330.7539    0.0225   23.3881   21.8362   23.3881    1.0000    0.4509 2189.0000   28.8556   -5.4995 
1661.2000    0.0354 6673.7192   64.3876 15119.7158    0.0354   23.2989   20.8568   23.2989    1.0000    0.4190 2186.0000   28.1444   -8.7267 
1661.3000    0.0633 6827.2681   63.4875 15731.4834    0.0633   23.7375   19.3669   23.7375    1.0000    0.3712 2180.0000   27.0782  -12.0195 
1661.4000    0.0983 6962.5737   61.6846 16177.9609    0.0983   24.6760   17.8900   24.6760    1.0000    0.3244 2192.0000   26.0350  -15.3124 
1661.5000    0.1070 7064.2476   58.9357 16330.6953    0.1070   24.9118   17.5322   24.9118    1.0000    0.3131 2196.0000   25.7825  -18.6052 
1661.6000    0.0853 7180.3364   54.4397 15990.8193    0.0853   24.3095   18.4242   24.3095    1.0000    0.3413 2180.0000   26.4116  -24.4544 
1661.7000    0.0637 7206.5669   54.4665 15743.9316    0.0637   23.7458   19.3507   23.7458    1.0000    0.3707 2177.0000   27.0781  -28.4871 
1661.8000    0.0768 7276.1685   56.1455 15580.5059    0.0768   24.0771   18.7777   24.0771    1.0000    0.3525 2177.0000   26.6611  -31.7799 
1661.9000    0.1052 7507.0293   61.7322 16045.2998    0.1052   24.8647   17.6062   24.8647    1.0000    0.3155 2181.0000   25.8348  -37.6192 
1662.0000    0.1263 7621.8857   62.7691 16609.1152    0.1333   24.5825   15.8680   25.0675    0.9473    0.2593 2185.0000   24.5825  -41.6618 
1662.1000    0.1295 7838.7549   60.9755 17272.2168    0.1384   23.9569   15.0222   24.5701    0.9358    0.2313 2189.0000   23.9569  -44.9547 
1662.2000    0.1349 8157.2397   51.8297 17712.4023    0.1469   22.9019   13.5958   23.7313    0.9182    0.1839 2186.0000   22.9019  -49.3786 
1662.3000    0.1342 8216.1094   47.1290 17796.0137    0.1459   23.0291   13.7678   23.8324    0.9202    0.1896 2186.0000   23.0291  -51.2034 
1662.4000    0.1340 8243.0723   42.9195 17530.1504    0.1454   23.0818   13.8391   23.8743    0.9210    0.1920 2161.0000   23.0818  -52.1475 
1662.5000    0.1588 8055.4800   37.7555 16931.7188    0.1588   22.5534   11.5929   22.5534    1.0000    0.1175 2171.0000   23.3285  -53.5221 
1662.6000    0.1580 7984.5723   38.0650 16819.5313    0.1580   22.6366   11.7342   22.6366    1.0000    0.1222 2182.0000   23.9514  -54.1865 
1662.7000    0.1526 7817.6196   40.0486 16644.4668    0.1526   23.1694   12.6404   23.1694    1.0000    0.1523 2189.0000   24.6620  -54.5942 
1662.8000    0.1373 7602.8237   45.6472 16455.1816    0.1373   24.6734   15.1979   24.6734    1.0000    0.2371 2183.0000   26.2525  -55.1424 
1662.9000    0.1301 7619.9761   48.1480 16481.2109    0.1301   25.3165   16.3414   25.3165    1.0000    0.2750 2181.0000   26.9845  -55.4895 
1663.0000    0.1080 7568.9873   50.5747 16327.1650    0.1080   24.9390   17.4887   24.9390    1.0000    0.3117 2180.0000   26.8985  -55.7609 
1663.1000    0.0896 7573.9263   53.1929 16238.6826    0.0896   24.4303   18.2473   24.4303    1.0000    0.3357 2185.0000   26.2869  -55.3898 
1663.2000    0.0672 7598.8428   57.3443 16448.2891    0.0672   23.8291   19.1946   23.8291    1.0000    0.3657 2183.0000   26.9560  -54.9672 
1663.3000    0.0840 7655.5562   57.7098 16438.0137    0.0840   24.2737   18.4772   24.2737    1.0000    0.3430 2195.0000   26.4490  -54.5921 
1663.4000    0.0968 7697.2075   56.8510 16414.9355    0.0968   24.6328   17.9532   24.6328    1.0000    0.3264 2177.0000   26.0796  -53.1297 
1663.5000    0.1057 7636.0820   51.6154 16650.2598    0.1057   24.8782   17.5853   24.8782    1.0000    0.3148 2174.0000   25.8200  -51.8217 
1663.6000    0.1271 7691.0083   48.6014 16635.2539    0.1271   25.3261   16.5528   25.3261    1.0000    0.2818 2172.0000   25.7911  -50.6744 
1663.7000    0.1325 7636.4116   47.4048 16517.5527    0.1325   25.1456   16.0008   25.1456    1.0000    0.2637 2181.0000   25.9895  -48.7208 
1663.8000    0.1135 7485.2632   50.0724 16426.2891    0.1135   25.0790   17.2489   25.0790    1.0000    0.3041 2179.0000   26.8403  -47.3268 
1663.9000    0.1103 7316.7661   50.3698 16234.9834    0.1103   24.9982   17.3908   24.9982    1.0000    0.3086 2188.0000   28.0899  -46.2006 
1664.0000    0.1251 7176.2881   48.8575 16029.6826    0.1251   25.3083   16.6730   25.3083    1.0000    0.2857 2190.0000   29.2486  -42.6398 
1664.1000    0.1366 6915.4756   45.9193 15493.7920    0.1366   24.7465   15.3222   24.7465    1.0000    0.2412 2183.0000   29.7527  -39.9163 
1664.2000    0.1346 6723.6060   46.6619 15014.0615    0.1346   24.9460   15.6615   24.9460    1.0000    0.2525 2182.0000   30.5731  -37.7363 
1664.3000    0.1294 6606.2373   48.2634 14820.8203    0.1294   25.3249   16.3950   25.3249    1.0000    0.2767 2196.0000   31.0874  -33.9772 
1664.4000    0.1168 6542.2397   49.7533 14602.7070    0.1168   25.1571   17.0970   25.1571    1.0000    0.2993 2186.0000   29.8961  -31.6325 
1664.5000    0.1132 6564.6582   50.0969 14836.4707    0.1132   25.0726   17.2606   25.0726    1.0000    0.3045 2393.0000   29.6138  -29.9423 
1664.6000    0.1012 6613.7612   51.1647 15083.4258    0.1012   24.7564   17.7710   24.7564    1.0000    0.3207 2122.0000   29.3378  -28.2820 
1664.7000    0.0843 6680.1411   52.6167 15279.4033    0.0843   24.2807   18.4669   24.2807    1.0000    0.3427 2204.0000   29.1400  -26.6317 
1664.8000    0.0507 6596.7720   55.7875 15235.9248    0.0507   23.4764   19.9776   23.4764    1.0000    0.3907 2179.0000   29.2132  -24.1980 
