~VERSION INFORMATION
 VERS.                 2.0:   CWLS LOG ASCII STANDARD - VERSION 2.0
 WRAP.                  NO:   SINGLE LINE PER DEPTH STEP
 CREA.                 09/07/2026 11:19:35
#CREATED USING IP VERSION 4.5.2019.2902 BY RADU VLADUTIU ON 09/07/2026 11:19:35
~WELL INFORMATION
#MNEM.UNIT       DATA                          DESCRIPTION MNEMONIC
#---------      ---------------------------   --------------------------
 STRT    .M         1340.0000                 : START DEPTH
 STOP    .M         2032.0000                 : STOP DEPTH
 STEP    .M         0.1000                    : STEP VALUE
 NULL    .      -999.0000                     : NULL VALUE
 DATE    .      09/07/2026                    : LAS file Creation Date
 WELL   .      175-Filitelnic           : Well Name
 COMP   .      S.N.G.N. Romgaz - Medias : Company
 FLD    .      Filitelnic               : Field
 STATE  .      Romania                  : State
 UWI    .                               : Unique Well Identifier (UWI)
 LOC    .                               : Location
 PDAT   .      KB                       : Permanent Datum
 EPDAT  .      511.7300                 : Elevation of Permanent Datum
 KB     .      511.7300                 : KB Elevation
 RWS    .      -999                     : Def_Rw
 WST    .      -999                     : Def_Rwt
 CNTY   .      Mures                    : County
 PROV   .                               : Province
 SRVC   .      PROSPECTIUNI             : Contractor
 GDAT   .      WGS 84                   : Geodatum
 LONG   .      0                        : Longitude
 LATI   .      0                        : Latitude
 COORDIN.                               : Grid System
 XCOORD .                               : X or East-West Coordinate
 YCOORD .                               : Y or North-South Coordinate
~CURVE INFORMATION
#MNEM              UNIT       API CODE   Curve Type Comments
#----------  --------------- ----------  ---------- -----------
 DEPTH      .M                         : Depth       
 BVWRAS     .Dec                       : BVWtdt      
 LS         .CPS                       :             Far Average Capture Rates
 GR         .GAPI                      : GammaRay    Gamma Ray
 SS         .CPS                       :             Near Average Capture Rates
 PHIE       .Dec                       : Phi         
 SigRec     .cu                        :             
 SigRecHyd  .cu                        :             
 SigRecWat  .cu                        :             
 SwRAS      .Dec                       : SwTDT       
 VCL        .Dec                       : Vcl         
 CCL        .                          : CollarLoc.  Casing Collar Locator
 SGFC       .CU                        :             Reservoir Sigma
 PS         .MV                        : SP          
~A  DEPTH   BVWRAS      LS        GR        SS       PHIE     SigRec  SigRecHy~ SigRecWa~   SwRAS      VCL       CCL       SGFC       PS    
# ...
1431.2000    0.0001 4587.6528   78.0038 10744.4727    0.0001   33.1743   33.1673   33.1743    1.0000    0.7932 2212.0000   40.1023   -7.1870 
1431.3000    0.0001 4601.6777   76.7553 10809.2832    0.0001   32.5049   32.4979   32.5049    1.0000    0.7716 2161.0000   40.0660   -7.6341 
1431.4000    0.0004 4626.0557   71.5911 10827.8164    0.0004   29.7559   29.7280   29.7559    1.0000    0.6826 2160.0000   39.9536   -7.9945 
1431.5000    0.0008 4586.9014   69.6721 10833.7520    0.0008   28.7573   28.6979   28.7573    1.0000    0.6495 2177.0000   40.7049   -8.3564 
1431.6000    0.0011 4552.1733   68.8703 10792.2871    0.0011   28.3476   28.2672   28.3476    1.0000    0.6357 2178.0000   41.2854   -8.8394 
1431.7000    0.0013 4514.3911   68.6029 10602.4502    0.0013   28.2122   28.1236   28.2122    1.0000    0.6311 2179.0000   41.0362   -9.2031 
1431.8000    0.0011 4496.5596   69.0208 10517.5703    0.0011   28.4240   28.3481   28.4240    1.0000    0.6383 2197.0000   40.9360   -9.5628 
1431.9000    0.0006 4479.7983   70.7398 10482.8350    0.0006   29.3103   29.2711   29.3103    1.0000    0.6679 2161.0000   41.1558  -10.7736 
1432.0000    0.0001 4437.1094   75.6441 10533.0967    0.0001   31.9090   31.9020   31.9090    1.0000    0.7525 2168.0000   40.7546  -11.5164 
1432.1000    0.0001 4492.2036   77.3339 10550.7217    0.0001   32.8151   32.8081   32.8151    1.0000    0.7816 2194.0000   40.3352  -12.2499 
1432.2000    0.0001 4563.9814   78.5473 10639.0781    0.0001   33.4657   33.4587   33.4657    1.0000    0.8025 2169.0000   39.3631  -12.7324 
1432.3000    0.0001 4701.8589   76.0850 10689.6289    0.0001   32.1454   32.1384   32.1454    1.0000    0.7601 2162.0000   38.7259  -13.2059 
1432.4000    0.0005 4785.5410   70.7992 10938.3154    0.0005   29.3413   29.3030   29.3413    1.0000    0.6690 2186.0000   35.8266  -13.5524 
1432.5000    0.0059 4943.1543   64.1148 11215.8203    0.0059   26.1152   25.7055   26.1152    1.0000    0.5537 2190.0000   34.2897  -14.1485 
1432.6000    0.0579 5368.5898   54.8362 12223.6201    0.0579   24.6509   20.6003   24.6509    1.0000    0.3937 2188.0000   32.8026  -14.7604 
1432.7000    0.0630 5602.6099   54.3298 12938.4629    0.0630   24.7288   20.3158   24.7288    1.0000    0.3850 2181.0000   30.1003  -16.1155 
1432.8000    0.0490 5808.9453   55.7529 13543.8691    0.0490   24.5418   21.1140   24.5418    1.0000    0.4095 2166.0000   29.5591  -16.7319 
1432.9000    0.0333 5935.0723   57.6204 13918.1348    0.0333   24.4885   22.1545   24.4885    1.0000    0.4417 2194.0000   29.4212  -17.2775 
1433.0000    0.0396 6051.7827   59.2501 14016.1348    0.0396   24.4809   21.7105   24.4809    1.0000    0.4280 2193.0000   28.5142  -18.4038 
1433.1000    0.0340 5998.4229   59.2416 13661.3047    0.0340   24.4856   22.1091   24.4856    1.0000    0.4403 2169.0000   28.8035  -18.5433 
1433.2000    0.0239 5867.8394   59.3692 13174.7549    0.0239   24.6218   22.9503   24.6218    1.0000    0.4666 2180.0000   29.4175  -18.5600 
1433.3000    0.0151 5608.3784   60.8555 12322.7773    0.0151   24.9910   23.9348   24.9910    1.0000    0.4975 2184.0000   33.3511  -17.4804 
1433.4000    0.0093 5435.5117   62.5690 12056.5791    0.0093   25.5214   24.8680   25.5214    1.0000    0.5271 2162.0000   34.1643  -17.2966 
1433.5000    0.0050 5378.4429   64.5901 12040.8418    0.0050   26.3151   25.9624   26.3151    1.0000    0.5619 2192.0000   34.3023  -17.2667 
1433.6000    0.0034 5536.9565   65.7567 12478.3799    0.0034   26.8331   26.5920   26.8331    1.0000    0.5820 2173.0000   32.9168  -16.9051 
1433.7000    0.0058 5685.0708   64.1682 12800.0244    0.0058   26.1373   25.7344   26.1373    1.0000    0.5546 2159.0000   32.3266  -16.5071 
1433.8000    0.0102 5869.1255   62.2505 13020.1670    0.0102   25.4115   24.6949   25.4115    1.0000    0.5216 2185.0000   32.0662  -16.1125 
1433.9000    0.0185 6197.6670   62.1049 13909.1523    0.0185   24.8068   23.5135   24.8068    1.0000    0.4842 2182.0000   29.8311  -15.5964 
1434.0000    0.0234 6327.2090   63.2402 14309.9668    0.0234   24.6344   22.9973   24.6344    1.0000    0.4680 2167.0000   29.4519  -15.1855 
1434.1000    0.0325 6349.8311   63.5898 14442.9414    0.0325   24.4938   22.2211   24.4938    1.0000    0.4438 2185.0000   28.8850  -14.8022 
1434.2000    0.0475 6056.5664   62.5394 14072.1230    0.0475   24.5275   21.2053   24.5275    1.0000    0.4123 2177.0000   28.1489  -14.2721 
1434.3000    0.0366 5851.3218   64.0519 13427.8271    0.0366   24.4786   21.9179   24.4786    1.0000    0.4344 2164.0000   28.6646  -13.8620 
1434.4000    0.0104 5615.1250   69.3647 12626.0869    0.0104   25.3971   24.6716   25.3971    1.0000    0.5208 2176.0000   30.6872  -13.4902 
1434.5000    0.0116 5340.8413   78.7553 11854.1084    0.0116   25.2718   24.4625   25.2718    1.0000    0.5142 2185.0000   30.5321  -12.9489 
1434.6000    0.0001 4987.0908   94.8400 11083.4180    0.0001   31.5589   31.5519   31.5589    1.0000    0.7412 2183.0000   35.8447  -12.5709 
1434.7000    0.0001 4911.0850   93.5167 11140.5342    0.0001   32.4060   32.3990   32.4060    1.0000    0.7685 2194.0000   36.4821  -12.2524 
1434.8000    0.0001 4998.7021   87.2439 11492.9326    0.0001   31.9576   31.9506   31.9576    1.0000    0.7540 2154.0000   36.1447  -11.0910 
1434.9000    0.0011 5302.4038   74.9984 12480.3438    0.0011   28.4643   28.3906   28.4643    1.0000    0.6397 2200.0000   33.4679  -10.2311 
1435.0000    0.0052 5485.4224   72.0157 13153.5410    0.0052   26.2778   25.9153   26.2778    1.0000    0.5604 2168.0000   31.6132   -9.5541 
1435.1000    0.0069 5705.1978   70.0689 13508.8438    0.0069   25.8961   25.4117   25.8961    1.0000    0.5443 2186.0000   31.2376   -8.4181 
1435.2000    0.0150 5905.0967   65.8293 13853.6045    0.0150   24.9996   23.9527   24.9996    1.0000    0.4981 2170.0000   30.1549   -7.5812 
1435.3000    0.0154 5952.8374   64.8298 13922.9912    0.0154   24.9739   23.8990   24.9739    1.0000    0.4964 2190.0000   30.1153   -6.9135 
1435.4000    0.0137 5939.7441   65.6900 13847.7490    0.0137   25.0854   24.1237   25.0854    1.0000    0.5035 2173.0000   30.2813   -6.2526 
1435.5000    0.0042 5855.2041   69.6304 13625.6768    0.0042   26.5525   26.2566   26.5525    1.0000    0.5713 2173.0000   31.8682   -5.5944 
1435.6000    0.0028 5771.0649   70.3493 13501.0225    0.0028   27.1138   26.9171   27.1138    1.0000    0.5924 2183.0000   32.3625   -4.4735 
1435.7000    0.0016 5661.6157   70.1249 13470.9551    0.0016   27.8873   27.7749   27.8873    1.0000    0.6199 2192.0000   33.0057   -3.6063 
1435.8000    0.0011 5509.3159   70.2698 13150.0195    0.0011   28.3582   28.2785   28.3582    1.0000    0.6361 2188.0000   33.3837   -2.9395 
1435.9000    0.0008 5450.3853   71.2010 13059.0967    0.0008   28.7716   28.7129   28.7716    1.0000    0.6500 2173.0000   33.7100   -1.8412 
1436.0000    0.0036 5369.6978   71.9947 12834.9551    0.0036   26.7837   26.5339   26.7837    1.0000    0.5802 2174.0000   32.0756   -1.0621 
1436.1000    0.0028 5295.5366   72.4665 12636.6465    0.0028   27.1024   26.9041   27.1024    1.0000    0.5920 2175.0000   32.3528   -0.5424 
1436.2000    0.0002 5127.8115   74.6216 12164.1533    0.0002   30.8816   30.8702   30.8816    1.0000    0.7193 2180.0000   35.3319   -0.4178 
1436.3000    0.0001 5067.8027   75.9192 11976.2988    0.0001   31.4963   31.4893   31.4963    1.0000    0.7392 2192.0000   35.7976   -1.0272 
1436.4000    0.0001 5030.8926   76.5917 11734.8525    0.0001   31.8735   31.8665   31.8735    1.0000    0.7513 2187.0000   36.0814   -1.9244 
1436.5000    0.0001 4948.7637   77.7529 11518.4199    0.0001   33.0398   33.0328   33.0398    1.0000    0.7888 2166.0000   37.1544   -3.3257 
1436.6000    0.0001 4930.2622   77.8382 11518.0098    0.0001   33.0855   33.0785   33.0855    1.0000    0.7903 2191.0000   37.4409   -4.4782 
1436.7000    0.0001 4890.2456   76.7979 11528.7461    0.0001   32.5277   32.5207   32.5277    1.0000    0.7724 2190.0000   37.2880   -5.3004 
1436.8000    0.0001 4873.3960   75.3508 11557.2051    0.0001   31.7517   31.7447   31.7517    1.0000    0.7474 2172.0000   37.3122   -6.6501 
