~VERSION INFORMATION
 VERS.                 2.0:   CWLS LOG ASCII STANDARD - VERSION 2.0
 WRAP.                  NO:   SINGLE LINE PER DEPTH STEP
 CREA.                 09/07/2026 11:19:35
#CREATED USING IP VERSION 4.5.2019.2902 BY RADU VLADUTIU ON 09/07/2026 11:19:35
~WELL INFORMATION
#MNEM.UNIT       DATA                          DESCRIPTION MNEMONIC
#---------      ---------------------------   --------------------------
 STRT    .M         1340.0000                 : START DEPTH
 STOP    .M         2032.0000                 : STOP DEPTH
 STEP    .M         0.1000                    : STEP VALUE
 NULL    .      -999.0000                     : NULL VALUE
 DATE    .      09/07/2026                    : LAS file Creation Date
 WELL   .      175-Filitelnic           : Well Name
 COMP   .      S.N.G.N. Romgaz - Medias : Company
 FLD    .      Filitelnic               : Field
 STATE  .      Romania                  : State
 UWI    .                               : Unique Well Identifier (UWI)
 LOC    .                               : Location
 PDAT   .      KB                       : Permanent Datum
 EPDAT  .      511.7300                 : Elevation of Permanent Datum
 KB     .      511.7300                 : KB Elevation
 RWS    .      -999                     : Def_Rw
 WST    .      -999                     : Def_Rwt
 CNTY   .      Mures                    : County
 PROV   .                               : Province
 SRVC   .      PROSPECTIUNI             : Contractor
 GDAT   .      WGS 84                   : Geodatum
 LONG   .      0                        : Longitude
 LATI   .      0                        : Latitude
 COORDIN.                               : Grid System
 XCOORD .                               : X or East-West Coordinate
 YCOORD .                               : Y or North-South Coordinate
~CURVE INFORMATION
#MNEM              UNIT       API CODE   Curve Type Comments
#----------  --------------- ----------  ---------- -----------
 DEPTH      .M                         : Depth       
 BVWRAS     .Dec                       : BVWtdt      
 LS         .CPS                       :             Far Average Capture Rates
 GR         .GAPI                      : GammaRay    Gamma Ray
 SS         .CPS                       :             Near Average Capture Rates
 PHIE       .Dec                       : Phi         
 SigRec     .cu                        :             
 SigRecHyd  .cu                        :             
 SigRecWat  .cu                        :             
 SwRAS      .Dec                       : SwTDT       
 VCL        .Dec                       : Vcl         
 CCL        .                          : CollarLoc.  Casing Collar Locator
 SGFC       .CU                        :             Reservoir Sigma
 PS         .MV                        : SP          
~A  DEPTH   BVWRAS      LS        GR        SS       PHIE     SigRec  SigRecHy~ SigRecWa~   SwRAS      VCL       CCL       SGFC       PS    
# ...
1704.8000    0.1271 8223.7959   48.1273 17268.4863    0.1346   24.4232   15.6527   24.9408    0.9443    0.2522 2170.0000   24.4232  -57.6316 
1704.9000    0.1305 8312.7188   49.0553 17454.8262    0.1400   23.7542   14.7482   24.4089    0.9322    0.2222 2169.0000   23.7542  -57.6834 
1705.0000    0.1321 8417.4639   47.8739 17746.4824    0.1426   23.4379   14.3205   24.1574    0.9269    0.2080 2178.0000   23.4379  -57.4319 
1705.1000    0.1358 8603.1797   42.9371 18156.5742    0.1447   23.3285   13.9599   23.9454    0.9382    0.1960 2183.0000   23.3285  -56.7499 
1705.2000    0.1466 8664.2578   41.6755 18200.4609    0.1482   23.4972   13.3836   23.6065    0.9893    0.1769 2182.0000   23.4972  -56.1987 
1705.3000    0.1428 8615.0498   41.8441 18178.1660    0.1477   23.3158   13.4606   23.6518    0.9670    0.1795 2192.0000   23.3158  -55.4017 
1705.4000    0.1437 8306.0381   42.3526 17521.4277    0.1463   23.6104   13.6929   23.7884    0.9824    0.1872 2178.0000   23.6104  -54.4170 
1705.5000    0.1497 8080.8423   41.1070 17125.4277    0.1497   23.4537   13.1239   23.4537    1.0000    0.1683 2183.0000   24.1480  -53.7807 
1705.6000    0.1535 7898.9639   39.7095 16796.6309    0.1535   23.0783   12.4855   23.0783    1.0000    0.1471 2243.0000   25.0295  -52.8939 
1705.7000    0.1564 7614.1040   38.6384 16239.1680    0.1564   22.7906   11.9962   22.7906    1.0000    0.1309 2592.0000   25.5265  -51.8576 
1705.8000    0.1545 7464.2300   39.3462 16119.9990    0.1545   22.9807   12.3195   22.9807    1.0000    0.1416 2193.0000   25.5047  -51.2175 
1705.9000    0.1481 7402.9678   41.6833 16177.5391    0.1481   23.6086   13.3871   23.6086    1.0000    0.1770 2179.0000   26.0414  -50.5773 
1706.0000    0.1373 7436.2314   45.6520 16258.8369    0.1373   24.6747   15.2001   24.6747    1.0000    0.2372 2186.0000   25.9192  -49.9369 
1706.1000    0.1084 7569.0278   53.0518 16326.2891    0.1084   24.9499   17.4709   24.9499    1.0000    0.3112 2172.0000   25.7392  -49.2596 
1706.2000    0.0941 7616.4897   53.3475 16391.6543    0.0941   24.5557   18.0655   24.5557    1.0000    0.3300 2166.0000   26.1587  -48.6427 
1706.3000    0.0999 7644.1211   51.2805 16580.6055    0.0999   24.7191   17.8265   24.7191    1.0000    0.3224 2171.0000   26.2180  -48.2035 
1706.4000    0.1315 7701.0137   47.7704 16704.7285    0.1315   25.2438   16.1678   25.2438    1.0000    0.2692 2186.0000   26.4967  -47.7837 
1706.5000    0.1312 7741.1016   47.8995 16670.8320    0.1312   25.2782   16.2268   25.2782    1.0000    0.2712 2170.0000   26.5740  -47.5198 
1706.6000    0.1309 7764.0967   47.9638 16751.4453    0.1309   25.2916   16.2563   25.2916    1.0000    0.2722 2183.0000   26.0590  -47.4442 
1706.7000    0.1347 7679.8257   46.6280 16690.8066    0.1347   24.9369   15.6460   24.9369    1.0000    0.2519 2178.0000   25.6727  -47.3889 
1706.8000    0.1362 7584.1382   46.0535 16508.5137    0.1362   24.7826   15.3835   24.7826    1.0000    0.2432 2176.0000   25.6671  -47.2599 
1706.9000    0.1367 7453.4697   45.8747 16255.1338    0.1367   24.7345   15.3019   24.7345    1.0000    0.2405 2178.0000   25.9147  -46.9816 
1707.0000    0.1338 7109.0928   46.9546 15593.3760    0.1338   25.0246   15.7952   25.0246    1.0000    0.2569 2173.0000   27.1436  -46.5630 
1707.1000    0.1282 6889.2104   48.4513 15183.9570    0.1282   25.3295   16.4825   25.3295    1.0000    0.2796 2174.0000   27.8669  -46.0890 
1707.2000    0.1063 6677.1011   50.7207 14724.3027    0.1063   24.8952   17.5585   24.8952    1.0000    0.3140 2164.0000   29.7334  -45.8184 
1707.3000    0.0422 6402.7441   56.7653 14290.4619    0.0422   23.3527   20.4388   23.3527    1.0000    0.4055 2175.0000   31.2030  -45.4235 
1707.4000    0.0223 6375.5537   59.7888 14212.0293    0.0223   23.3912   21.8491   23.3912    1.0000    0.4513 2188.0000   31.1048  -44.7840 
1707.5000    0.0126 6363.8491   62.1765 14216.6914    0.0126   23.8173   22.9479   23.8173    1.0000    0.4875 2175.0000   30.1811  -44.0459 
1707.6000    0.0148 6413.4883   63.1826 14437.5254    0.0148   23.6703   22.6459   23.6703    1.0000    0.4775 2202.0000   29.4492  -43.0219 
1707.7000    0.0340 6728.5796   59.5591 15031.5674    0.0340   23.2944   20.9516   23.2944    1.0000    0.4221 2186.0000   28.2129  -41.9246 
1707.8000    0.0448 6832.1953   56.4617 15331.1914    0.0448   23.3839   20.2959   23.3839    1.0000    0.4009 2184.0000   27.8420  -41.2502 
1707.9000    0.0659 6920.6987   54.2543 15690.4629    0.0659   23.7991   19.2496   23.7991    1.0000    0.3675 2200.0000   27.7628  -40.3836 
1708.0000    0.0647 7121.2485   54.7981 15859.4512    0.0647   23.7700   19.3042   23.7700    1.0000    0.3692 2165.0000   27.0337  -39.5494 
1708.1000    0.0587 7199.9214   56.4866 15854.3975    0.0587   23.6324   19.5850   23.6324    1.0000    0.3782 2173.0000   27.2332  -39.0923 
1708.2000    0.0525 7237.5747   57.6052 15783.8281    0.0525   23.5078   19.8886   23.5078    1.0000    0.3879 2165.0000   27.4495  -38.4821 
1708.3000    0.0340 7269.1797   58.5935 15578.9893    0.0340   23.2945   20.9495   23.2945    1.0000    0.4220 2168.0000   28.2114  -37.9874 
1708.4000    0.0553 7338.7583   59.7994 15579.0820    0.0553   23.5627   19.7468   23.5627    1.0000    0.3833 2178.0000   27.3484  -37.8945 
1708.5000    0.0904 7381.8833   60.5658 15783.0996    0.0904   24.4528   18.2147   24.4528    1.0000    0.3347 2168.0000   26.2639  -37.6410 
1708.6000    0.1209 7502.8647   55.7755 16106.6670    0.1209   25.2417   16.9000   25.2417    1.0000    0.2930 2188.0000   25.3340  -37.1722 
1708.7000    0.1208 7527.1260   51.2850 16288.3262    0.1208   25.2394   16.9062   25.2394    1.0000    0.2932 2183.0000   25.3384  -36.6877 
1708.8000    0.1311 7587.6133   47.6916 16383.5381    0.1318   25.1765   16.1318   25.2226    0.9949    0.2681 2172.0000   25.1765  -35.9805 
1708.9000    0.1383 7556.8730   45.1065 16432.0508    0.1388   24.4925   14.9509   24.5282    0.9963    0.2289 2184.0000   24.4925  -35.2216 
1709.0000    0.1385 7449.2354   45.2297 16301.0928    0.1385   24.5613   15.0072   24.5613    1.0000    0.2308 2175.0000   24.5984  -34.7355 
1709.1000    0.1359 7339.2515   46.1682 16096.7373    0.1359   24.8134   15.4359   24.8134    1.0000    0.2450 2176.0000   25.0342  -34.2478 
1709.2000    0.1296 7137.0220   48.1457 15631.8828    0.1301   25.2840   16.3403   25.3163    0.9964    0.2749 2179.0000   25.2840  -33.7583 
1709.3000    0.0789 6896.7324   53.0853 14849.8018    0.0789   24.1324   18.6912   24.1324    1.0000    0.3498 2172.0000   27.6722  -33.0471 
1709.4000    0.0654 6780.8086   54.3059 14638.1660    0.0654   23.7859   19.2742   23.7859    1.0000    0.3683 2178.0000   27.9074  -32.2946 
1709.5000    0.0653 6731.6289   54.3156 14676.0518    0.0653   23.7834   19.2788   23.7834    1.0000    0.3684 2169.0000   29.0220  -31.8028 
1709.6000    0.0929 6782.6353   51.8759 15021.2803    0.0929   24.5237   18.1118   24.5237    1.0000    0.3315 2180.0000   28.6685  -31.3502 
1709.7000    0.1054 6853.4707   50.8044 15308.4277    0.1054   24.8697   17.5985   24.8697    1.0000    0.3152 2188.0000   28.8605  -31.1948 
1709.8000    0.1040 7037.3140   50.9279 15504.5977    0.1040   24.8314   17.6576   24.8314    1.0000    0.3171 2185.0000   28.0815  -31.3284 
1709.9000    0.0747 7300.7529   54.9338 15852.9170    0.0747   24.0225   18.8649   24.0225    1.0000    0.3553 2182.0000   26.7227  -31.5093 
1710.0000    0.0941 7383.9248   56.8661 16085.7764    0.0941   24.5561   18.0649   24.5561    1.0000    0.3300 2188.0000   26.1583  -31.6427 
1710.1000    0.0988 7409.6841   57.3465 16309.4414    0.0988   24.6890   17.8710   24.6890    1.0000    0.3238 2184.0000   26.0216  -31.6632 
1710.2000    0.1074 7429.0386   54.2204 16526.0547    0.1074   24.9247   17.5117   24.9247    1.0000    0.3125 2194.0000   25.7680  -31.6019 
1710.3000    0.1053 7356.1396   52.3349 16333.4844    0.1053   24.8665   17.6035   24.8665    1.0000    0.3154 2194.0000   25.8329  -31.3909 
1710.4000    0.0943 7147.1133   51.9879 15997.5449    0.0943   24.5634   18.0542   24.5634    1.0000    0.3296 2191.0000   26.1508  -31.1150 
