~VERSION INFORMATION
 VERS.                 2.0:   CWLS LOG ASCII STANDARD - VERSION 2.0
 WRAP.                  NO:   SINGLE LINE PER DEPTH STEP
 CREA.                 09/07/2026 11:19:35
#CREATED USING IP VERSION 4.5.2019.2902 BY RADU VLADUTIU ON 09/07/2026 11:19:35
~WELL INFORMATION
#MNEM.UNIT       DATA                          DESCRIPTION MNEMONIC
#---------      ---------------------------   --------------------------
 STRT    .M         1340.0000                 : START DEPTH
 STOP    .M         2032.0000                 : STOP DEPTH
 STEP    .M         0.1000                    : STEP VALUE
 NULL    .      -999.0000                     : NULL VALUE
 DATE    .      09/07/2026                    : LAS file Creation Date
 WELL   .      175-Filitelnic           : Well Name
 COMP   .      S.N.G.N. Romgaz - Medias : Company
 FLD    .      Filitelnic               : Field
 STATE  .      Romania                  : State
 UWI    .                               : Unique Well Identifier (UWI)
 LOC    .                               : Location
 PDAT   .      KB                       : Permanent Datum
 EPDAT  .      511.7300                 : Elevation of Permanent Datum
 KB     .      511.7300                 : KB Elevation
 RWS    .      -999                     : Def_Rw
 WST    .      -999                     : Def_Rwt
 CNTY   .      Mures                    : County
 PROV   .                               : Province
 SRVC   .      PROSPECTIUNI             : Contractor
 GDAT   .      WGS 84                   : Geodatum
 LONG   .      0                        : Longitude
 LATI   .      0                        : Latitude
 COORDIN.                               : Grid System
 XCOORD .                               : X or East-West Coordinate
 YCOORD .                               : Y or North-South Coordinate
~CURVE INFORMATION
#MNEM              UNIT       API CODE   Curve Type Comments
#----------  --------------- ----------  ---------- -----------
 DEPTH      .M                         : Depth       
 BVWRAS     .Dec                       : BVWtdt      
 LS         .CPS                       :             Far Average Capture Rates
 GR         .GAPI                      : GammaRay    Gamma Ray
 SS         .CPS                       :             Near Average Capture Rates
 PHIE       .Dec                       : Phi         
 SigRec     .cu                        :             
 SigRecHyd  .cu                        :             
 SigRecWat  .cu                        :             
 SwRAS      .Dec                       : SwTDT       
 VCL        .Dec                       : Vcl         
 CCL        .                          : CollarLoc.  Casing Collar Locator
 SGFC       .CU                        :             Reservoir Sigma
 PS         .MV                        : SP          
~A  DEPTH   BVWRAS      LS        GR        SS       PHIE     SigRec  SigRecHy~ SigRecWa~   SwRAS      VCL       CCL       SGFC       PS    
# ...
1932.7000    0.0010 5669.9072   66.9965 13466.4766    0.0010   25.6959   25.6353   25.6959    1.0000    0.5942 2158.0000   33.9787  -12.4935 
1932.8000    0.0010 5736.3838   66.8879 13532.9902    0.0010   25.6539   25.5912   25.6539    1.0000    0.5926 2174.0000   34.1251  -11.9146 
1932.9000    0.0006 5750.1499   68.3358 13571.3281    0.0006   26.2184   26.1791   26.2184    1.0000    0.6136 2185.0000   33.5314  -11.4363 
1933.0000    0.0004 5765.4126   71.2014 13689.5469    0.0004   26.8692   26.8466   26.8692    1.0000    0.6374 2186.0000   33.7831  -10.7451 
1933.1000    0.0002 5891.7358   77.6723 13796.4736    0.0002   27.3528   27.3381   27.3528    1.0000    0.6549 2177.0000   34.1469   -9.4993 
1933.2000    0.0002 5948.3833   80.1801 13914.3047    0.0002   27.6786   27.6676   27.6786    1.0000    0.6667 2169.0000   33.9645   -8.6640 
1933.3000    0.0001 5962.7246   81.5927 14004.7725    0.0001   28.0409   28.0330   28.0409    1.0000    0.6798 2189.0000   33.6213   -7.6406 
1933.4000    0.0003 5923.6143   78.1283 13931.0107    0.0003   27.0234   27.0037   27.0234    1.0000    0.6430 2180.0000   32.6253   -6.2320 
1933.5000    0.0001 5878.2266   73.6920 13728.2480    0.0001   28.1872   28.1803   28.1872    1.0000    0.6850 2146.0000   33.7639   -6.0369 
1933.6000    0.0005 5804.8633   68.9997 13413.4941    0.0005   26.4801   26.4486   26.4801    1.0000    0.6232 2184.0000   33.9535   -5.8168 
1933.7000    0.0042 5655.2026   62.0897 12922.5918    0.0042   23.9032   23.6409   23.9032    1.0000    0.5230 2160.0000   34.7608   -5.5087 
1933.8000    0.0062 5554.3140   60.6936 12744.0967    0.0062   23.4556   23.0724   23.4556    1.0000    0.5028 2188.0000   34.5075   -5.2999 
1933.9000    0.0059 5528.5557   60.8588 12691.2754    0.0059   23.5064   23.1397   23.5064    1.0000    0.5052 2194.0000   35.2650   -5.0802 
1934.0000    0.0036 5523.2617   62.6303 12851.9082    0.0036   24.0863   23.8608   24.0863    1.0000    0.5309 2203.0000   35.5826   -4.9831 
1934.1000    0.0034 5509.5508   62.8390 12909.6436    0.0034   24.1583   23.9457   24.1583    1.0000    0.5339 2162.0000   35.7956   -5.9018 
1934.2000    0.0033 5571.0469   63.0171 13040.3584    0.0033   24.2202   24.0182   24.2202    1.0000    0.5365 2155.0000   35.5728   -6.9869 
1934.3000    0.0019 5698.4927   64.8248 13287.6611    0.0019   24.8720   24.7531   24.8720    1.0000    0.5627 2173.0000   35.4468   -8.9942 
1934.4000    0.0015 5754.3208   65.7287 13404.5381    0.0015   25.2106   25.1203   25.2106    1.0000    0.5758 2194.0000   35.3912   -9.8911 
1934.5000    0.0012 5751.5020   66.4062 13321.8281    0.0012   25.4686   25.3955   25.4686    1.0000    0.5856 2149.0000   35.1176  -10.6884 
1934.6000    0.0008 5754.6055   67.4671 13205.3887    0.0008   25.8785   25.8264   25.8785    1.0000    0.6010 2181.0000   35.1560  -10.6545 
1934.7000    0.0003 5800.5190   72.0668 13013.0176    0.0003   26.9311   26.9098   26.9311    1.0000    0.6396 2184.0000   34.4649  -10.5850 
1934.8000    0.0003 5804.5508   75.1254 13005.4600    0.0003   27.0899   27.0713   27.0899    1.0000    0.6454 2173.0000   34.2959  -10.1756 
1934.9000    0.0003 5771.4297   77.9050 13033.3486    0.0003   27.1457   27.1280   27.1457    1.0000    0.6474 2178.0000   33.7998  -10.0318 
1935.0000    0.0003 5841.0791   78.2432 13276.1465    0.0003   27.2238   27.2072   27.2238    1.0000    0.6503 2194.0000   33.8609   -9.8310 
1935.1000    0.0002 5885.1890   75.3348 13501.6289    0.0002   27.6234   27.6118   27.6234    1.0000    0.6647 2162.0000   33.2178   -8.8052 
1935.2000    0.0003 5915.7612   72.0539 13458.1865    0.0003   27.2946   27.2791   27.2946    1.0000    0.6528 2162.0000   32.8918   -8.1780 
1935.3000    0.0007 5940.8164   68.1527 13394.8662    0.0007   26.1465   26.1048   26.1465    1.0000    0.6109 2176.0000   33.2469   -7.5241 
1935.4000    0.0007 5956.9893   68.2470 13356.9619    0.0007   26.1835   26.1431   26.1835    1.0000    0.6123 2186.0000   32.9396   -6.1862 
1935.5000    0.0005 5974.1802   69.3114 13409.4717    0.0005   26.6035   26.5752   26.6035    1.0000    0.6277 2205.0000   32.9318   -5.5513 
1935.6000    0.0004 5963.9443   69.8590 13651.6523    0.0004   26.8210   26.7975   26.8210    1.0000    0.6356 2184.0000   32.6682   -4.9199 
1935.7000    0.0006 5969.4658   68.4879 13753.8008    0.0006   26.2782   26.2409   26.2782    1.0000    0.6158 2189.0000   32.7442   -4.6255 
1935.8000    0.0012 5958.8237   66.2492 13738.6602    0.0012   25.4085   25.3318   25.4085    1.0000    0.5833 2188.0000   33.7653   -4.8516 
1935.9000    0.0056 5878.7354   61.0387 13769.2051    0.0056   23.5624   23.2130   23.5624    1.0000    0.5078 2192.0000   33.0495   -5.0740 
1936.0000    0.0081 5857.7124   59.6799 13636.5684    0.0081   23.1583   22.6592   23.1583    1.0000    0.4881 2178.0000   33.5235   -5.9063 
1936.1000    0.0081 5828.5830   59.6414 13421.8613    0.0081   23.1475   22.6435   23.1475    1.0000    0.4876 2163.0000   33.2362   -6.1475 
1936.2000    0.0065 5807.6118   60.5025 13375.8486    0.0065   23.3976   22.9945   23.3976    1.0000    0.5000 2180.0000   33.6886   -6.3733 
1936.3000    0.0036 5688.2910   62.6689 13228.8037    0.0036   24.0996   23.8765   24.0996    1.0000    0.5314 2186.0000   34.6366   -6.8771 
1936.4000    0.0029 5684.8291   63.4246 13271.9219    0.0029   24.3636   24.1839   24.3636    1.0000    0.5424 2176.0000   35.2528   -7.1451 
1936.5000    0.0023 5673.9653   64.1705 13283.5283    0.0023   24.6316   24.4871   24.6316    1.0000    0.5532 2171.0000   35.0852   -7.3996 
1936.6000    0.0013 5710.5864   66.0052 13341.5488    0.0013   25.3155   25.2327   25.3155    1.0000    0.5798 2165.0000   35.0013   -7.9001 
1936.7000    0.0012 5633.5898   66.2302 13295.9990    0.0012   25.4013   25.3241   25.4013    1.0000    0.5830 2173.0000   35.8170   -8.1212 
1936.8000    0.0017 5612.0044   65.2858 13323.1367    0.0017   25.0438   24.9404   25.0438    1.0000    0.5694 2161.0000   35.9580   -8.3172 
1936.9000    0.0051 5565.2109   61.4105 13059.5303    0.0051   23.6805   23.3644   23.6805    1.0000    0.5132 2170.0000   35.8567   -8.1495 
1937.0000    0.0083 5502.5137   59.5701 12809.5303    0.0083   23.1277   22.6144   23.1277    1.0000    0.4865 2204.0000   35.7168   -8.0397 
1937.1000    0.0148 5411.0615   57.1918 12517.1406    0.0148   22.5608   21.6427   22.5608    1.0000    0.4521 2173.0000   35.9606   -7.9411 
1937.2000    0.0587 5320.2183   50.2512 12255.8535    0.0587   22.4236   18.7823   22.4236    1.0000    0.3515 2201.0000   35.4481   -7.5853 
1937.3000    0.0803 5340.1348   48.1378 12297.1885    0.0803   22.8787   17.9032   22.8787    1.0000    0.3208 2100.0000   35.6101   -7.3337 
1937.4000    0.0801 5357.2959   48.1532 12469.8906    0.0801   22.8749   17.9096   22.8749    1.0000    0.3211 2028.0000   35.2090   -7.1031 
1937.5000    0.0346 5468.0073   53.2316 13079.7373    0.0346   22.1594   20.0159   22.1594    1.0000    0.3947 2152.0000   34.6242   -6.7118 
1937.6000    0.0143 5516.8789   57.3263 13318.0654    0.0143   22.5874   21.6978   22.5874    1.0000    0.4540 2161.0000   34.8863   -6.4575 
1937.7000    0.0049 5645.8184   61.5389 13430.7373    0.0049   23.7219   23.4167   23.7219    1.0000    0.5151 2170.0000   35.0026   -6.2339 
1937.8000    0.0019 5735.7241   64.8080 13556.1006    0.0019   24.8657   24.7462   24.8657    1.0000    0.5624 2178.0000   35.0330   -6.0153 
1937.9000    0.0013 5823.5010   65.9979 13599.1758    0.0013   25.3127   25.2297   25.3127    1.0000    0.5797 2172.0000   34.8488   -5.7977 
1938.0000    0.0018 5832.6001   65.0029 13556.6201    0.0018   24.9381   24.8254   24.9381    1.0000    0.5653 2169.0000   34.2852   -5.4083 
1938.1000    0.0019 5859.6890   64.7749 13563.0449    0.0019   24.8535   24.7328   24.8535    1.0000    0.5620 2187.0000   34.0235   -5.1403 
1938.2000    0.0011 5910.9043   66.7319 13779.6729    0.0011   25.5938   25.5278   25.5938    1.0000    0.5903 2167.0000   34.2052   -4.9133 
1938.3000    0.0013 5897.3208   66.1926 13814.6973    0.0013   25.3869   25.3088   25.3869    1.0000    0.5825 2160.0000   33.8803   -4.5300 
