~VERSION INFORMATION
 VERS.                 2.0:   CWLS LOG ASCII STANDARD - VERSION 2.0
 WRAP.                  NO:   SINGLE LINE PER DEPTH STEP
 CREA.                 09/07/2026 11:19:35
#CREATED USING IP VERSION 4.5.2019.2902 BY RADU VLADUTIU ON 09/07/2026 11:19:35
~WELL INFORMATION
#MNEM.UNIT       DATA                          DESCRIPTION MNEMONIC
#---------      ---------------------------   --------------------------
 STRT    .M         1340.0000                 : START DEPTH
 STOP    .M         2032.0000                 : STOP DEPTH
 STEP    .M         0.1000                    : STEP VALUE
 NULL    .      -999.0000                     : NULL VALUE
 DATE    .      09/07/2026                    : LAS file Creation Date
 WELL   .      175-Filitelnic           : Well Name
 COMP   .      S.N.G.N. Romgaz - Medias : Company
 FLD    .      Filitelnic               : Field
 STATE  .      Romania                  : State
 UWI    .                               : Unique Well Identifier (UWI)
 LOC    .                               : Location
 PDAT   .      KB                       : Permanent Datum
 EPDAT  .      511.7300                 : Elevation of Permanent Datum
 KB     .      511.7300                 : KB Elevation
 RWS    .      -999                     : Def_Rw
 WST    .      -999                     : Def_Rwt
 CNTY   .      Mures                    : County
 PROV   .                               : Province
 SRVC   .      PROSPECTIUNI             : Contractor
 GDAT   .      WGS 84                   : Geodatum
 LONG   .      0                        : Longitude
 LATI   .      0                        : Latitude
 COORDIN.                               : Grid System
 XCOORD .                               : X or East-West Coordinate
 YCOORD .                               : Y or North-South Coordinate
~CURVE INFORMATION
#MNEM              UNIT       API CODE   Curve Type Comments
#----------  --------------- ----------  ---------- -----------
 DEPTH      .M                         : Depth       
 BVWRAS     .Dec                       : BVWtdt      
 LS         .CPS                       :             Far Average Capture Rates
 GR         .GAPI                      : GammaRay    Gamma Ray
 SS         .CPS                       :             Near Average Capture Rates
 PHIE       .Dec                       : Phi         
 SigRec     .cu                        :             
 SigRecHyd  .cu                        :             
 SigRecWat  .cu                        :             
 SwRAS      .Dec                       : SwTDT       
 VCL        .Dec                       : Vcl         
 CCL        .                          : CollarLoc.  Casing Collar Locator
 SGFC       .CU                        :             Reservoir Sigma
 PS         .MV                        : SP          
~A  DEPTH   BVWRAS      LS        GR        SS       PHIE     SigRec  SigRecHy~ SigRecWa~   SwRAS      VCL       CCL       SGFC       PS    
# ...
1385.6000    0.0037 5103.1309   67.0375 11574.3994    0.0037   25.1294   24.8981   25.1294    1.0000    0.6038 2178.0000   39.3882  -20.1138 
1385.7000    0.0061 5047.3003   65.4728 11486.3848    0.0061   24.5756   24.1980   24.5756    1.0000    0.5789 2180.0000   40.0103  -20.3815 
1385.8000    0.0083 4961.5112   64.4534 11335.7363    0.0083   24.2529   23.7405   24.2529    1.0000    0.5628 2178.0000   39.8760  -20.4276 
1385.9000    0.0066 4732.8477   65.2295 10737.5459    0.0066   24.4955   24.0889   24.4955    1.0000    0.5751 2175.0000   40.9518  -20.2714 
1386.0000    0.0060 4621.7026   65.5487 10503.9971    0.0060   24.6010   24.2320   24.6010    1.0000    0.5801 2173.0000   40.5627  -20.0985 
1386.1000    0.0085 4564.8408   64.3505 10407.3232    0.0085   24.2224   23.6943   24.2224    1.0000    0.5611 2176.0000   40.3757  -19.8605 
1386.2000    0.0335 4537.6128   59.1493 10363.1816    0.0335   23.4092   21.3327   23.4092    1.0000    0.4786 1891.0000   40.6089  -19.5140 
1386.3000    0.0447 4539.6899   57.8643 10487.5117    0.0447   23.5112   20.7392   23.5112    1.0000    0.4582 2136.0000   39.9926  -19.1212 
1386.4000    0.0417 4559.5322   58.1847 10781.0527    0.0417   23.4720   20.8876   23.4720    1.0000    0.4632 2181.0000   39.8283  -18.4910 
1386.5000    0.0272 4666.1821   60.0250 11172.9170    0.0272   23.4202   21.7345   23.4202    1.0000    0.4925 2175.0000   38.5985  -17.6766 
1386.6000    0.0274 4689.2563   59.9933 11223.9160    0.0274   23.4187   21.7200   23.4187    1.0000    0.4920 2183.0000   38.5678  -16.9154 
1386.7000    0.0292 4696.9707   59.7360 11173.8887    0.0292   23.4097   21.6021   23.4097    1.0000    0.4879 2169.0000   38.5149  -15.6315 
1386.8000    0.0257 4727.3735   60.2502 11177.8799    0.0257   23.4328   21.8375   23.4328    1.0000    0.4960 2172.0000   38.9544  -14.2274 
1386.9000    0.0074 4721.9814   64.8326 11228.2080    0.0074   24.3688   23.9108   24.3688    1.0000    0.5688 2175.0000   39.3245  -13.3309 
1387.0000    0.0033 4743.6548   67.4346 11239.7578    0.0033   25.2789   25.0755   25.2789    1.0000    0.6101 2181.0000   39.5349  -11.9922 
1387.1000    0.0020 4714.7349   68.9295 11306.2236    0.0020   25.8660   25.7425   25.8660    1.0000    0.6338 2155.0000   39.4445  -10.5611 
1387.2000    0.0014 4846.9819   69.8529 11402.7285    0.0014   26.2436   26.1540   26.2436    1.0000    0.6485 2174.0000   38.0372   -9.6722 
1387.3000    0.0011 4841.9487   70.5060 11445.3193    0.0011   26.5159   26.4448   26.5159    1.0000    0.6588 2177.0000   37.9685   -8.7564 
1387.4000    0.0012 4843.3345   70.4057 11413.9219    0.0012   26.4739   26.4002   26.4739    1.0000    0.6572 2151.0000   37.2025   -7.8050 
1387.5000    0.0044 4875.6465   66.4953 11330.3262    0.0044   24.9307   24.6557   24.9307    1.0000    0.5952 2183.0000   38.1668   -6.5191 
1387.6000    0.0072 4850.7026   64.9036 11305.5586    0.0072   24.3911   23.9427   24.3911    1.0000    0.5699 2174.0000   38.3564   -5.0912 
1387.7000    0.0073 4863.3276   64.8527 11342.3252    0.0073   24.3751   23.9198   24.3751    1.0000    0.5691 2183.0000   37.8284   -4.1399 
1387.8000    0.0020 4850.3071   68.9670 11349.8535    0.0020   25.8811   25.7592   25.8811    1.0000    0.6344 2175.0000   38.1175   -2.7786 
1387.9000    0.0009 4888.2954   71.2662 11389.4609    0.0009   26.8372   26.7832   26.8372    1.0000    0.6709 2177.0000   37.9888   -1.4796 
1388.0000    0.0006 4872.8867   72.3078 11395.0459    0.0006   27.2834   27.2467   27.2834    1.0000    0.6874 2197.0000   39.0840   -1.2964 
1388.1000    0.0008 4895.4814   71.3525 11445.7539    0.0008   26.8740   26.8216   26.8740    1.0000    0.6723 2183.0000   38.1867   -1.2638 
1388.2000    0.0011 4888.5630   70.6914 11385.8525    0.0011   26.5939   26.5274   26.5939    1.0000    0.6618 2167.0000   37.4295   -1.9150 
1388.3000    0.0011 4877.2173   70.5808 11419.7188    0.0011   26.5474   26.4781   26.5474    1.0000    0.6600 2179.0000   37.2816   -3.3200 
1388.4000    0.0011 4829.9800   70.5116 11460.1914    0.0011   26.5183   26.4473   26.5183    1.0000    0.6589 2171.0000   36.6565   -5.5056 
1388.5000    0.0030 4761.3003   67.6974 11394.9316    0.0030   25.3795   25.1928   25.3795    1.0000    0.6142 2168.0000   36.1147   -8.5123 
1388.6000    0.0047 4739.8208   66.3230 11320.1553    0.0047   24.8689   24.5786   24.8689    1.0000    0.5924 2169.0000   35.8542  -10.2320 
1388.7000    0.0053 4707.9858   65.8984 11191.7041    0.0053   24.7200   24.3886   24.7200    1.0000    0.5857 2172.0000   35.7578  -12.6632 
1388.8000    0.0055 4618.4473   65.7956 10946.8486    0.0055   24.6846   24.3426   24.6846    1.0000    0.5841 2174.0000   38.3791  -15.5086 
1388.9000    0.0048 4559.9146   66.2745 10829.7314    0.0048   24.8517   24.5569   24.8517    1.0000    0.5917 2162.0000   38.3863  -15.9947 
1389.0000    0.0032 4516.0962   67.5082 10694.7441    0.0032   25.3069   25.1083   25.3069    1.0000    0.6112 2146.0000   38.5695  -16.4232 
1389.1000    0.0015 4534.8950   69.8057 10551.1006    0.0015   26.2241   26.1329   26.2241    1.0000    0.6477 2160.0000   41.1171  -16.6712 
1389.2000    0.0013 4552.3687   70.1035 10584.1768    0.0013   26.3477   26.2656   26.3477    1.0000    0.6524 2164.0000   39.4947  -16.8083 
1389.3000    0.0011 4521.7124   70.5653 10586.1240    0.0011   26.5408   26.4712   26.5408    1.0000    0.6598 2156.0000   41.4380  -16.4480 
1389.4000    0.0004 4604.0977   73.4820 10734.8281    0.0004   27.7924   27.7690   27.7924    1.0000    0.7061 2162.0000   40.4842  -14.9413 
1389.5000    0.0003 4652.5664   74.4035 10856.7109    0.0003   28.1950   28.1788   28.1950    1.0000    0.7207 2180.0000   40.0083  -13.8759 
1389.6000    0.0003 4689.9971   74.1340 10976.7559    0.0003   28.0770   28.0590   28.0770    1.0000    0.7164 2167.0000   39.8304  -11.7495 
1389.7000    0.0005 4722.6582   72.8797 11051.8643    0.0005   27.5306   27.5011   27.5306    1.0000    0.6965 2174.0000   38.8991   -7.1752 
1389.8000    0.0006 4726.8320   72.4740 11118.0039    0.0006   27.3551   27.3207   27.3551    1.0000    0.6901 2175.0000   38.6288   -4.7610 
1389.9000    0.0008 4785.3286   71.6061 11123.5918    0.0008   26.9821   26.9345   26.9821    1.0000    0.6763 2185.0000   38.2660   -2.9417 
1390.0000    0.0011 4795.6143   70.5543 11195.4580    0.0011   26.5362   26.4663   26.5362    1.0000    0.6596 2167.0000   37.0289   -3.1152 
1390.1000    0.0008 4829.1802   71.4897 11285.3682    0.0008   26.9324   26.8827   26.9324    1.0000    0.6744 2162.0000   36.1968   -3.2458 
1390.2000    0.0003 4848.4287   73.7382 11386.0039    0.0003   27.9041   27.8830   27.9041    1.0000    0.7101 2174.0000   35.4654   -3.7696 
1390.3000    0.0003 4899.2236   76.1444 11466.2646    0.0003   28.0274   28.0085   28.0274    1.0000    0.7146 2188.0000   35.5075   -5.5482 
1390.4000    0.0005 4992.8877   78.6255 11761.5986    0.0005   27.5223   27.4926   27.5223    1.0000    0.6962 2173.0000   35.0822   -6.2473 
1390.5000    0.0004 5026.1563   78.2601 11859.2842    0.0004   27.8159   27.7931   27.8159    1.0000    0.7069 2183.0000   35.3299   -6.9404 
1390.6000    0.0009 5029.4561   77.0295 11911.7197    0.0009   26.7405   26.6819   26.7405    1.0000    0.6673 2189.0000   34.4141   -7.6062 
1390.7000    0.0010 5024.8486   73.8952 11739.7051    0.0010   26.6304   26.5659   26.6304    1.0000    0.6631 2179.0000   34.3186   -8.3940 
1390.8000    0.0005 4974.1606   73.5454 11472.8145    0.0005   27.5920   27.5641   27.5920    1.0000    0.6987 2171.0000   35.1411   -9.6275 
1390.9000    0.0002 4888.0347   75.0033 11191.6475    0.0002   28.4582   28.4455   28.4582    1.0000    0.7302 2164.0000   35.9099   -9.9869 
1391.0000    0.0001 4727.9590   81.1515 10825.6992    0.0001   30.6010   30.5948   30.6010    1.0000    0.8070 2158.0000   37.6409  -10.0943 
1391.1000    0.0001 4660.8359   82.4852 10788.4990    0.0001   30.9407   30.9345   30.9407    1.0000    0.8191 2156.0000   37.9211   -8.6997 
1391.2000    0.0001 4627.6333   81.7108 10682.1621    0.0001   31.4330   31.4268   31.4330    1.0000    0.8367 2176.0000   39.2252   -7.3427 
