~VERSION INFORMATION
 VERS.                 2.0:   CWLS LOG ASCII STANDARD - VERSION 2.0
 WRAP.                  NO:   SINGLE LINE PER DEPTH STEP
 CREA.                 09/07/2026 11:19:35
#CREATED USING IP VERSION 4.5.2019.2902 BY RADU VLADUTIU ON 09/07/2026 11:19:35
~WELL INFORMATION
#MNEM.UNIT       DATA                          DESCRIPTION MNEMONIC
#---------      ---------------------------   --------------------------
 STRT    .M         1340.0000                 : START DEPTH
 STOP    .M         2032.0000                 : STOP DEPTH
 STEP    .M         0.1000                    : STEP VALUE
 NULL    .      -999.0000                     : NULL VALUE
 DATE    .      09/07/2026                    : LAS file Creation Date
 WELL   .      175-Filitelnic           : Well Name
 COMP   .      S.N.G.N. Romgaz - Medias : Company
 FLD    .      Filitelnic               : Field
 STATE  .      Romania                  : State
 UWI    .                               : Unique Well Identifier (UWI)
 LOC    .                               : Location
 PDAT   .      KB                       : Permanent Datum
 EPDAT  .      511.7300                 : Elevation of Permanent Datum
 KB     .      511.7300                 : KB Elevation
 RWS    .      -999                     : Def_Rw
 WST    .      -999                     : Def_Rwt
 CNTY   .      Mures                    : County
 PROV   .                               : Province
 SRVC   .      PROSPECTIUNI             : Contractor
 GDAT   .      WGS 84                   : Geodatum
 LONG   .      0                        : Longitude
 LATI   .      0                        : Latitude
 COORDIN.                               : Grid System
 XCOORD .                               : X or East-West Coordinate
 YCOORD .                               : Y or North-South Coordinate
~CURVE INFORMATION
#MNEM              UNIT       API CODE   Curve Type Comments
#----------  --------------- ----------  ---------- -----------
 DEPTH      .M                         : Depth       
 BVWRAS     .Dec                       : BVWtdt      
 LS         .CPS                       :             Far Average Capture Rates
 GR         .GAPI                      : GammaRay    Gamma Ray
 SS         .CPS                       :             Near Average Capture Rates
 PHIE       .Dec                       : Phi         
 SigRec     .cu                        :             
 SigRecHyd  .cu                        :             
 SigRecWat  .cu                        :             
 SwRAS      .Dec                       : SwTDT       
 VCL        .Dec                       : Vcl         
 CCL        .                          : CollarLoc.  Casing Collar Locator
 SGFC       .CU                        :             Reservoir Sigma
 PS         .MV                        : SP          
~A  DEPTH   BVWRAS      LS        GR        SS       PHIE     SigRec  SigRecHy~ SigRecWa~   SwRAS      VCL       CCL       SGFC       PS    
# ...
1522.4000    0.0001 4388.2261   81.9312 10749.1367    0.0001   31.6124   31.6054   31.6124    1.0000    0.7526 2183.0000   43.1110  -10.7991 
1522.5000    0.0001 4356.2402   84.8032 10737.4688    0.0001   32.8902   32.8832   32.8902    1.0000    0.7942 2171.0000   43.0679  -10.1308 
1522.6000    0.0001 4353.2993   90.3740 10723.7305    0.0001   35.3688   35.3618   35.3688    1.0000    0.8750 2175.0000   43.1814   -9.7525 
1522.7000    0.0001 4376.1836   90.4181 10722.3701    0.0001   35.3884   35.3814   35.3884    1.0000    0.8756 2167.0000   42.4703   -9.0827 
1522.8000    0.0001 4384.9541   88.8073 10716.0244    0.0001   34.6717   34.6647   34.6717    1.0000    0.8523 2162.0000   42.8802   -7.2580 
1522.9000    0.0001 4399.3408   85.6411 10807.1377    0.0001   33.2630   33.2560   33.2630    1.0000    0.8064 2174.0000   42.7189   -6.3404 
1523.0000    0.0001 4443.9131   84.5140 10832.0088    0.0001   32.7615   32.7545   32.7615    1.0000    0.7901 2174.0000   42.4923   -5.3050 
1523.1000    0.0001 4436.8979   83.0533 10859.1357    0.0001   32.1116   32.1046   32.1116    1.0000    0.7689 2169.0000   43.0188   -3.8312 
1523.2000    0.0001 4542.5547   81.0424 11010.4951    0.0001   31.2169   31.2099   31.2169    1.0000    0.7397 2163.0000   41.8890   -2.9235 
1523.3000    0.0001 4608.7598   80.9566 11199.4111    0.0001   31.1787   31.1717   31.1787    1.0000    0.7385 2169.0000   40.8512   -1.8842 
1523.4000    0.0001 4757.1504   79.9621 11369.5693    0.0001   30.7363   30.7293   30.7363    1.0000    0.7241 2171.0000   39.5257   -0.4793 
1523.5000    0.0002 4884.9272   77.5244 11735.1768    0.0002   29.6569   29.6445   29.6569    1.0000    0.6888 2173.0000   38.8596   -0.3847 
1523.6000    0.0009 5148.9443   72.7745 12413.4590    0.0009   27.5924   27.5293   27.5924    1.0000    0.6199 2175.0000   35.0128   -0.5171 
1523.7000    0.0016 5287.5171   71.0066 12659.0771    0.0016   26.8511   26.7410   26.8511    1.0000    0.5943 2175.0000   33.3905   -1.6611 
1523.8000    0.0028 5379.6265   69.0220 12695.8008    0.0028   26.0539   25.8549   26.0539    1.0000    0.5655 2192.0000   32.5819   -2.2650 
1523.9000    0.0055 5429.7983   66.6295 12494.1592    0.0055   25.1719   24.7836   25.1719    1.0000    0.5309 2170.0000   32.6450   -2.9441 
1524.0000    0.0053 5403.5112   66.8025 12296.0635    0.0053   25.2318   24.8612   25.2318    1.0000    0.5334 2175.0000   33.3631   -3.9156 
1524.1000    0.0049 5412.2671   67.1178 12144.6279    0.0049   25.3428   25.0026   25.3428    1.0000    0.5379 2174.0000   33.6973   -4.4458 
1524.2000    0.0050 5409.9468   66.9879 12192.7480    0.0050   25.2968   24.9443   25.2968    1.0000    0.5361 2169.0000   33.8206   -5.0334 
1524.3000    0.0051 5404.8867   66.9280 12230.9863    0.0051   25.2757   24.9175   25.2757    1.0000    0.5352 2170.0000   34.2899   -5.8218 
1524.4000    0.0055 5374.8208   66.6514 12411.3223    0.0055   25.1794   24.7934   25.1794    1.0000    0.5312 2166.0000   34.3487   -6.1190 
1524.5000    0.0107 5344.9458   64.0740 12507.3682    0.0107   24.3830   23.6337   24.3830    1.0000    0.4938 2178.0000   33.9853   -6.4412 
1524.6000    0.0151 5340.9590   62.6446 12412.6055    0.0151   24.0410   22.9868   24.0410    1.0000    0.4731 2172.0000   34.6414   -6.8131 
1524.7000    0.0163 5291.5508   62.2967 12227.9561    0.0163   23.9711   22.8289   23.9711    1.0000    0.4681 2174.0000   34.4585   -6.7483 
1524.8000    0.0125 5255.6309   63.4356 12094.8545    0.0125   24.2199   23.3452   24.2199    1.0000    0.4846 2180.0000   34.7430   -6.6794 
1524.9000    0.0038 5211.8594   67.9932 11896.0898    0.0038   25.6616   25.3947   25.6616    1.0000    0.5506 2172.0000   36.7268   -6.5885 
1525.0000    0.0029 5200.7915   68.9652 11979.9600    0.0029   26.0318   25.8295   26.0318    1.0000    0.5647 2183.0000   36.4050   -6.4913 
1525.1000    0.0039 5200.0117   67.8939 12121.6250    0.0039   25.6247   25.3502   25.6247    1.0000    0.5492 2178.0000   35.5580   -6.3633 
1525.2000    0.0105 5160.9028   64.1587 12130.4082    0.0105   24.4058   23.6719   24.4058    1.0000    0.4951 2189.0000   36.0168   -6.2601 
1525.3000    0.0085 5138.5498   64.9767 12045.4424    0.0085   24.6388   24.0407   24.6388    1.0000    0.5069 2190.0000   35.8105   -6.1960 
1525.4000    0.0041 5166.4805   67.7077 11918.4434    0.0041   25.5560   25.2669   25.5560    1.0000    0.5465 2175.0000   35.7915   -6.3679 
1525.5000    0.0004 5243.9194   75.2455 11955.6143    0.0004   28.6577   28.6300   28.6577    1.0000    0.6557 2179.0000   35.7005   -6.6340 
1525.6000    0.0003 5322.2295   79.3182 12204.4658    0.0003   28.8711   28.8477   28.8711    1.0000    0.6628 2193.0000   34.8402   -6.9592 
1525.7000    0.0007 5392.5557   82.3294 12524.6348    0.0007   27.8520   27.8002   27.8520    1.0000    0.6287 2194.0000   34.0153   -7.5787 
1525.8000    0.0025 5563.8101   80.0592 13062.9033    0.0025   26.2281   26.0533   26.2281    1.0000    0.5720 2197.0000   32.6417   -7.9421 
1525.9000    0.0023 5586.0151   75.2853 12986.1406    0.0023   26.3562   26.1972   26.3562    1.0000    0.5766 2176.0000   32.7547   -8.3446 
1526.0000    0.0024 5582.1187   70.3770 12796.6025    0.0024   26.2826   26.1147   26.2826    1.0000    0.5740 2186.0000   32.6899   -8.9411 
1526.1000    0.0054 5403.2339   66.6991 12323.7383    0.0054   25.1959   24.8148   25.1959    1.0000    0.5319 2185.0000   33.0866   -9.3172 
1526.2000    0.0034 5315.1748   68.3733 12085.3076    0.0034   25.8045   25.5648   25.8045    1.0000    0.5561 2183.0000   34.5945   -9.7339 
1526.3000    0.0016 5231.7852   70.8817 11914.9277    0.0016   26.7997   26.6853   26.7997    1.0000    0.5925 2179.0000   34.3604  -10.3336 
1526.4000    0.0008 5177.5161   73.1128 11870.5049    0.0008   27.7367   27.6801   27.7367    1.0000    0.6248 2184.0000   34.5847  -10.5591 
1526.5000    0.0004 5154.1250   76.3601 11870.5898    0.0004   28.5950   28.5658   28.5950    1.0000    0.6536 2169.0000   34.6182  -10.7618 
1526.6000    0.0004 5153.7129   77.8801 11947.9287    0.0004   28.6110   28.5822   28.6110    1.0000    0.6542 2179.0000   34.6311  -10.7588 
1526.7000    0.0007 5242.9497   78.7383 12064.3828    0.0007   27.8519   27.8001   27.8519    1.0000    0.6287 2176.0000   34.0152  -10.3476 
1526.8000    0.0015 5399.6216   74.1992 12440.1191    0.0015   26.9247   26.8205   26.9247    1.0000    0.5969 2168.0000   33.2445   -9.9165 
1526.9000    0.0026 5410.3960   69.3234 12508.4717    0.0026   26.1719   25.9896   26.1719    1.0000    0.5699 2172.0000   32.9960   -9.3960 
1527.0000    0.0081 5337.2319   65.1998 12507.4785    0.0081   24.7062   24.1412   24.7062    1.0000    0.5101 2166.0000   33.2619   -9.1145 
1527.1000    0.0129 5306.6777   63.2872 12241.5869    0.0129   24.1844   23.2780   24.1844    1.0000    0.4824 2185.0000   34.1281   -8.7745 
1527.2000    0.0101 5244.5459   64.3191 12015.5967    0.0101   24.4496   23.7443   24.4496    1.0000    0.4974 2177.0000   35.3748   -8.1132 
1527.3000    0.0065 5141.8213   66.0220 11942.5957    0.0065   24.9673   24.5109   24.9673    1.0000    0.5221 2191.0000   35.8806   -7.8369 
1527.4000    0.0015 4971.6016   71.2264 11732.3271    0.0015   26.9420   26.8391   26.9420    1.0000    0.5975 2189.0000   37.1384   -7.5535 
1527.5000    0.0008 4956.4424   72.9612 11684.6406    0.0008   27.6719   27.6125   27.6719    1.0000    0.6226 2167.0000   38.1605   -7.2713 
1527.6000    0.0008 4982.0454   73.0764 11516.4766    0.0008   27.7211   27.6638   27.7211    1.0000    0.6243 2165.0000   38.0467   -7.3174 
1527.7000    0.0027 5002.3799   69.1697 11334.8623    0.0027   26.1116   25.9209   26.1116    1.0000    0.5677 2203.0000   36.6790   -7.3582 
1527.8000    0.0057 5064.2720   66.5024 11489.6494    0.0057   25.1283   24.7266   25.1283    1.0000    0.5290 2168.0000   37.1535   -7.3432 
1527.9000    0.0082 5200.2163   65.1226 11689.4824    0.0082   24.6827   24.1064   24.6827    1.0000    0.5090 2165.0000   35.6436   -7.1899 
1528.0000    0.0067 5388.6875   65.8936 12073.4473    0.0067   24.9253   24.4532   24.9253    1.0000    0.5202 2178.0000   34.1095   -7.0209 
