~VERSION INFORMATION
 VERS.                 2.0:   CWLS LOG ASCII STANDARD - VERSION 2.0
 WRAP.                  NO:   SINGLE LINE PER DEPTH STEP
 CREA.                 09/07/2026 11:19:35
#CREATED USING IP VERSION 4.5.2019.2902 BY RADU VLADUTIU ON 09/07/2026 11:19:35
~WELL INFORMATION
#MNEM.UNIT       DATA                          DESCRIPTION MNEMONIC
#---------      ---------------------------   --------------------------
 STRT    .M         1340.0000                 : START DEPTH
 STOP    .M         2032.0000                 : STOP DEPTH
 STEP    .M         0.1000                    : STEP VALUE
 NULL    .      -999.0000                     : NULL VALUE
 DATE    .      09/07/2026                    : LAS file Creation Date
 WELL   .      175-Filitelnic           : Well Name
 COMP   .      S.N.G.N. Romgaz - Medias : Company
 FLD    .      Filitelnic               : Field
 STATE  .      Romania                  : State
 UWI    .                               : Unique Well Identifier (UWI)
 LOC    .                               : Location
 PDAT   .      KB                       : Permanent Datum
 EPDAT  .      511.7300                 : Elevation of Permanent Datum
 KB     .      511.7300                 : KB Elevation
 RWS    .      -999                     : Def_Rw
 WST    .      -999                     : Def_Rwt
 CNTY   .      Mures                    : County
 PROV   .                               : Province
 SRVC   .      PROSPECTIUNI             : Contractor
 GDAT   .      WGS 84                   : Geodatum
 LONG   .      0                        : Longitude
 LATI   .      0                        : Latitude
 COORDIN.                               : Grid System
 XCOORD .                               : X or East-West Coordinate
 YCOORD .                               : Y or North-South Coordinate
~CURVE INFORMATION
#MNEM              UNIT       API CODE   Curve Type Comments
#----------  --------------- ----------  ---------- -----------
 DEPTH      .M                         : Depth       
 BVWRAS     .Dec                       : BVWtdt      
 LS         .CPS                       :             Far Average Capture Rates
 GR         .GAPI                      : GammaRay    Gamma Ray
 SS         .CPS                       :             Near Average Capture Rates
 PHIE       .Dec                       : Phi         
 SigRec     .cu                        :             
 SigRecHyd  .cu                        :             
 SigRecWat  .cu                        :             
 SwRAS      .Dec                       : SwTDT       
 VCL        .Dec                       : Vcl         
 CCL        .                          : CollarLoc.  Casing Collar Locator
 SGFC       .CU                        :             Reservoir Sigma
 PS         .MV                        : SP          
~A  DEPTH   BVWRAS      LS        GR        SS       PHIE     SigRec  SigRecHy~ SigRecWa~   SwRAS      VCL       CCL       SGFC       PS    
# ...
1613.6000    0.1269 8131.0430   64.0996 17253.8691    0.1343   24.4598   15.7022   24.9699    0.9450    0.2538 2161.0000   24.4598  -26.6588 
1613.7000    0.1256 8131.9556   63.5507 17271.6660    0.1323   24.7127   16.0441   25.1710    0.9498    0.2651 2173.0000   24.7127  -27.6016 
1613.8000    0.1287 8074.0244   63.4755 17117.3828    0.1371   24.1137   15.2342   24.6948    0.9386    0.2383 2193.0000   24.1137  -28.7880 
1613.9000    0.1240 7884.5293   66.1936 16747.6855    0.1284   25.0234   16.4675   25.3294    0.9655    0.2791 2181.0000   25.0234  -30.4313 
1614.0000    0.1228 7785.4648   68.4703 16803.7109    0.1237   25.2301   16.7546   25.2888    0.9931    0.2883 2177.0000   25.2301  -31.3741 
1614.1000    0.1218 7668.7617   69.8883 16691.5508    0.1218   25.2589   16.8518   25.2589    1.0000    0.2915 2185.0000   25.2996  -33.1941 
1614.2000    0.1069 7552.3481   70.8110 16475.9199    0.1069   24.9108   17.5339   24.9108    1.0000    0.3132 2176.0000   25.7837  -37.2955 
1614.3000    0.0834 7511.8115   72.6059 16461.1348    0.0834   24.2566   18.5027   24.2566    1.0000    0.3438 2185.0000   26.4670  -40.5810 
1614.4000    0.0344 7483.0537   75.3341 16373.8125    0.0344   23.2955   20.9217   23.2955    1.0000    0.4211 2179.0000   28.1913  -44.6950 
1614.5000    0.0394 7450.2100   78.2572 16230.1055    0.0394   23.3241   20.6086   23.3241    1.0000    0.4110 2167.0000   27.9655  -50.4409 
1614.6000    0.0305 7459.6890   77.7197 16301.8057    0.0305   23.2960   21.1920   23.2960    1.0000    0.4299 2170.0000   28.3869  -53.7264 
1614.7000    0.0273 7458.2275   76.7307 16270.9678    0.0273   23.3157   21.4331   23.3157    1.0000    0.4378 2179.0000   28.5619  -56.9524 
1614.8000    0.0232 7490.2104   74.1167 16328.5635    0.0232   23.3742   21.7757   23.3742    1.0000    0.4489 2178.0000   28.8114  -59.1665 
1614.9000    0.0238 7472.1030   72.4437 16318.9834    0.0238   23.3627   21.7218   23.3627    1.0000    0.4472 2175.0000   28.7721  -58.8577 
1615.0000    0.0268 7447.5801   71.0719 16339.7100    0.0268   23.3210   21.4752   23.3210    1.0000    0.4391 2167.0000   28.5925  -58.3607 
1615.1000    0.0482 7392.5039   69.8451 16233.0430    0.0482   23.4351   20.1068   23.4351    1.0000    0.3949 2172.0000   27.6054  -57.4755 
1615.2000    0.0323 7418.5923   69.4779 16157.9980    0.0323   23.2929   21.0652   23.2929    1.0000    0.4258 2169.0000   28.2951  -57.1721 
1615.3000    0.0241 7450.5073   69.4022 16082.9385    0.0241   23.3573   21.6952   23.3573    1.0000    0.4463 2164.0000   28.7527  -56.6237 
1615.4000    0.0246 7454.2710   69.7424 16221.2471    0.0246   23.3490   21.6517   23.3490    1.0000    0.4449 2174.0000   28.7210  -55.3831 
1615.5000    0.0485 7565.9668   69.6528 16523.0605    0.0485   23.4398   20.0914   23.4398    1.0000    0.3944 2168.0000   27.5944  -54.3634 
1615.6000    0.0445 7608.5039   68.5707 16597.1484    0.0445   23.3805   20.3102   23.3805    1.0000    0.4014 2169.0000   27.7511  -53.1028 
1615.7000    0.0494 7696.9312   67.3415 16815.6914    0.0494   23.4543   20.0447   23.4543    1.0000    0.3929 2173.0000   27.5610  -51.3196 
1615.8000    0.0619 7651.6504   66.2953 16960.6074    0.0619   23.7046   19.4325   23.7046    1.0000    0.3733 2179.0000   27.1248  -50.3008 
1615.9000    0.0781 7632.0508   67.3170 16939.3066    0.0781   24.1132   18.7211   24.1132    1.0000    0.3507 2181.0000   26.6211  -49.0435 
1616.0000    0.0900 7589.5752   69.3971 16883.6465    0.0900   24.4417   18.2307   24.4417    1.0000    0.3352 2193.0000   26.2752  -47.2553 
1616.1000    0.0616 7610.5225   72.5794 16711.4941    0.0616   23.6966   19.4488   23.6966    1.0000    0.3738 2182.0000   27.1364  -46.2355 
1616.2000    0.0458 7650.9189   73.2256 16676.9336    0.0458   23.3978   20.2403   23.3978    1.0000    0.3991 2172.0000   27.7010  -44.9796 
1616.3000    0.0568 7658.9976   73.8550 16732.9297    0.0568   23.5934   19.6735   23.5934    1.0000    0.3810 2192.0000   27.2962  -43.1860 
1616.4000    0.0645 7735.7842   72.8876 16857.9570    0.0645   23.7648   19.3142   23.7648    1.0000    0.3695 2183.0000   27.0408  -42.1671 
1616.5000    0.0874 7719.7485   70.3252 16724.9414    0.0874   24.3683   18.3378   24.3683    1.0000    0.3386 2178.0000   26.3507  -40.9154 
1616.6000    0.0944 7718.1699   66.9733 16493.2090    0.0944   24.5659   18.0506   24.5659    1.0000    0.3295 2176.0000   26.1482  -39.1208 
1616.7000    0.1126 7526.7080   60.7189 15909.6162    0.1126   25.0581   17.2866   25.0581    1.0000    0.3053 2176.0000   25.6088  -38.1031 
1616.8000    0.1113 7437.8438   57.8543 15737.6182    0.1113   25.0253   17.3444   25.0253    1.0000    0.3072 2196.0000   25.6497  -37.0865 
1616.9000    0.1184 7402.7363   55.1029 15726.6064    0.1184   25.1913   17.0229   25.1913    1.0000    0.2969 2460.0000   25.4216  -36.0740 
1617.0000    0.1232 7362.6421   52.9592 15812.0879    0.1255   25.1577   16.6537   25.3121    0.9822    0.2851 2157.0000   25.1577  -35.1565 
1617.1000    0.1248 7416.7671   51.1348 16299.9326    0.1310   24.8666   16.2523   25.2899    0.9532    0.2720 2178.0000   24.8666  -34.7013 
1617.2000    0.1242 7473.7153   51.3273 16530.5313    0.1291   24.9862   16.4162   25.3270    0.9618    0.2774 2179.0000   24.9862  -34.7162 
1617.3000    0.1231 7587.4434   53.0973 16735.3281    0.1248   25.1877   16.6955   25.3035    0.9865    0.2864 2181.0000   25.1877  -35.0534 
1617.4000    0.0935 7881.7949   61.2116 17083.3379    0.0935   24.5398   18.0884   24.5398    1.0000    0.3307 2180.0000   26.1749  -36.5755 
1617.5000    0.0857 7938.8379   64.3251 17128.6230    0.0857   24.3213   18.4067   24.3213    1.0000    0.3408 2165.0000   26.3993  -38.3135 
1617.6000    0.0760 7975.7603   65.4351 17172.0137    0.0760   24.0547   18.8132   24.0547    1.0000    0.3536 2175.0000   26.6862  -40.3235 
1617.7000    0.0771 8057.0889   66.4756 17009.9980    0.0771   24.0847   18.7657   24.0847    1.0000    0.3521 2167.0000   26.6526  -43.0516 
1617.8000    0.0701 8070.2183   68.5717 16975.3594    0.0701   23.9029   19.0642   23.9029    1.0000    0.3616 2176.0000   26.8637  -44.8964 
1617.9000    0.0705 8039.3354   70.8489 17001.4609    0.0705   23.9135   19.0460   23.9135    1.0000    0.3610 2172.0000   26.8508  -47.1387 
1618.0000    0.0834 7972.6055   71.9825 17131.3301    0.0834   24.2563   18.5032   24.2563    1.0000    0.3438 2171.0000   26.4673  -50.4563 
1618.1000    0.0866 7955.8730   72.7906 17166.7207    0.0866   24.3447   18.3724   24.3447    1.0000    0.3397 2175.0000   26.3751  -52.4668 
1618.2000    0.0857 7972.5020   75.4744 17239.2031    0.0857   24.3196   18.4093   24.3196    1.0000    0.3409 2171.0000   26.4011  -54.8992 
1618.3000    0.0596 7889.6406   82.2134 17101.9473    0.0596   23.6528   19.5404   23.6528    1.0000    0.3767 2190.0000   27.2015  -58.0619 
1618.4000    0.0533 7910.8711   83.3830 17158.7832    0.0533   23.5244   19.8442   23.5244    1.0000    0.3864 2179.0000   27.4178  -58.1876 
1618.5000    0.0450 7961.0200   82.7399 17220.8301    0.0450   23.3870   20.2834   23.3870    1.0000    0.4005 2181.0000   27.7319  -58.2139 
1618.6000    0.0471 7997.6016   81.1215 17336.7910    0.0471   23.4167   20.1701   23.4167    1.0000    0.3969 2166.0000   27.6507  -57.8859 
1618.7000    0.0547 8050.2720   77.1908 17489.4160    0.0547   23.5504   19.7773   23.5504    1.0000    0.3843 2173.0000   27.3701  -57.6264 
1618.8000    0.0502 8033.0918   75.1596 17652.7383    0.0502   23.4683   20.0018   23.4683    1.0000    0.3915 2168.0000   27.5303  -57.3068 
1618.9000    0.0620 8036.5879   73.6235 17692.9258    0.0620   23.7057   19.4303   23.7057    1.0000    0.3732 2191.0000   27.1232  -56.8191 
1619.0000    0.0760 7996.7300   72.4783 17571.7559    0.0760   24.0559   18.8113   24.0559    1.0000    0.3536 2179.0000   26.6848  -56.5645 
1619.1000    0.0563 7866.4902   72.5794 17424.6465    0.0563   23.5831   19.6977   23.5831    1.0000    0.3818 2175.0000   27.3134  -56.2508 
1619.2000    0.0453 7737.6069   73.4904 17175.2480    0.0453   23.3914   20.2657   23.3914    1.0000    0.4000 2162.0000   27.7192  -55.7665 
