~VERSION INFORMATION
 VERS.                 2.0:   CWLS LOG ASCII STANDARD - VERSION 2.0
 WRAP.                  NO:   SINGLE LINE PER DEPTH STEP
 CREA.                 09/07/2026 11:19:35
#CREATED USING IP VERSION 4.5.2019.2902 BY RADU VLADUTIU ON 09/07/2026 11:19:35
~WELL INFORMATION
#MNEM.UNIT       DATA                          DESCRIPTION MNEMONIC
#---------      ---------------------------   --------------------------
 STRT    .M         1340.0000                 : START DEPTH
 STOP    .M         2032.0000                 : STOP DEPTH
 STEP    .M         0.1000                    : STEP VALUE
 NULL    .      -999.0000                     : NULL VALUE
 DATE    .      09/07/2026                    : LAS file Creation Date
 WELL   .      175-Filitelnic           : Well Name
 COMP   .      S.N.G.N. Romgaz - Medias : Company
 FLD    .      Filitelnic               : Field
 STATE  .      Romania                  : State
 UWI    .                               : Unique Well Identifier (UWI)
 LOC    .                               : Location
 PDAT   .      KB                       : Permanent Datum
 EPDAT  .      511.7300                 : Elevation of Permanent Datum
 KB     .      511.7300                 : KB Elevation
 RWS    .      -999                     : Def_Rw
 WST    .      -999                     : Def_Rwt
 CNTY   .      Mures                    : County
 PROV   .                               : Province
 SRVC   .      PROSPECTIUNI             : Contractor
 GDAT   .      WGS 84                   : Geodatum
 LONG   .      0                        : Longitude
 LATI   .      0                        : Latitude
 COORDIN.                               : Grid System
 XCOORD .                               : X or East-West Coordinate
 YCOORD .                               : Y or North-South Coordinate
~CURVE INFORMATION
#MNEM              UNIT       API CODE   Curve Type Comments
#----------  --------------- ----------  ---------- -----------
 DEPTH      .M                         : Depth       
 BVWRAS     .Dec                       : BVWtdt      
 LS         .CPS                       :             Far Average Capture Rates
 GR         .GAPI                      : GammaRay    Gamma Ray
 SS         .CPS                       :             Near Average Capture Rates
 PHIE       .Dec                       : Phi         
 SigRec     .cu                        :             
 SigRecHyd  .cu                        :             
 SigRecWat  .cu                        :             
 SwRAS      .Dec                       : SwTDT       
 VCL        .Dec                       : Vcl         
 CCL        .                          : CollarLoc.  Casing Collar Locator
 SGFC       .CU                        :             Reservoir Sigma
 PS         .MV                        : SP          
~A  DEPTH   BVWRAS      LS        GR        SS       PHIE     SigRec  SigRecHy~ SigRecWa~   SwRAS      VCL       CCL       SGFC       PS    
# ...
1750.4000    0.0037 4935.3252   66.6789 11961.2988    0.0037   25.2486   24.9964   25.2486    1.0000    0.5557 2218.0000   37.1115  -12.3618 
1750.5000    0.0028 4868.6572   67.6000 11836.4951    0.0028   25.6042   25.4131   25.6042    1.0000    0.5697 2198.0000   37.1240  -11.1598 
1750.6000    0.0036 4832.4521   66.7364 11671.6270    0.0036   25.2703   25.0224   25.2703    1.0000    0.5566 2202.0000   37.1566   -9.5095 
1750.7000    0.0037 4846.8389   66.6710 11752.6309    0.0037   25.2456   24.9928   25.2456    1.0000    0.5556 2267.0000   36.6829   -8.5618 
1750.8000    0.0029 4960.4575   67.4366 11833.3086    0.0029   25.5400   25.3392   25.5400    1.0000    0.5672 2216.0000   36.2041   -7.3534 
1750.9000    0.0013 5112.2070   69.8928 12338.5732    0.0013   26.5409   26.4484   26.5409    1.0000    0.6044 2132.0000   35.8326   -5.7789 
1751.0000    0.0012 5224.8218   70.3108 12560.2227    0.0012   26.7176   26.6369   26.7176    1.0000    0.6108 2202.0000   35.5198   -5.0870 
1751.1000    0.0013 5340.4038   69.9122 12669.2158    0.0013   26.5491   26.4572   26.5491    1.0000    0.6047 2155.0000   35.0777   -4.6227 
1751.2000    0.0023 5520.9517   68.1957 12926.2285    0.0023   25.8413   25.6823   25.8413    1.0000    0.5787 2181.0000   35.1718   -4.7356 
1751.3000    0.0025 5536.5049   67.8851 12915.8623    0.0025   25.7170   25.5420   25.7170    1.0000    0.5740 2169.0000   35.2908   -4.8105 
1751.4000    0.0022 5509.1885   68.2745 12970.7373    0.0022   25.8731   25.7179   25.8731    1.0000    0.5799 2125.0000   34.9494   -5.0278 
1751.5000    0.0023 5534.5205   68.1718 13026.9678    0.0023   25.8317   25.6715   25.8317    1.0000    0.5784 2180.0000   34.6101   -5.7022 
1751.6000    0.0035 5548.0161   66.8115 13077.2676    0.0035   25.2988   25.0564   25.2988    1.0000    0.5577 2129.0000   34.3870   -6.6197 
1751.7000    0.0055 5557.9165   65.2785 13063.0166    0.0055   24.7402   24.3616   24.7402    1.0000    0.5345 2211.0000   34.2609   -7.3665 
1751.8000    0.0098 5592.1670   63.1721 13210.3730    0.0098   24.0758   23.4031   24.0758    1.0000    0.5026 2243.0000   30.9272   -7.4667 
1751.9000    0.0119 5611.8901   62.4154 13226.8584    0.0119   23.8756   23.0573   23.8756    1.0000    0.4911 2234.0000   30.5286   -7.0143 
1752.0000    0.0141 5636.0205   61.7250 13250.7207    0.0141   23.7143   22.7410   23.7143    1.0000    0.4807 2148.0000   30.1929   -6.6011 
1752.1000    0.0164 5627.5957   61.1030 13237.6523    0.0164   23.5886   22.4553   23.5886    1.0000    0.4713 2224.0000   31.0933   -6.3221 
1752.2000    0.0174 5716.2520   60.8611 13178.9023    0.0174   23.5450   22.3440   23.5450    1.0000    0.4676 2106.0000   31.7007   -6.1399 
1752.3000    0.0116 5730.4346   62.5018 13180.1123    0.0116   23.8972   23.0968   23.8972    1.0000    0.4925 2191.0000   31.0236   -5.8804 
1752.4000    0.0050 5731.6392   65.6147 13220.1406    0.0050   24.8581   24.5142   24.8581    1.0000    0.5396 2176.0000   30.9819   -5.5208 
1752.5000    0.0011 5741.3955   70.3742 13235.2852    0.0011   26.7445   26.6655   26.7445    1.0000    0.6117 2186.0000   33.1879   -5.3427 
1752.6000    0.0013 5755.0625   69.9667 13271.4824    0.0013   26.5720   26.4817   26.5720    1.0000    0.6056 2136.0000   32.5080   -5.0828 
1752.7000    0.0020 5744.5005   68.6553 13217.0986    0.0020   26.0276   25.8899   26.0276    1.0000    0.5857 2171.0000   31.8719   -4.7213 
1752.8000    0.0040 5730.6934   66.3645 13202.0400    0.0040   25.1307   24.8540   25.1307    1.0000    0.5510 2139.0000   32.4355   -4.5460 
1752.9000    0.0052 5742.8203   65.4490 13222.5234    0.0052   24.7996   24.4390   24.7996    1.0000    0.5371 2236.0000   31.6586   -4.3239 
1753.0000    0.0066 5834.0073   64.6432 13280.5898    0.0066   24.5254   24.0731   24.5254    1.0000    0.5249 2127.0000   31.1152   -3.9837 
1753.1000    0.0110 5919.9619   62.6956 13451.8574    0.0110   23.9470   23.1854   23.9470    1.0000    0.4954 2208.0000   31.1112   -3.6097 
1753.2000    0.0144 5941.4312   61.6557 13573.5703    0.0144   23.6994   22.7092   23.6994    1.0000    0.4796 2178.0000   30.9927   -3.1425 
1753.3000    0.0169 6036.7310   60.9852 13706.8408    0.0169   23.5670   22.4011   23.5670    1.0000    0.4695 2210.0000   30.3244   -2.5964 
1753.4000    0.0187 6059.2026   60.5577 13789.8135    0.0187   23.4949   22.2042   23.4949    1.0000    0.4630 2131.0000   30.1289   -2.3055 
1753.5000    0.0266 6047.5952   59.0120 13879.4961    0.0266   23.3229   21.4890   23.3229    1.0000    0.4396 2224.0000   30.3026   -2.0035 
1753.6000    0.0299 5989.4961   58.4713 13881.4189    0.0299   23.2983   21.2374   23.2983    1.0000    0.4314 2138.0000   30.2144   -1.6780 
1753.7000    0.0262 5947.4907   59.0807 13776.3125    0.0262   23.3274   21.5209   23.3274    1.0000    0.4406 2107.0000   30.3593   -1.2453 
1753.8000    0.0118 5841.1172   62.4271 13434.0273    0.0118   23.8785   23.0626   23.8785    1.0000    0.4913 2160.0000   30.4344   -0.6810 
1753.9000    0.0098 5755.6333   63.1386 13281.1309    0.0098   24.0665   23.3878   24.0665    1.0000    0.5021 2214.0000   30.5977   -0.2946 
1754.0000    0.0117 5723.1230   62.4723 13216.2080    0.0117   23.8898   23.0833   23.8898    1.0000    0.4920 2220.0000   31.7476    0.0250 
1754.1000    0.0353 5785.7314   57.6701 13128.2402    0.0353   23.2985   20.8633   23.2985    1.0000    0.4192 2213.0000   30.7676   -0.2045 
1754.2000    0.0640 5762.2188   54.4338 13236.1904    0.0640   23.7539   19.3351   23.7539    1.0000    0.3702 2190.0000   31.0691   -1.2557 
1754.3000    0.0909 5776.0234   52.0460 13376.7998    0.0909   24.4674   18.1934   24.4674    1.0000    0.3340 2169.0000   30.9191   -2.5893 
1754.4000    0.0820 5779.2681   52.8106 13463.7813    0.0820   24.2186   18.5597   24.2186    1.0000    0.3456 2190.0000   32.1837   -3.8854 
1754.5000    0.0626 5812.4180   54.5735 13503.7119    0.0626   23.7200   19.4016   23.7200    1.0000    0.3723 2156.0000   32.5073   -4.0574 
1754.6000    0.0496 5815.3184   55.9050 13589.1631    0.0496   23.4580   20.0332   23.4580    1.0000    0.3925 2201.0000   30.1175   -4.2113 
1754.7000    0.0342 5622.7158   57.8295 13519.1738    0.0342   23.2949   20.9379   23.2949    1.0000    0.4217 2194.0000   31.4174   -4.3385 
1754.8000    0.0269 5590.7969   58.9578 13442.1572    0.0269   23.3195   21.4638   23.3195    1.0000    0.4388 2182.0000   31.8422   -4.4798 
1754.9000    0.0231 5546.7314   59.6414 13355.9453    0.0231   23.3753   21.7809   23.3753    1.0000    0.4491 2181.0000   32.7671   -4.6014 
1755.0000    0.0230 5577.2500   59.6660 13322.4863    0.0230   23.3779   21.7922   23.3779    1.0000    0.4495 2197.0000   31.6697   -4.7101 
1755.1000    0.0237 5508.4170   59.5275 13057.4854    0.0237   23.3640   21.7281   23.3640    1.0000    0.4474 2143.0000   33.1800   -4.8614 
1755.2000    0.0242 5506.6606   59.4296 12991.6611    0.0242   23.3549   21.6827   23.3549    1.0000    0.4459 2177.0000   33.2672   -5.5612 
1755.3000    0.0292 5566.5303   58.5707 13031.7637    0.0292   23.3014   21.2837   23.3014    1.0000    0.4329 2163.0000   33.5279   -6.7100 
1755.4000    0.0594 5706.3755   54.8898 13220.7002    0.0594   23.6475   19.5520   23.6475    1.0000    0.3771 2155.0000   32.7547   -6.9072 
1755.5000    0.0650 5793.0986   54.3428 13413.5938    0.0650   23.7766   19.2918   23.7766    1.0000    0.3688 2158.0000   32.5536   -7.0741 
1755.6000    0.0514 5832.6387   55.7133 13608.0576    0.0514   23.4885   19.9425   23.4885    1.0000    0.3896 2152.0000   31.8503   -6.9637 
1755.7000    0.0220 6035.4443   59.8627 13977.3965    0.0220   23.3996   21.8833   23.3996    1.0000    0.4525 2196.0000   31.0896   -6.4641 
1755.8000    0.0213 6129.7026   60.0089 14072.2041    0.0213   23.4173   21.9509   23.4173    1.0000    0.4547 2116.0000   30.5709   -5.5465 
1755.9000    0.0277 6139.7852   58.8140 14201.4883    0.0277   23.3116   21.3969   23.3116    1.0000    0.4366 2196.0000   29.9106   -4.2418 
1756.0000    0.0312 6176.3667   58.2679 14336.2432    0.0312   23.2942   21.1426   23.2942    1.0000    0.4283 2198.0000   29.3967   -3.4879 
