~VERSION INFORMATION
 VERS.                 2.0:   CWLS LOG ASCII STANDARD - VERSION 2.0
 WRAP.                  NO:   SINGLE LINE PER DEPTH STEP
 CREA.                 09/07/2026 11:19:35
#CREATED USING IP VERSION 4.5.2019.2902 BY RADU VLADUTIU ON 09/07/2026 11:19:35
~WELL INFORMATION
#MNEM.UNIT       DATA                          DESCRIPTION MNEMONIC
#---------      ---------------------------   --------------------------
 STRT    .M         1340.0000                 : START DEPTH
 STOP    .M         2032.0000                 : STOP DEPTH
 STEP    .M         0.1000                    : STEP VALUE
 NULL    .      -999.0000                     : NULL VALUE
 DATE    .      09/07/2026                    : LAS file Creation Date
 WELL   .      175-Filitelnic           : Well Name
 COMP   .      S.N.G.N. Romgaz - Medias : Company
 FLD    .      Filitelnic               : Field
 STATE  .      Romania                  : State
 UWI    .                               : Unique Well Identifier (UWI)
 LOC    .                               : Location
 PDAT   .      KB                       : Permanent Datum
 EPDAT  .      511.7300                 : Elevation of Permanent Datum
 KB     .      511.7300                 : KB Elevation
 RWS    .      -999                     : Def_Rw
 WST    .      -999                     : Def_Rwt
 CNTY   .      Mures                    : County
 PROV   .                               : Province
 SRVC   .      PROSPECTIUNI             : Contractor
 GDAT   .      WGS 84                   : Geodatum
 LONG   .      0                        : Longitude
 LATI   .      0                        : Latitude
 COORDIN.                               : Grid System
 XCOORD .                               : X or East-West Coordinate
 YCOORD .                               : Y or North-South Coordinate
~CURVE INFORMATION
#MNEM              UNIT       API CODE   Curve Type Comments
#----------  --------------- ----------  ---------- -----------
 DEPTH      .M                         : Depth       
 BVWRAS     .Dec                       : BVWtdt      
 LS         .CPS                       :             Far Average Capture Rates
 GR         .GAPI                      : GammaRay    Gamma Ray
 SS         .CPS                       :             Near Average Capture Rates
 PHIE       .Dec                       : Phi         
 SigRec     .cu                        :             
 SigRecHyd  .cu                        :             
 SigRecWat  .cu                        :             
 SwRAS      .Dec                       : SwTDT       
 VCL        .Dec                       : Vcl         
 CCL        .                          : CollarLoc.  Casing Collar Locator
 SGFC       .CU                        :             Reservoir Sigma
 PS         .MV                        : SP          
~A  DEPTH   BVWRAS      LS        GR        SS       PHIE     SigRec  SigRecHy~ SigRecWa~   SwRAS      VCL       CCL       SGFC       PS    
1340.0000    0.1058 6167.4893   53.2109 13701.3828    0.1058   25.1066   18.5489   25.1066    1.0000    0.3843 2173.0000   30.2141  -42.6612 
1340.1000    0.0570 5948.5796   56.7023 13380.9385    0.0570   23.7332   20.1981   23.7332    1.0000    0.4397 2195.0000   30.8429  -42.7343 
1340.2000    0.0313 5887.7451   59.4398 13209.1777    0.0313   23.4059   21.4662   23.4059    1.0000    0.4832 2164.0000   32.0261  -42.8394 
1340.3000    0.0156 5835.5640   62.2054 13047.6504    0.0156   23.6912   22.7268   23.6912    1.0000    0.5271 2183.0000   31.8211  -42.2351 
1340.4000    0.0180 5904.4209   63.7521 13075.4150    0.0180   23.5951   22.4820   23.5951    1.0000    0.5185 2181.0000   30.9773  -41.5337 
1340.5000    0.0219 6019.3159   60.9036 13251.5557    0.0219   23.4906   22.1357   23.4906    1.0000    0.5064 2162.0000   30.8625  -40.8858 
1340.6000    0.0511 6157.1152   57.2358 13577.8174    0.0511   23.6156   20.4470   23.6156    1.0000    0.4482 2146.0000   30.1700  -39.2606 
1340.7000    0.0788 6351.3276   54.9983 13903.0576    0.0788   24.2836   19.3972   24.2836    1.0000    0.4127 2192.0000   29.2030  -37.6927 
1340.8000    0.1159 6645.6606   54.6550 14694.4375    0.1159   25.4357   18.2485   25.4357    1.0000    0.3743 2176.0000   27.6463  -36.2656 
1340.9000    0.1280 6768.6777   53.7645 14995.2666    0.1280   25.8302   17.8953   25.8302    1.0000    0.3625 2176.0000   27.3748  -33.6832 
1341.0000    0.1406 6886.6323   52.2741 15002.8926    0.1406   26.2362   17.5218   26.2362    1.0000    0.3501 2172.0000   27.0874  -31.8455 
1341.1000    0.1573 6833.2407   51.7406 14776.1553    0.1653   26.1158   16.6848   26.9363    0.9514    0.3220 2165.0000   26.4378  -30.4121 
1341.2000    0.1366 6717.5747   53.6622 14552.5352    0.1366   26.1107   17.6398   26.1107    1.0000    0.3540 2191.0000   27.1783  -27.8301 
1341.3000    0.1053 6571.9531   56.8499 14259.0625    0.1053   25.0916   18.5628   25.0916    1.0000    0.3848 2184.0000   27.8881  -25.9908 
1341.4000    0.0672 6382.4888   62.9091 13832.5625    0.0672   23.9708   19.8061   23.9708    1.0000    0.4264 2185.0000   28.8509  -24.5542 
1341.5000    0.0440 6317.3306   64.0423 13708.6758    0.0440   23.5018   20.7719   23.5018    1.0000    0.4593 2170.0000   29.6095  -21.9778 
1341.6000    0.0324 6240.2300   64.3820 13692.4785    0.0324   23.4067   21.4004   23.4067    1.0000    0.4809 2180.0000   30.1087  -20.1343 
1341.7000    0.0424 6104.5640   64.2975 13766.5098    0.0424   23.4807   20.8513   23.4807    1.0000    0.4620 2168.0000   29.6723  -18.6891 
1341.8000    0.0412 6038.3677   63.6923 13610.9707    0.0412   23.4661   20.9134   23.4661    1.0000    0.4641 2179.0000   29.7215  -16.1193 
1341.9000    0.0443 5989.7881   63.2656 13306.4668    0.0443   23.5055   20.7589   23.5055    1.0000    0.4588 2181.0000   29.5992  -14.1377 
1342.0000    0.0167 5742.5889   64.0593 12479.8359    0.0167   23.6409   22.6044   23.6409    1.0000    0.5228 2188.0000   31.0762  -12.5016 
1342.1000    0.0112 5603.5605   64.2142 12135.3936    0.0112   23.9634   23.2717   23.9634    1.0000    0.5462 2181.0000   31.6176  -12.0040 
1342.2000    0.0092 5543.2100   64.0697 11923.5527    0.0092   24.1411   23.5681   24.1411    1.0000    0.5567 2185.0000   32.7889  -11.9819 
1342.3000    0.0091 5554.0283   64.1296 11972.5674    0.0091   24.1582   23.5950   24.1582    1.0000    0.5576 2163.0000   32.9216  -11.9863 
1342.4000    0.0222 5952.0537   64.6600 12820.4033    0.0222   23.4846   22.1108   23.4846    1.0000    0.5055 2186.0000   30.6780  -14.5932 
1342.5000    0.0506 6213.1323   65.1407 13462.9717    0.0506   23.6066   20.4687   23.6066    1.0000    0.4489 2182.0000   29.3702  -17.0157 
1342.6000    0.1026 6557.1118   65.7783 14110.9355    0.1026   25.0059   18.6434   25.0059    1.0000    0.3875 2181.0000   27.9501  -19.0521 
1342.7000    0.1623 7382.7124   64.8646 15577.1875    0.1834   24.8864   15.0910   26.4626    0.8848    0.2664 2163.0000   25.1527  -21.1135 
1342.8000    0.1667 7795.4863   62.9827 16313.6758    0.1962   23.7563   13.6337   25.7978    0.8499    0.2152 2179.0000   23.9715  -23.1836 
1342.9000    0.1696 8092.2744   60.3716 16845.3594    0.2043   23.0359   12.7046   25.3740    0.8299    0.1826 2194.0000   23.2185  -28.1841 
1343.0000    0.1757 8377.3721   53.0895 17325.4727    0.2218   21.4940   10.7163   24.4671    0.7920    0.1129 2181.0000   21.6069  -32.2905 
1343.1000    0.1764 8350.2061   48.9986 17247.9961    0.2240   21.2952   10.4599   24.3501    0.7875    0.1039 2177.0000   21.3991  -35.7210 
1343.2000    0.1760 8297.8848   45.4718 16913.9199    0.2228   21.4018   10.5974   24.4128    0.7899    0.1087 2184.0000   21.5105  -41.1914 
1343.3000    0.1721 7864.5054   41.6846 15764.0537    0.2116   22.3916   11.8738   24.9951    0.8133    0.1535 2164.0000   22.5451  -43.2365 
1343.4000    0.1720 7572.7671   41.1542 15348.5830    0.2018   23.4695   12.9983   25.5080    0.8525    0.1929 2174.0000   23.6624  -43.8263 
1343.5000    0.1805 7395.3364   41.9035 14992.4893    0.1988   24.3253   13.3373   25.6626    0.9081    0.2048 2173.0000   24.5301  -44.1437 
1343.6000    0.1743 7068.5435   46.6777 14907.7773    0.1799   26.0248   15.4971   26.6478    0.9693    0.2806 2168.0000   26.3054  -44.2047 
1343.7000    0.1750 7006.2964   47.8901 15091.2246    0.1750   26.8980   16.0455   26.8980    1.0000    0.2998 2199.0000   28.0928  -44.2091 
1343.8000    0.1776 6955.1797   47.2367 15276.9004    0.1776   26.7631   15.7499   26.7631    1.0000    0.2895 2175.0000   28.3194  -44.2168 
1343.9000    0.1840 6968.4912   45.6382 15287.7119    0.1840   26.4333   15.0268   26.4333    1.0000    0.2641 2195.0000   28.2727  -40.3631 
1344.0000    0.1911 6949.0513   43.8338 15250.7217    0.1911   26.0609   14.2105   26.0609    1.0000    0.2355 2171.0000   29.1762  -35.1523 
1344.1000    0.1900 6904.0137   44.1243 15086.8828    0.1900   26.1209   14.3419   26.1209    1.0000    0.2401 2161.0000   29.7422  -31.6354 
1344.2000    0.1862 6919.9478   45.0697 14901.6953    0.1862   26.3160   14.7696   26.3160    1.0000    0.2551 2176.0000   29.7363  -29.9113 
1344.3000    0.1723 6866.9600   48.5358 14811.3242    0.1723   27.0189   16.3380   27.0189    1.0000    0.3101 2161.0000   30.3497  -28.6081 
1344.4000    0.1562 6819.1782   50.0038 14813.2656    0.1562   26.7092   17.0225   26.7092    1.0000    0.3334 2157.0000   30.6555  -26.2009 
1344.5000    0.1512 6754.3950   50.3599 14713.4346    0.1512   26.5633   17.1910   26.5633    1.0000    0.3390 2179.0000   30.4878  -24.5325 
1344.6000    0.1747 6507.0405   47.9823 14331.7520    0.1747   26.9170   16.0872   26.9170    1.0000    0.3013 2174.0000   30.9147  -23.2824 
1344.7000    0.1793 6370.0229   46.8261 13971.0684    0.1793   26.6784   15.5642   26.6784    1.0000    0.2830 2180.0000   31.4483  -20.9616 
1344.8000    0.1761 6167.3633   47.6250 13513.9922    0.1761   26.8433   15.9256   26.8433    1.0000    0.2956 2182.0000   31.8962  -19.2224 
1344.9000    0.0386 5818.5469   58.5324 12735.5703    0.0386   23.4399   21.0484   23.4399    1.0000    0.4688 2165.0000   32.6535  -17.9277 
1345.0000    0.0060 5681.5815   65.5217 12591.3457    0.0060   24.5919   24.2199   24.5919    1.0000    0.5797 2167.0000   32.6258  -15.6222 
1345.1000    0.0036 5569.2119   69.6177 12463.7607    0.0036   25.1759   24.9537   25.1759    1.0000    0.6057 2171.0000   32.9927  -14.0792 
1345.2000    0.0030 5451.5483   67.6969 12424.9512    0.0030   25.3793   25.1926   25.3793    1.0000    0.6142 2168.0000   33.6209  -13.1641 
1345.3000    0.0064 5389.2056   65.2846 12521.2480    0.0064   24.5135   24.1136   24.5135    1.0000    0.5759 2181.0000   33.7532  -12.8066 
1345.4000    0.0095 5384.5488   63.9730 12499.6221    0.0095   24.1138   23.5245   24.1138    1.0000    0.5551 2172.0000   33.9892  -13.8317 
1345.5000    0.0089 5351.8174   64.2098 12446.8496    0.0089   24.1813   23.6311   24.1813    1.0000    0.5589 2189.0000   34.3669  -15.4794 
1345.6000    0.0040 5337.9624   66.8126 12343.3672    0.0040   25.0462   24.7976   25.0462    1.0000    0.6002 2183.0000   34.7653  -16.9366 
