~VERSION INFORMATION
 VERS.                 2.0:   CWLS LOG ASCII STANDARD - VERSION 2.0
 WRAP.                  NO:   SINGLE LINE PER DEPTH STEP
 CREA.                 09/07/2026 15:32:17
#CREATED USING IP VERSION 4.5.2019.2902 BY RADU VLADUTIU ON 09/07/2026 15:32:17
~WELL INFORMATION
#MNEM.UNIT       DATA                          DESCRIPTION MNEMONIC
#---------      ---------------------------   --------------------------
 STRT    .M         1340.0000                 : START DEPTH
 STOP    .M         2182.0000                 : STOP DEPTH
 STEP    .M         0.1000                    : STEP VALUE
 NULL    .      -999.0000                     : NULL VALUE
 DATE    .      09/07/2026                    : LAS file Creation Date
 WELL   .      187-Deleni               : Well Name
 COMP   .      S.N.G.N. Romgaz - Medias : Company
 FLD    .      Deleni                   : Field
 STATE  .      Romania                  : State
 UWI    .                               : Unique Well Identifier (UWI)
 LOC    .                               : Location
 EPDAT  .      0.0000                   : Elevation of Permanent Datum
 RWS    .      -999                     : Def_Rw
 WST    .      -999                     : Def_Rwt
 CNTY   .      Sibiu                    : County
 PROV   .                               : Province
 SRVC   .      PROSPECTIUNI             : Contractor
 GDAT   .      WGS 84                   : Geodatum
 LONG   .      0                        : Longitude
 LATI   .      0                        : Latitude
 COORDIN.                               : Grid System
 XCOORD .                               : X or East-West Coordinate
 YCOORD .                               : Y or North-South Coordinate
~CURVE INFORMATION
#MNEM              UNIT       API CODE   Curve Type Comments
#----------  --------------- ----------  ---------- -----------
 DEPTH      .M                         : Depth       
 BVWRAS     .Dec                       : BVWtdt      
 LS         .CPS                       :             Far Average Capture Rates
 GR         .GAPI                      : GammaRay    Gamma Ray
 SS         .CPS                       :             Near Average Capture Rates
 PHIE       .Dec                       : Phi         
 SigRec     .cu                        :             
 SigRecHyd  .cu                        :             
 SigRecWat  .cu                        :             
 SwRAS      .Dec                       : SwTDT       
 VCL        .Dec                       : Vcl         
 CCL        .                          : CollarLoc.  Casing Collar Locator
 SGFC       .CU                        :             Reservoir Sigma
 PS         .MV                        : SP          
~A  DEPTH   BVWRAS      LS        GR        SS       PHIE     SigRec  SigRecHy~ SigRecWa~   SwRAS      VCL       CCL       SGFC       PS    
# ...
1955.6000    0.0001 5753.8672   79.3964 14074.7930    0.0001   29.5134   29.5057   29.5134    1.0000    0.7558 2177.0000   33.8537   -0.6726 
1955.7000    0.0002 5785.7998   80.0270 14022.2725    0.0002   28.6872   28.6688   28.6872    1.0000    0.7187 2176.0000   32.8760   -0.5546 
1955.8000    0.0001 5824.4512   78.5020 14131.1104    0.0001   29.2199   29.2096   29.2199    1.0000    0.7427 2184.0000   33.7369   -0.3604 
1955.9000    0.0002 5834.1240   76.7703 14088.4648    0.0002   28.6551   28.6361   28.6551    1.0000    0.7172 2173.0000   34.0289   -0.1931 
1956.0000    0.0006 5871.0420   74.1955 14086.3184    0.0006   27.8279   27.7826   27.8279    1.0000    0.6793 2175.0000   34.3649   -0.0734 
1956.1000    0.0033 5957.2769   68.3258 13976.0107    0.0033   26.0853   25.8281   26.0853    1.0000    0.5930 2188.0000   34.4232    0.1714 
1956.2000    0.0047 5972.1694   67.0379 13981.9229    0.0047   25.7562   25.3959   25.7562    1.0000    0.5741 2175.0000   33.9437    0.3702 
1956.3000    0.0043 6027.3726   67.3249 14005.6475    0.0043   25.8270   25.4924   25.8270    1.0000    0.5783 2169.0000   32.3004    0.4935 
1956.4000    0.0041 6187.4883   67.5809 14302.0566    0.0041   25.8915   25.5783   25.8915    1.0000    0.5821 2179.0000   29.7125    0.5754 
1956.5000    0.0064 6255.0098   65.7774 14345.4063    0.0064   25.4642   24.9711   25.4642    1.0000    0.5555 2176.0000   29.3287    0.4408 
1956.6000    0.0109 6345.7886   63.4738 14392.2002    0.0109   25.0282   24.1886   25.0282    1.0000    0.5217 2162.0000   29.2706    0.1925 
1956.7000    0.0159 6509.2075   61.6784 14407.2461    0.0159   24.7946   23.5721   24.7946    1.0000    0.4953 2179.0000   28.7930   -0.7924 
1956.8000    0.0206 6883.6055   60.3126 14844.9756    0.0206   24.6871   23.0988   24.6871    0.9769    0.4752 2172.0000   27.5707   -1.7954 
1956.9000    0.0499 7150.8340   59.9378 15205.0371    0.0499   24.7657   20.9273   24.7657    0.9376    0.3845 2183.0000   24.8899   -2.5627 
1957.0000    0.0514 7377.6270   59.0177 15744.5381    0.0581   24.1408   20.1850   24.6572    0.8850    0.3532 2170.0000   24.1408   -3.8212 
1957.1000    0.0507 7825.3301   55.0654 16649.3711    0.0631   22.8477   18.9451   23.8026    0.8312    0.2991 2181.0000   22.8477   -4.8641 
1957.2000    0.0500 7955.3633   53.5364 16852.0977    0.0679   21.5818   17.7319   22.9565    0.7908    0.2461 2174.0000   21.5818   -5.6325 
1957.3000    0.0499 8042.3501   53.2395 16835.6133    0.0683   21.4644   17.6194   22.8780    0.7753    0.2412 2180.0000   21.4644   -6.8896 
1957.4000    0.0506 8067.4126   53.9411 16510.5215    0.0634   22.7528   18.8542   23.7392    0.7854    0.2951 2185.0000   22.7528   -7.9100 
1957.5000    0.0507 7951.7905   54.0627 16175.6133    0.0628   22.9112   19.0060   23.8450    0.8381    0.3017 2177.0000   22.9112   -8.6578 
1957.6000    0.0511 7849.2632   54.4879 16025.8320    0.0599   23.6981   19.7601   24.3710    0.8918    0.3346 2176.0000   23.6981   -9.9482 
1957.7000    0.0417 7781.2578   55.7773 15961.6992    0.0417   24.7113   21.5036   24.7113    0.9094    0.4085 2194.0000   25.9119  -11.0333 
1957.8000    0.0513 7866.6836   55.4211 15982.8779    0.0513   24.7686   20.8217   24.7686    0.9025    0.3801 2193.0000   24.7845  -11.8602 
1957.9000    0.0514 7975.5137   54.3077 16154.1436    0.0580   24.1537   20.1975   24.6630    0.8784    0.3537 2177.0000   24.1537  -12.6759 
1958.0000    0.0504 8306.1777   52.3351 16938.4395    0.0652   22.2825   18.4035   23.4248    0.8160    0.2754 2184.0000   22.2825  -13.4857 
1958.1000    0.0500 8527.8486   51.8754 17275.9512    0.0681   21.5115   17.6646   22.9095    0.7482    0.2432 2176.0000   21.5115  -14.8144 
1958.2000    0.0494 8789.0615   51.2161 17630.6465    0.0718   20.5291   16.7231   22.2528    0.6996    0.2021 2177.0000   20.5291  -15.9089 
1958.3000    0.0491 8965.2236   50.0410 18048.9902    0.0743   19.8821   16.1030   21.8204    0.6732    0.1750 2167.0000   19.8821  -16.7575 
1958.4000    0.0488 9126.6953   46.5211 18327.8594    0.0760   19.4215   15.6616   21.5125    0.6570    0.1557 2176.0000   19.4215  -17.8054 
1958.5000    0.0488 9086.7139   44.7657 18192.2324    0.0762   19.3665   15.6089   21.4757    0.6549    0.1534 2180.0000   19.3665  -18.5960 
1958.6000    0.0490 9002.1074   43.7308 18024.2441    0.0750   19.6717   15.9014   21.6797    0.6619    0.1662 2164.0000   19.6717  -19.2158 
1958.7000    0.0493 8778.6709   45.5161 17363.8359    0.0727   20.2873   16.4913   22.0912    0.6794    0.1919 2178.0000   20.2873  -19.5496 
1958.8000    0.0495 8722.2988   47.9076 17211.4395    0.0712   20.6996   16.8865   22.3668    0.6859    0.2092 2179.0000   20.6996  -19.7601 
1958.9000    0.0499 8820.5264   50.3087 17210.3418    0.0684   21.4443   17.6002   22.8645    0.6838    0.2403 2164.0000   21.4443  -19.9760 
1959.0000    0.0492 9110.2900   52.7241 17628.2734    0.0732   20.1739   16.3826   22.0154    0.6741    0.1872 2183.0000   20.1739  -20.9445 
1959.1000    0.0488 9295.3330   52.7490 17976.4219    0.0760   19.4068   15.6475   21.5027    0.6552    0.1551 2178.0000   19.4068  -21.7468 
1959.2000    0.0486 9507.5195   52.4457 18215.7773    0.0773   19.0808   15.3351   21.2848    0.6302    0.1415 2151.0000   19.0808  -22.3193 
1959.3000    0.0481 9750.6582   50.2617 18397.3438    0.0800   18.1260   14.4239   20.5839    0.6159    0.1015 2182.0000   18.1260  -23.2844 
1959.4000    0.0483 9742.1377   48.3603 18336.6152    0.0798   18.4122   14.6943   20.8379    0.6093    0.1135 2189.0000   18.4122  -24.0291 
1959.5000    0.0481 9649.8799   46.5463 18159.4395    0.0800   18.1982   14.4919   20.6519    0.6079    0.1045 2169.0000   18.1982  -24.6020 
1959.6000    0.0483 9325.5459   44.4387 17982.8457    0.0793   18.5289   14.8061   20.9159    0.6162    0.1184 2187.0000   18.5289  -25.5275 
1959.7000    0.0485 9134.0313   44.6999 17856.6094    0.0780   18.8880   15.1503   21.1559    0.6286    0.1334 2169.0000   18.8880  -25.8687 
1959.8000    0.0488 8949.9502   45.7931 17698.2891    0.0760   19.4199   15.6600   21.5114    0.6485    0.1556 2185.0000   19.4199  -25.8999 
1959.9000    0.0492 8752.5869   47.1121 17558.7031    0.0737   20.0271   16.2420   21.9173    0.6653    0.1811 2184.0000   20.0271  -25.8520 
1960.0000    0.0496 8605.4111   48.8538 17245.7578    0.0707   20.8202   17.0020   22.4474    0.6823    0.2142 2182.0000   20.8202  -25.7594 
1960.1000    0.0495 8537.1934   49.2556 17185.2148    0.0714   20.6492   16.8382   22.3331    0.6995    0.2071 2175.0000   20.6492  -25.6619 
1960.2000    0.0497 8513.6670   49.4801 17166.7637    0.0702   20.9559   17.1321   22.5381    0.7088    0.2199 2183.0000   20.9559  -24.8938 
1960.3000    0.0499 8420.1582   49.7211 17372.2910    0.0685   21.4108   17.5681   22.8422    0.7143    0.2389 2184.0000   21.4108  -24.1214 
1960.4000    0.0497 8387.5098   50.0051 17448.4766    0.0697   21.0818   17.2527   22.6222    0.7368    0.2252 2181.0000   21.0818  -23.4527 
1960.5000    0.0499 8320.7197   50.2311 17317.5059    0.0685   21.4164   17.5734   22.8459    0.7918    0.2392 2177.0000   21.4164  -22.3846 
1960.6000    0.0507 8030.0029   48.7167 16659.6758    0.0629   22.8927   18.9883   23.8327    0.8461    0.3009 2165.0000   22.8927  -21.5635 
1960.7000    0.0629 7868.8062   47.6257 16270.3740    0.0640   23.5500   18.7057   23.6356    0.9035    0.2886 2177.0000   23.5500  -20.8949 
1960.8000    0.0644 7802.8521   47.3511 15954.1748    0.0644   23.5711   18.6132   23.5711    0.9572    0.2846 2176.0000   23.8278  -20.2327 
1960.9000    0.0627 7777.6260   48.6114 15971.3037    0.0627   23.8672   19.0377   23.8672    0.9586    0.3031 2181.0000   24.1869  -20.1233 
1961.0000    0.0618 7821.6670   49.2160 16258.9414    0.0619   23.9964   19.2414   24.0092    0.9159    0.3120 2180.0000   23.9964  -20.2158 
1961.1000    0.0508 7957.7607   49.1089 16724.6992    0.0625   23.0151   19.1056   23.9145    0.8656    0.3061 2172.0000   23.0151  -20.8461 
1961.2000    0.0503 8249.3350   46.8271 17173.2793    0.0654   22.2194   18.3430   23.3826    0.8128    0.2728 2172.0000   22.2194  -21.6691 
