~VERSION INFORMATION
 VERS.                 2.0:   CWLS LOG ASCII STANDARD - VERSION 2.0
 WRAP.                  NO:   SINGLE LINE PER DEPTH STEP
 CREA.                 09/07/2026 15:32:17
#CREATED USING IP VERSION 4.5.2019.2902 BY RADU VLADUTIU ON 09/07/2026 15:32:17
~WELL INFORMATION
#MNEM.UNIT       DATA                          DESCRIPTION MNEMONIC
#---------      ---------------------------   --------------------------
 STRT    .M         1340.0000                 : START DEPTH
 STOP    .M         2182.0000                 : STOP DEPTH
 STEP    .M         0.1000                    : STEP VALUE
 NULL    .      -999.0000                     : NULL VALUE
 DATE    .      09/07/2026                    : LAS file Creation Date
 WELL   .      187-Deleni               : Well Name
 COMP   .      S.N.G.N. Romgaz - Medias : Company
 FLD    .      Deleni                   : Field
 STATE  .      Romania                  : State
 UWI    .                               : Unique Well Identifier (UWI)
 LOC    .                               : Location
 EPDAT  .      0.0000                   : Elevation of Permanent Datum
 RWS    .      -999                     : Def_Rw
 WST    .      -999                     : Def_Rwt
 CNTY   .      Sibiu                    : County
 PROV   .                               : Province
 SRVC   .      PROSPECTIUNI             : Contractor
 GDAT   .      WGS 84                   : Geodatum
 LONG   .      0                        : Longitude
 LATI   .      0                        : Latitude
 COORDIN.                               : Grid System
 XCOORD .                               : X or East-West Coordinate
 YCOORD .                               : Y or North-South Coordinate
~CURVE INFORMATION
#MNEM              UNIT       API CODE   Curve Type Comments
#----------  --------------- ----------  ---------- -----------
 DEPTH      .M                         : Depth       
 BVWRAS     .Dec                       : BVWtdt      
 LS         .CPS                       :             Far Average Capture Rates
 GR         .GAPI                      : GammaRay    Gamma Ray
 SS         .CPS                       :             Near Average Capture Rates
 PHIE       .Dec                       : Phi         
 SigRec     .cu                        :             
 SigRecHyd  .cu                        :             
 SigRecWat  .cu                        :             
 SwRAS      .Dec                       : SwTDT       
 VCL        .Dec                       : Vcl         
 CCL        .                          : CollarLoc.  Casing Collar Locator
 SGFC       .CU                        :             Reservoir Sigma
 PS         .MV                        : SP          
~A  DEPTH   BVWRAS      LS        GR        SS       PHIE     SigRec  SigRecHy~ SigRecWa~   SwRAS      VCL       CCL       SGFC       PS    
# ...
1898.6000    0.0512 6523.5117   57.7805 15134.6582    0.0593   23.8657   19.9207   24.4830    0.8906    0.3417 2180.0000   23.8657    0.0965 
1898.7000    0.0508 6729.4253   57.7633 15698.4531    0.0626   22.9864   19.0781   23.8953    0.8467    0.3049 2174.0000   22.9864    0.0663 
1898.8000    0.0504 6936.5322   57.5432 16302.6738    0.0649   22.3691   18.4865   23.4827    0.8095    0.2790 2185.0000   22.3691   -0.0888 
1898.9000    0.0505 6916.5029   55.9491 16142.3301    0.0647   22.4260   18.5410   23.5207    0.8366    0.2814 2176.0000   22.4260   -0.1956 
1899.0000    0.0508 6759.7764   53.7492 15718.4629    0.0624   23.0382   19.1277   23.9299    0.8743    0.3070 2163.0000   23.0382   -0.3293 
1899.1000    0.0536 6346.0703   53.3279 14558.1191    0.0536   24.7636   20.6395   24.7636    0.9189    0.3725 2179.0000   26.0642   -0.4720 
1899.2000    0.0420 6049.5513   55.7182 14078.3369    0.0420   24.7138   21.4826   24.7138    0.9629    0.4076 2167.0000   26.9507   -0.5475 
1899.3000    0.0277 5860.7573   58.6121 13747.1074    0.0277   24.6376   22.5043   24.6376    1.0000    0.4502 2171.0000   28.0313   -0.5855 
1899.4000    0.0092 5598.0625   64.2460 13519.5947    0.0092   25.1586   24.4519   25.1586    1.0000    0.5330 2194.0000   30.6620   -0.5411 
1899.5000    0.0055 5508.9209   66.3812 13658.7471    0.0055   25.6000   25.1748   25.6000    1.0000    0.5644 2198.0000   31.0257   -0.4730 
1899.6000    0.0042 5596.3296   67.4970 13734.8730    0.0042   25.8702   25.5502   25.8702    1.0000    0.5808 2173.0000   31.2080   -0.3507 
1899.7000    0.0039 5689.6040   67.7727 13908.8809    0.0039   25.9405   25.6427   25.9405    1.0000    0.5849 2173.0000   31.3293   -0.1154 
1899.8000    0.0037 6149.2886   67.9466 14536.2451    0.0037   25.9855   25.7010   25.9855    1.0000    0.5875 2185.0000   30.4815    0.1264 
1899.9000    0.0037 6372.9756   67.9707 14964.5195    0.0037   25.9918   25.7091   25.9918    1.0000    0.5878 2177.0000   29.7854    0.4385 
1900.0000    0.0083 6606.6880   67.4303 15158.8291    0.0083   25.2415   24.6035   25.2415    1.0000    0.5396 2160.0000   28.5962    0.7842 
1900.1000    0.0156 6834.4722   64.0252 14786.4258    0.0156   24.8031   23.6005   24.8031    1.0000    0.4965 2180.0000   27.5658    0.8588 
1900.2000    0.0165 6747.5889   61.4883 14142.2275    0.0165   24.7760   23.5065   24.7760    1.0000    0.4925 2168.0000   27.9138    0.9169 
1900.3000    0.0266 6644.5176   58.8704 13466.1807    0.0266   24.6395   22.5950   24.6395    1.0000    0.4540 2175.0000   27.8546    0.8978 
1900.4000    0.0507 6261.5537   53.9591 12522.6377    0.0507   24.7679   20.8611   24.7679    1.0000    0.3818 2176.0000   28.4843    0.7854 
1900.5000    0.0581 6075.7427   52.0258 12496.7070    0.0581   24.6588   20.1885   24.6588    1.0000    0.3533 2184.0000   27.9912    0.6796 
1900.6000    0.0597 5863.4624   50.8758 12703.6592    0.0597   24.3991   19.8004   24.3991    1.0000    0.3364 2173.0000   29.4215    0.5908 
1900.7000    0.0599 5543.6489   50.7241 12903.6729    0.0599   24.3635   19.7493   24.3635    1.0000    0.3342 2162.0000   31.9234    0.4512 
1900.8000    0.0594 5473.3545   51.1097 12773.4189    0.0594   24.4541   19.8792   24.4541    1.0000    0.3398 2167.0000   33.3587    0.2082 
1900.9000    0.0590 5409.3140   51.4591 12508.9609    0.0590   24.5362   19.9969   24.5362    1.0000    0.3450 2197.0000   34.2070    0.0660 
1901.0000    0.0550 5355.1436   52.9857 12298.2314    0.0550   24.7514   20.5200   24.7514    1.0000    0.3674 2175.0000   34.1693   -0.1148 
1901.1000    0.0457 5348.2324   54.9796 12522.1289    0.0457   24.7432   21.2212   24.7432    1.0000    0.3968 2175.0000   33.5632   -0.3691 
1901.2000    0.0323 5405.6118   57.6356 12917.0557    0.0323   24.6465   22.1606   24.6465    1.0000    0.4358 2197.0000   32.0911   -0.4930 
1901.3000    0.0216 5445.9429   60.0659 13386.8096    0.0216   24.6743   23.0130   24.6743    1.0000    0.4716 2175.0000   31.4635   -0.6055 
1901.4000    0.0182 5536.7109   60.9751 13990.8545    0.0182   24.7315   23.3289   24.7315    1.0000    0.4849 2168.0000   30.0415   -0.6631 
1901.5000    0.0242 5549.8784   59.4059 14006.8965    0.0242   24.6496   22.7825   24.6496    1.0000    0.4619 2187.0000   29.8898   -0.6627 
1901.6000    0.0328 5500.7275   57.5211 13764.9893    0.0328   24.6491   22.1202   24.6491    1.0000    0.4341 2159.0000   30.2081   -0.6468 
1901.7000    0.0392 5295.9243   56.2619 13226.2490    0.0392   24.6911   21.6751   24.6911    1.0000    0.4156 2173.0000   30.9298   -0.5727 
1901.8000    0.0317 5164.8926   57.7559 13057.6563    0.0317   24.6442   22.2030   24.6442    1.0000    0.4376 2170.0000   32.1079   -0.4903 
1901.9000    0.0203 5043.4136   60.4046 12867.3428    0.0203   24.6924   23.1308   24.6924    1.0000    0.4765 2178.0000   33.5133   -0.4123 
1902.0000    0.0052 4877.2559   66.6139 12848.7041    0.0052   25.6543   25.2532   25.6543    1.0000    0.5679 2165.0000   34.2253   -0.3072 
1902.1000    0.0024 4856.1016   69.4965 12797.4365    0.0024   26.4062   26.2195   26.4062    1.0000    0.6102 2177.0000   34.5852   -0.0119 
1902.2000    0.0012 4853.7461   71.8623 12857.7988    0.0012   27.1016   27.0078   27.1016    1.0000    0.6450 2171.0000   34.0035    0.3598 
1902.3000    0.0005 4934.5313   74.5631 12911.5596    0.0005   27.9447   27.9046   27.9447    1.0000    0.6848 2181.0000   33.4970    1.0121 
1902.4000    0.0004 4957.1133   75.4515 12942.2607    0.0004   28.2290   28.1991   28.2290    1.0000    0.6978 2169.0000   33.6401    1.3496 
1902.5000    0.0003 5022.2437   75.7827 12937.2676    0.0003   28.3356   28.3089   28.3356    1.0000    0.7027 2175.0000   32.5122    1.7315 
1902.6000    0.0007 5077.4443   73.5239 12961.3799    0.0007   27.6159   27.5598   27.6159    1.0000    0.6695 2175.0000   33.2740    2.2658 
1902.7000    0.0012 5080.6548   71.9398 12905.3398    0.0012   27.1252   27.0335   27.1252    1.0000    0.6462 2177.0000   33.0099    2.3987 
1902.8000    0.0016 5065.6729   70.8962 12905.5361    0.0016   26.8114   26.6863   26.8114    1.0000    0.6308 2173.0000   32.4091    2.5263 
1902.9000    0.0019 5029.0054   70.3363 12915.2559    0.0019   26.6469   26.4997   26.6469    1.0000    0.6226 2175.0000   32.3553    2.6095 
1903.0000    0.0023 4990.9277   69.7579 12912.5918    0.0023   26.4803   26.3068   26.4803    1.0000    0.6141 2175.0000   33.9062    2.6075 
1903.1000    0.0019 4975.2197   70.3977 12874.3691    0.0019   26.6648   26.5202   26.6648    1.0000    0.6235 2171.0000   33.9379    2.5979 
1903.2000    0.0013 4967.4185   71.7725 12926.0400    0.0013   27.0744   26.9779   27.0744    1.0000    0.6437 2161.0000   34.3044    2.5382 
1903.3000    0.0007 5010.6909   73.4835 12860.3418    0.0007   27.6032   27.5464   27.6032    1.0000    0.6689 2167.0000   34.8160    2.4922 
1903.4000    0.0007 5016.3281   73.5135 12858.9404    0.0007   27.6126   27.5563   27.6126    1.0000    0.6693 2174.0000   34.6733    2.4339 
1903.5000    0.0007 5045.2422   73.5071 12842.1963    0.0007   27.6106   27.5542   27.6106    1.0000    0.6692 2164.0000   34.8754    2.2919 
1903.6000    0.0007 5084.5322   73.7792 12627.3486    0.0007   27.6962   27.6445   27.6962    1.0000    0.6732 2180.0000   34.6379    2.2856 
1903.7000    0.0006 5049.6597   74.1062 12540.5566    0.0006   27.7996   27.7530   27.7996    1.0000    0.6780 2185.0000   34.3907    2.2833 
1903.8000    0.0006 5026.8022   73.9398 12362.7393    0.0006   27.7469   27.6978   27.7469    1.0000    0.6756 2174.0000   34.6122    2.3203 
1903.9000    0.0018 5011.7983   70.5786 12501.6689    0.0018   26.7177   26.5805   26.7177    1.0000    0.6262 2172.0000   33.8625    2.3689 
1904.0000    0.0023 5086.9507   69.6097 12729.6836    0.0023   26.4382   26.2573   26.4382    1.0000    0.6119 2295.0000   33.6426    2.5406 
1904.1000    0.0019 5131.1226   70.4485 13006.9912    0.0019   26.6796   26.5371   26.6796    1.0000    0.6242 2413.0000   33.6385    2.6309 
1904.2000    0.0006 5231.7935   74.1216 13666.4209    0.0006   27.8044   27.7581   27.8044    1.0000    0.6783 2180.0000   32.2641    2.7341 
