~VERSION INFORMATION
 VERS.                 2.0:   CWLS LOG ASCII STANDARD - VERSION 2.0
 WRAP.                  NO:   SINGLE LINE PER DEPTH STEP
 CREA.                 09/07/2026 15:32:17
#CREATED USING IP VERSION 4.5.2019.2902 BY RADU VLADUTIU ON 09/07/2026 15:32:17
~WELL INFORMATION
#MNEM.UNIT       DATA                          DESCRIPTION MNEMONIC
#---------      ---------------------------   --------------------------
 STRT    .M         1340.0000                 : START DEPTH
 STOP    .M         2182.0000                 : STOP DEPTH
 STEP    .M         0.1000                    : STEP VALUE
 NULL    .      -999.0000                     : NULL VALUE
 DATE    .      09/07/2026                    : LAS file Creation Date
 WELL   .      187-Deleni               : Well Name
 COMP   .      S.N.G.N. Romgaz - Medias : Company
 FLD    .      Deleni                   : Field
 STATE  .      Romania                  : State
 UWI    .                               : Unique Well Identifier (UWI)
 LOC    .                               : Location
 EPDAT  .      0.0000                   : Elevation of Permanent Datum
 RWS    .      -999                     : Def_Rw
 WST    .      -999                     : Def_Rwt
 CNTY   .      Sibiu                    : County
 PROV   .                               : Province
 SRVC   .      PROSPECTIUNI             : Contractor
 GDAT   .      WGS 84                   : Geodatum
 LONG   .      0                        : Longitude
 LATI   .      0                        : Latitude
 COORDIN.                               : Grid System
 XCOORD .                               : X or East-West Coordinate
 YCOORD .                               : Y or North-South Coordinate
~CURVE INFORMATION
#MNEM              UNIT       API CODE   Curve Type Comments
#----------  --------------- ----------  ---------- -----------
 DEPTH      .M                         : Depth       
 BVWRAS     .Dec                       : BVWtdt      
 LS         .CPS                       :             Far Average Capture Rates
 GR         .GAPI                      : GammaRay    Gamma Ray
 SS         .CPS                       :             Near Average Capture Rates
 PHIE       .Dec                       : Phi         
 SigRec     .cu                        :             
 SigRecHyd  .cu                        :             
 SigRecWat  .cu                        :             
 SwRAS      .Dec                       : SwTDT       
 VCL        .Dec                       : Vcl         
 CCL        .                          : CollarLoc.  Casing Collar Locator
 SGFC       .CU                        :             Reservoir Sigma
 PS         .MV                        : SP          
~A  DEPTH   BVWRAS      LS        GR        SS       PHIE     SigRec  SigRecHy~ SigRecWa~   SwRAS      VCL       CCL       SGFC       PS    
# ...
1619.3000    0.0389 6681.1929   51.5145 15007.3740    0.0389   18.9353   17.4170   18.9353    1.0000    0.4330 2185.0000   26.5757   -8.4599 
1619.4000    0.0303 6547.2007   52.4405 14635.8096    0.0303   18.9605   17.7784   18.9605    1.0000    0.4508 2174.0000   26.8746   -7.6379 
1619.5000    0.0144 6447.8965   54.9160 14412.7734    0.0144   19.2818   18.7195   19.2818    1.0000    0.4984 2173.0000   27.1226   -7.1062 
1619.6000    0.0021 6192.0298   60.2453 14075.7285    0.0021   20.7499   20.6689   20.7499    1.0000    0.6009 2180.0000   28.3633   -6.7530 
1619.7000    0.0015 6104.7646   61.0850 13935.3193    0.0015   21.0287   20.9714   21.0287    1.0000    0.6170 2167.0000   28.8648   -6.2569 
1619.8000    0.0009 6018.4971   62.2432 13822.2227    0.0009   21.4227   21.3877   21.4227    1.0000    0.6393 2222.0000   29.9353   -5.8796 
1619.9000    0.0001 5971.7642   68.9187 13783.9424    0.0001   23.1499   23.1460   23.1499    1.0000    0.7337 2176.0000   29.7067   -5.5753 
1620.0000    0.0002 5953.7681   70.1768 13860.0273    0.0002   22.8674   22.8590   22.8674    1.0000    0.7183 2167.0000   29.4062   -5.2234 
1620.1000    0.0003 5959.7002   67.3270 13851.3916    0.0003   22.6845   22.6740   22.6845    1.0000    0.7083 2150.0000   29.2124   -5.1518 
1620.2000    0.0014 5967.3589   61.8714 13934.4795    0.0014   21.3078   21.2529   21.3078    1.0000    0.6321 2169.0000   28.7906   -5.2035 
1620.3000    0.0164 5950.5361   54.1682 14037.1816    0.0164   19.0842   18.4451   19.0842    1.0000    0.4840 2184.0000   28.0501   -5.5049 
1620.4000    0.0177 5935.1553   53.8628 13944.0693    0.0177   19.0205   18.3314   19.0205    1.0000    0.4781 2147.0000   28.0427   -5.7795 
1620.5000    0.0124 5930.6943   55.2323 13835.0205    0.0124   19.3244   18.8396   19.3244    1.0000    0.5045 2153.0000   28.4429   -6.0009 
1620.6000    0.0021 6019.6260   60.8057 13715.4531    0.0021   20.9511   20.8693   20.9511    1.0000    0.6116 2171.0000   28.2689   -6.2062 
1620.7000    0.0007 6006.6865   63.6336 13734.2197    0.0007   21.9129   21.8857   21.9129    1.0000    0.6660 2208.0000   29.3037   -6.4851 
1620.8000    0.0003 6038.1816   65.2672 13779.8848    0.0003   22.4848   22.4713   22.4848    1.0000    0.6974 2212.0000   29.3706   -6.7969 
1620.9000    0.0009 6078.1514   62.8965 13925.4912    0.0009   21.6579   21.6212   21.6579    1.0000    0.6519 2170.0000   28.3896   -6.9511 
1621.0000    0.0034 6077.1602   59.4348 13939.5352    0.0034   20.5075   20.3743   20.5075    1.0000    0.5853 2164.0000   28.3301   -7.0446 
1621.1000    0.0101 6052.4761   55.9807 13890.6621    0.0101   19.5095   19.1154   19.5095    1.0000    0.5189 2201.0000   28.7947   -7.1397 
1621.2000    0.0208 5904.6758   53.1758 13704.9600    0.0208   18.8853   18.0748   18.8853    1.0000    0.4649 2211.0000   29.1203   -6.8349 
1621.3000    0.0205 5782.3237   53.2410 13522.2607    0.0205   18.8977   18.0992   18.8977    1.0000    0.4662 2184.0000   30.4781   -6.6001 
1621.4000    0.0209 5593.5732   53.1523 13186.6885    0.0209   18.8809   18.0660   18.8809    1.0000    0.4645 2164.0000   30.3022   -6.4605 
1621.5000    0.0193 5310.0151   53.5009 12589.7949    0.0193   18.9478   18.1963   18.9478    1.0000    0.4712 2136.0000   30.9525   -6.3544 
1621.6000    0.0139 5236.3169   54.8014 12434.8857    0.0139   19.2238   18.6802   19.2238    1.0000    0.4962 2191.0000   30.8434   -6.2619 
1621.7000    0.0089 5170.4023   56.4350 12373.7686    0.0089   19.6281   19.2823   19.6281    1.0000    0.5276 2371.0000   31.1984   -6.2269 
1621.8000    0.0057 5130.3896   57.8881 12408.5654    0.0057   20.0352   19.8131   20.0352    1.0000    0.5555 2146.0000   29.5013   -6.2932 
1621.9000    0.0028 5125.8359   60.0265 12966.8232    0.0028   20.6966   20.5882   20.6966    1.0000    0.5967 2179.0000   30.6087   -6.3912 
1622.0000    0.0017 5208.5391   61.3862 13154.8682    0.0017   21.1443   21.0784   21.1443    1.0000    0.6228 2178.0000   30.7156   -6.6950 
1622.1000    0.0008 5268.2139   63.2980 13136.3477    0.0008   21.7965   21.7653   21.7965    1.0000    0.6596 2166.0000   30.6317   -6.8774 
1622.2000    0.0003 5342.3125   65.8128 12901.4434    0.0003   22.6773   22.6667   22.6773    1.0000    0.7079 2185.0000   30.3723   -6.9765 
1622.3000    0.0003 5335.8799   65.3272 12791.4053    0.0003   22.5060   22.4928   22.5060    1.0000    0.6986 2179.0000   31.1370   -7.6342 
1622.4000    0.0005 5300.8140   64.3199 12751.8643    0.0005   22.1522   22.1318   22.1522    1.0000    0.6792 2173.0000   30.9270   -8.0690 
1622.5000    0.0014 5250.8237   61.8596 12572.4717    0.0014   21.3038   21.2487   21.3038    1.0000    0.6319 2172.0000   32.8657   -8.3215 
1622.6000    0.0027 5242.4775   60.1480 12673.3623    0.0027   20.7359   20.6321   20.7359    1.0000    0.5990 2186.0000   32.6776   -8.7283 
1622.7000    0.0047 5252.8931   58.4869 12712.0742    0.0047   20.2139   20.0308   20.2139    1.0000    0.5671 2167.0000   32.5500   -9.0195 
1622.8000    0.0079 5283.4863   56.8315 12753.5986    0.0079   19.7351   19.4275   19.7351    1.0000    0.5352 2176.0000   32.9135   -9.2384 
1622.9000    0.0085 5299.0737   56.5607 12811.9980    0.0085   19.6616   19.3283   19.6616    1.0000    0.5300 2176.0000   32.8931   -9.4259 
1623.0000    0.0089 5287.3994   56.4371 12900.3340    0.0089   19.6286   19.2830   19.6286    1.0000    0.5276 2169.0000   32.3705   -9.4114 
1623.1000    0.0048 5299.6958   58.3888 12896.8691    0.0048   20.1842   19.9952   20.1842    1.0000    0.5652 2178.0000   32.5407   -9.3204 
1623.2000    0.0020 5313.1167   60.9168 12906.5283    0.0020   20.9879   20.9093   20.9879    1.0000    0.6138 2177.0000   32.4444   -9.1591 
1623.3000    0.0007 5323.5635   63.5468 12832.3047    0.0007   21.8828   21.8546   21.8828    1.0000    0.6644 2184.0000   32.1724   -8.9315 
1623.4000    0.0004 5351.8872   65.0557 12822.2383    0.0004   22.4104   22.3955   22.4104    1.0000    0.6934 2173.0000   32.0540   -8.6884 
1623.5000    0.0006 5371.7964   64.1945 12761.8359    0.0006   22.1084   22.0869   22.1084    1.0000    0.6768 2168.0000   31.2247   -8.3142 
1623.6000    0.0007 5425.1802   63.6448 12689.8057    0.0007   21.9168   21.8897   21.9168    1.0000    0.6662 2198.0000   30.9194   -8.0324 
1623.7000    0.0008 5525.0371   63.3018 12659.3408    0.0008   21.7979   21.7667   21.7979    1.0000    0.6596 2171.0000   30.4752   -7.8092 
1623.8000    0.0017 5592.6997   61.3878 12749.5576    0.0017   21.1449   21.0789   21.1449    1.0000    0.6228 2181.0000   29.2209   -7.4413 
1623.9000    0.0020 5600.7646   60.8875 12868.1074    0.0020   20.9782   20.8988   20.9782    1.0000    0.6132 2178.0000   29.2911   -7.1464 
1624.0000    0.0017 5619.5352   61.2970 12969.1016    0.0017   21.1145   21.0463   21.1145    1.0000    0.6211 2186.0000   29.1972   -6.9045 
1624.1000    0.0014 5673.2729   61.9377 13148.9297    0.0014   21.3302   21.2768   21.3302    1.0000    0.6334 2188.0000   29.1096   -6.6951 
1624.2000    0.0018 5665.4209   61.2052 13124.7139    0.0018   21.0838   21.0132   21.0838    1.0000    0.6193 2165.0000   29.4448   -6.7254 
1624.3000    0.0030 5578.0269   59.8416 12930.0918    0.0030   20.6371   20.5214   20.6371    1.0000    0.5931 2170.0000   30.7448   -6.8467 
1624.4000    0.0079 5518.1875   56.8300 12700.1465    0.0079   19.7347   19.4270   19.7347    1.0000    0.5352 2186.0000   31.0457   -7.0166 
1624.5000    0.0076 5478.0327   56.9749 12669.6914    0.0076   19.7746   19.4800   19.7746    1.0000    0.5380 2172.0000   29.5796   -7.1445 
1624.6000    0.0037 5432.6636   59.2178 12700.1973    0.0037   20.4392   20.2958   20.4392    1.0000    0.5811 2188.0000   29.3297   -7.2479 
1624.7000    0.0002 5399.5532   66.9099 12843.9521    0.0002   23.0659   23.0595   23.0659    1.0000    0.7290 2171.0000   30.3206   -7.3499 
1624.8000    0.0002 5388.5986   69.0397 12810.3301    0.0002   22.9599   22.9525   22.9599    1.0000    0.7233 2170.0000   29.5041   -7.4515 
1624.9000    0.0004 5438.6543   68.8308 12829.5273    0.0004   22.3634   22.3477   22.3634    1.0000    0.6908 2181.0000   28.8708   -7.6283 
