~VERSION INFORMATION
 VERS.                 2.0:   CWLS LOG ASCII STANDARD - VERSION 2.0
 WRAP.                  NO:   SINGLE LINE PER DEPTH STEP
 CREA.                 09/07/2026 15:32:17
#CREATED USING IP VERSION 4.5.2019.2902 BY RADU VLADUTIU ON 09/07/2026 15:32:17
~WELL INFORMATION
#MNEM.UNIT       DATA                          DESCRIPTION MNEMONIC
#---------      ---------------------------   --------------------------
 STRT    .M         1340.0000                 : START DEPTH
 STOP    .M         2182.0000                 : STOP DEPTH
 STEP    .M         0.1000                    : STEP VALUE
 NULL    .      -999.0000                     : NULL VALUE
 DATE    .      09/07/2026                    : LAS file Creation Date
 WELL   .      187-Deleni               : Well Name
 COMP   .      S.N.G.N. Romgaz - Medias : Company
 FLD    .      Deleni                   : Field
 STATE  .      Romania                  : State
 UWI    .                               : Unique Well Identifier (UWI)
 LOC    .                               : Location
 EPDAT  .      0.0000                   : Elevation of Permanent Datum
 RWS    .      -999                     : Def_Rw
 WST    .      -999                     : Def_Rwt
 CNTY   .      Sibiu                    : County
 PROV   .                               : Province
 SRVC   .      PROSPECTIUNI             : Contractor
 GDAT   .      WGS 84                   : Geodatum
 LONG   .      0                        : Longitude
 LATI   .      0                        : Latitude
 COORDIN.                               : Grid System
 XCOORD .                               : X or East-West Coordinate
 YCOORD .                               : Y or North-South Coordinate
~CURVE INFORMATION
#MNEM              UNIT       API CODE   Curve Type Comments
#----------  --------------- ----------  ---------- -----------
 DEPTH      .M                         : Depth       
 BVWRAS     .Dec                       : BVWtdt      
 LS         .CPS                       :             Far Average Capture Rates
 GR         .GAPI                      : GammaRay    Gamma Ray
 SS         .CPS                       :             Near Average Capture Rates
 PHIE       .Dec                       : Phi         
 SigRec     .cu                        :             
 SigRecHyd  .cu                        :             
 SigRecWat  .cu                        :             
 SwRAS      .Dec                       : SwTDT       
 VCL        .Dec                       : Vcl         
 CCL        .                          : CollarLoc.  Casing Collar Locator
 SGFC       .CU                        :             Reservoir Sigma
 PS         .MV                        : SP          
~A  DEPTH   BVWRAS      LS        GR        SS       PHIE     SigRec  SigRecHy~ SigRecWa~   SwRAS      VCL       CCL       SGFC       PS    
# ...
1505.3000    0.0042 6174.6680   59.2523 14576.0127    0.0042   22.6596   22.4944   22.6596    1.0000    0.5834 2192.0000   29.3695   -0.9295 
1505.4000    0.0043 6290.4834   59.2129 14666.5488    0.0043   22.6462   22.4788   22.6462    1.0000    0.5827 2157.0000   28.2543   -2.1540 
1505.5000    0.0039 6354.7056   59.4834 14805.6533    0.0039   22.7386   22.5859   22.7386    1.0000    0.5874 2206.0000   27.7741   -2.9314 
1505.6000    0.0051 6416.3086   58.7115 14933.4863    0.0051   22.4778   22.2799   22.4778    1.0000    0.5739 2192.0000   26.9897   -3.6040 
1505.7000    0.0089 6409.8003   56.9516 14858.2578    0.0089   21.9252   21.5780   21.9252    1.0000    0.5430 2175.0000   26.8993   -4.7912 
1505.8000    0.0146 6381.6587   55.2698 14804.7314    0.0146   21.4709   20.8999   21.4709    1.0000    0.5135 2165.0000   26.4782   -5.5660 
1505.9000    0.0158 6323.0684   54.9973 14503.6943    0.0158   21.4058   20.7892   21.4058    1.0000    0.5087 2169.0000   26.8047   -6.2414 
1506.0000    0.0047 6030.1724   58.9615 13851.4004    0.0047   22.5613   22.3791   22.5613    1.0000    0.5783 2155.0000   29.5949   -6.2814 
1506.1000    0.0020 5913.1797   61.3987 13701.3076    0.0020   23.4195   23.3420   23.4195    1.0000    0.6210 2157.0000   29.9091   -6.2219 
1506.2000    0.0010 5848.6533   63.3056 13610.6270    0.0010   24.1293   24.0916   24.1293    1.0000    0.6545 2153.0000   30.3694   -6.1674 
1506.3000    0.0007 5783.5435   64.2500 13671.7686    0.0007   24.4880   24.4622   24.4880    1.0000    0.6711 2176.0000   29.7773   -6.0091 
1506.4000    0.0012 5815.6470   62.7140 13771.6348    0.0012   23.9066   23.8593   23.9066    1.0000    0.6441 2142.0000   29.3788   -5.9335 
1506.5000    0.0031 5848.5591   60.1673 13903.4111    0.0031   22.9769   22.8564   22.9769    1.0000    0.5994 2188.0000   28.5725   -5.8790 
1506.6000    0.0126 6017.6294   55.7819 13998.9697    0.0126   21.6001   21.1073   21.6001    1.0000    0.5225 2156.0000   28.3830   -5.8187 
1506.7000    0.0137 6064.2534   55.5049 13998.4307    0.0137   21.5291   20.9952   21.5291    1.0000    0.5176 2213.0000   28.4886   -6.3095 
1506.8000    0.0100 6064.2241   56.5783 13991.2275    0.0100   21.8172   21.4282   21.8172    1.0000    0.5365 2178.0000   28.7758   -6.9150 
1506.9000    0.0041 6115.2378   59.3687 14031.4834    0.0041   22.6993   22.5405   22.6993    1.0000    0.5854 2202.0000   29.5190   -7.9863 
1507.0000    0.0032 6104.7754   60.0997 14092.8770    0.0032   22.9531   22.8297   22.9531    1.0000    0.5982 2198.0000   29.3367   -8.7406 
1507.1000    0.0024 6125.8472   60.8907 14130.0107    0.0024   23.2351   23.1419   23.2351    1.0000    0.6121 2184.0000   29.4435   -9.4070 
1507.2000    0.0008 6252.6348   63.6348 14395.9736    0.0008   24.2539   24.2208   24.2539    1.0000    0.6603 2225.0000   29.4597   -9.8191 
1507.3000    0.0006 6344.3330   64.8045 14574.2520    0.0006   24.5483   24.5240   24.5483    1.0000    0.6738 2142.0000   28.6112  -10.1765 
1507.4000    0.0033 6422.3838   64.6391 14668.7236    0.0033   22.9204   22.7929   22.9204    1.0000    0.5966 2175.0000   27.0515  -10.2482 
1507.5000    0.0013 6427.5405   62.5586 14764.0039    0.0013   23.8485   23.7982   23.8485    1.0000    0.6414 2149.0000   28.2409  -10.0557 
1507.6000    0.0124 6473.5039   55.8418 14885.0654    0.0124   21.6158   21.1315   21.6158    1.0000    0.5235 2170.0000   26.4637   -9.8189 
1507.7000    0.0210 6452.3486   53.9563 14779.7344    0.0210   21.1827   20.3638   21.1827    1.0000    0.4905 2172.0000   27.4643   -8.5958 
1507.8000    0.0228 6405.2480   53.6470 14647.5654    0.0228   21.1248   20.2366   21.1248    1.0000    0.4850 2186.0000   27.4347   -7.7550 
1507.9000    0.0150 6161.1631   55.1916 14466.3838    0.0150   21.4520   20.8682   21.4520    1.0000    0.5121 2162.0000   29.0205   -7.0491 
1508.0000    0.0109 6069.5088   56.2877 14342.7324    0.0109   21.7358   21.3113   21.7358    1.0000    0.5314 2187.0000   29.6240   -5.7564 
1508.1000    0.0084 6056.5542   57.1484 14294.0020    0.0084   21.9836   21.6568   21.9836    1.0000    0.5465 2163.0000   29.8586   -4.9089 
1508.2000    0.0082 5909.5225   57.2317 14321.8037    0.0082   22.0086   21.6901   22.0086    1.0000    0.5479 2177.0000   30.4383   -4.1936 
1508.3000    0.0084 5875.9136   57.1330 14261.1904    0.0084   21.9790   21.6506   21.9790    1.0000    0.5462 2180.0000   30.0826   -2.9588 
1508.4000    0.0079 5817.0068   57.3248 14016.4912    0.0079   22.0367   21.7274   22.0367    1.0000    0.5496 2168.0000   30.0440   -2.0481 
1508.5000    0.0044 5754.4937   59.1141 13604.3301    0.0044   22.6127   22.4396   22.6127    1.0000    0.5809 2170.0000   29.2792   -1.2410 
1508.6000    0.0028 5709.0879   60.4634 13317.6406    0.0028   23.0819   22.9733   23.0819    1.0000    0.6046 2166.0000   29.8476   -1.0575 
1508.7000    0.0026 5638.8408   60.6166 13152.8584    0.0026   23.1366   23.0338   23.1366    1.0000    0.6073 2183.0000   29.6675   -1.0481 
1508.8000    0.0159 5679.0254   54.9816 13194.7705    0.0159   21.4022   20.7828   21.4022    1.0000    0.5084 2170.0000   29.5614   -1.0451 
1508.9000    0.0359 5712.6089   51.8044 13336.9482    0.0359   20.8688   19.4699   20.8688    1.0000    0.4527 1986.0000   29.4739   -1.8485 
1509.0000    0.0465 5738.6504   50.6382 13537.2236    0.0465   20.7902   18.9764   20.7902    1.0000    0.4322 2171.0000   29.1704   -2.3459 
1509.1000    0.0361 5782.2935   51.7778 13754.5762    0.0361   20.8662   19.4587   20.8662    1.0000    0.4522 2184.0000   29.9830   -2.7219 
1509.2000    0.0068 5915.7036   57.8114 13913.3076    0.0068   22.1869   21.9217   22.1869    1.0000    0.5581 2200.0000   29.8477   -3.5043 
1509.3000    0.0026 5991.9814   60.6397 13904.6152    0.0026   23.1449   23.0429   23.1449    1.0000    0.6077 2180.0000   30.1614   -3.9961 
1509.4000    0.0016 6001.1851   61.9618 13935.0781    0.0016   23.6266   23.5636   23.6266    1.0000    0.6309 2194.0000   29.2763   -4.3912 
1509.5000    0.0042 6082.0054   59.3081 14096.7900    0.0042   22.6786   22.5165   22.6786    1.0000    0.5844 2213.0000   27.4589   -5.1331 
1509.6000    0.0086 6131.7261   57.0800 14156.4277    0.0086   21.9632   21.6294   21.9632    1.0000    0.5453 2185.0000   27.4646   -5.3564 
1509.7000    0.0129 6151.4004   55.7023 14235.4160    0.0129   21.5794   21.0751   21.5794    1.0000    0.5211 2174.0000   26.8707   -5.4269 
1509.8000    0.0105 6254.6421   56.4208 14530.2051    0.0105   21.7728   21.3649   21.7728    1.0000    0.5337 2205.0000   26.5106   -4.9144 
1509.9000    0.0077 6282.2979   57.4307 14605.6201    0.0077   22.0689   21.7697   22.0689    1.0000    0.5514 2188.0000   26.1656   -4.3384 
1510.0000    0.0116 6310.6362   57.7216 14643.6914    0.0116   21.6738   21.2196   21.6738    1.0000    0.5274 2188.0000   25.6529   -3.7844 
1510.1000    0.0141 6249.2002   55.3915 14609.4648    0.0141   21.5008   20.9493   21.5008    1.0000    0.5156 2198.0000   25.6730   -2.8715 
1510.2000    0.0212 6210.6245   53.9252 14516.3184    0.0212   21.1767   20.3510   21.1767    1.0000    0.4899 2186.0000   26.3893   -2.2780 
1510.3000    0.0249 6166.1606   53.2947 14216.7715    0.0249   21.0639   20.0912   21.0639    1.0000    0.4789 2198.0000   26.0892   -1.7925 
1510.4000    0.0104 6007.6357   56.4516 13866.3086    0.0104   21.7815   21.3772   21.7815    1.0000    0.5342 2205.0000   28.8426   -1.2455 
1510.5000    0.0041 5924.7607   59.3275 13768.0625    0.0041   22.6852   22.5242   22.6852    1.0000    0.5847 2208.0000   29.7793   -0.6821 
1510.6000    0.0015 5855.9263   62.2249 13629.2480    0.0015   23.7241   23.6671   23.7241    1.0000    0.6355 2213.0000   30.0586   -0.4426 
1510.7000    0.0004 5854.1860   65.2653 13506.8828    0.0004   24.8772   24.8602   24.8772    1.0000    0.6889 2193.0000   30.4678   -0.3407 
1510.8000    0.0001 5856.2349   70.1033 13695.7520    0.0001   26.0044   25.9996   26.0044    1.0000    0.7399 2199.0000   29.9462   -0.2526 
1510.9000    0.0002 5903.1982   70.2156 13834.1787    0.0002   25.4660   25.4571   25.4660    1.0000    0.7156 2198.0000   29.4551   -0.3390 
