~VERSION INFORMATION
 VERS.                 2.0:   CWLS LOG ASCII STANDARD - VERSION 2.0
 WRAP.                  NO:   SINGLE LINE PER DEPTH STEP
 CREA.                 09/07/2026 15:32:17
#CREATED USING IP VERSION 4.5.2019.2902 BY RADU VLADUTIU ON 09/07/2026 15:32:17
~WELL INFORMATION
#MNEM.UNIT       DATA                          DESCRIPTION MNEMONIC
#---------      ---------------------------   --------------------------
 STRT    .M         1340.0000                 : START DEPTH
 STOP    .M         2182.0000                 : STOP DEPTH
 STEP    .M         0.1000                    : STEP VALUE
 NULL    .      -999.0000                     : NULL VALUE
 DATE    .      09/07/2026                    : LAS file Creation Date
 WELL   .      187-Deleni               : Well Name
 COMP   .      S.N.G.N. Romgaz - Medias : Company
 FLD    .      Deleni                   : Field
 STATE  .      Romania                  : State
 UWI    .                               : Unique Well Identifier (UWI)
 LOC    .                               : Location
 EPDAT  .      0.0000                   : Elevation of Permanent Datum
 RWS    .      -999                     : Def_Rw
 WST    .      -999                     : Def_Rwt
 CNTY   .      Sibiu                    : County
 PROV   .                               : Province
 SRVC   .      PROSPECTIUNI             : Contractor
 GDAT   .      WGS 84                   : Geodatum
 LONG   .      0                        : Longitude
 LATI   .      0                        : Latitude
 COORDIN.                               : Grid System
 XCOORD .                               : X or East-West Coordinate
 YCOORD .                               : Y or North-South Coordinate
~CURVE INFORMATION
#MNEM              UNIT       API CODE   Curve Type Comments
#----------  --------------- ----------  ---------- -----------
 DEPTH      .M                         : Depth       
 BVWRAS     .Dec                       : BVWtdt      
 LS         .CPS                       :             Far Average Capture Rates
 GR         .GAPI                      : GammaRay    Gamma Ray
 SS         .CPS                       :             Near Average Capture Rates
 PHIE       .Dec                       : Phi         
 SigRec     .cu                        :             
 SigRecHyd  .cu                        :             
 SigRecWat  .cu                        :             
 SwRAS      .Dec                       : SwTDT       
 VCL        .Dec                       : Vcl         
 CCL        .                          : CollarLoc.  Casing Collar Locator
 SGFC       .CU                        :             Reservoir Sigma
 PS         .MV                        : SP          
~A  DEPTH   BVWRAS      LS        GR        SS       PHIE     SigRec  SigRecHy~ SigRecWa~   SwRAS      VCL       CCL       SGFC       PS    
# ...
1784.6000    0.0006 5842.5288   76.6185 13809.4648    0.0006   26.9774   26.9294   26.9774    1.0000    0.6713 2184.0000   32.0139    0.5781 
1784.7000    0.0009 5988.4888   75.5922 14077.8926    0.0009   26.6406   26.5723   26.6406    1.0000    0.6547 2185.0000   31.5116    0.4462 
1784.8000    0.0066 6368.6641   72.5299 14749.3174    0.0066   24.7224   24.2109   24.7224    1.0000    0.5461 2170.0000   28.5876    0.3263 
1784.9000    0.0041 6450.6758   70.9227 14946.0234    0.0041   25.1515   24.8337   25.1515    1.0000    0.5745 2155.0000   29.2588    0.3065 
1785.0000    0.0065 6490.3125   68.9209 14984.5850    0.0065   24.7366   24.2335   24.7366    1.0000    0.5471 2167.0000   29.1563    0.4098 
1785.1000    0.0227 6258.2227   63.3566 14557.6270    0.0227   23.9796   22.2312   23.9796    1.0000    0.4574 2178.0000   29.4348    0.5264 
1785.2000    0.0302 6101.9224   61.6973 13974.9209    0.0302   23.9505   21.6218   23.9505    1.0000    0.4306 2177.0000   30.1447    0.9448 
1785.3000    0.0269 5996.3057   62.3981 13425.3701    0.0269   23.9539   21.8797   23.9539    1.0000    0.4419 2177.0000   31.5176    1.2340 
1785.4000    0.0143 5808.9238   65.6346 13056.5537    0.0143   24.1627   23.0588   24.1627    1.0000    0.4941 2184.0000   32.3762    1.5036 
1785.5000    0.0008 5474.5024   75.9989 12753.3760    0.0008   26.7733   26.7139   26.7733    1.0000    0.6613 2141.0000   33.5394    1.5520 
1785.6000    0.0002 5428.7920   79.7164 12719.5400    0.0002   28.0210   28.0056   28.0210    1.0000    0.7212 2168.0000   35.1289    1.7938 
1785.7000    0.0002 5415.3052   80.2071 12664.7861    0.0002   28.1886   28.1759   28.1886    1.0000    0.7291 2182.0000   34.0782    2.0618 
1785.8000    0.0020 5457.3506   73.0333 12504.9141    0.0020   25.8360   25.6798   25.8360    1.0000    0.6134 2154.0000   35.1344    2.1863 
1785.9000    0.0061 5391.4756   69.1599 12344.8359    0.0061   24.7908   24.3182   24.7908    1.0000    0.5510 2167.0000   35.4541    2.0260 
1786.0000    0.0109 5400.3018   66.8575 12331.4463    0.0109   24.3359   23.4984   24.3359    1.0000    0.5138 2188.0000   35.3911    1.8340 
1786.1000    0.0177 5509.3252   64.6229 12565.3320    0.0177   24.0589   22.6926   24.0589    1.0000    0.4778 2164.0000   35.3849    1.4873 
1786.2000    0.0208 5552.1343   63.8321 12716.3311    0.0208   24.0030   22.4048   24.0030    1.0000    0.4650 2186.0000   35.6302    0.7884 
1786.3000    0.0208 5569.9907   63.8118 12993.7314    0.0208   24.0018   22.3974   24.0018    1.0000    0.4647 2180.0000   34.9664    0.0502 
1786.4000    0.0134 5770.4546   65.9575 13260.9629    0.0134   24.2034   23.1752   24.2034    1.0000    0.4993 2182.0000   33.5654   -1.0924 
1786.5000    0.0106 5945.5649   66.9566 13609.5703    0.0106   24.3521   23.5339   24.3521    1.0000    0.5154 2182.0000   32.6412   -1.8932 
1786.6000    0.0093 6068.3584   67.4974 13874.1982    0.0093   24.4464   23.7272   24.4464    1.0000    0.5242 2165.0000   31.7299   -2.6482 
1786.7000    0.0084 6251.3193   67.9507 14443.9287    0.0084   24.5324   23.8888   24.5324    1.0000    0.5315 2188.0000   31.2641   -3.2310 
1786.8000    0.0080 6291.5801   68.1457 14591.8398    0.0080   24.5713   23.9582   24.5713    1.0000    0.5346 2182.0000   31.2133   -3.7936 
1786.9000    0.0079 6359.7251   68.1799 14746.2725    0.0079   24.5783   23.9704   24.5783    1.0000    0.5352 2173.0000   31.2328   -6.1789 
1787.0000    0.0086 6325.2993   67.8364 14571.9453    0.0086   24.5101   23.8481   24.5101    1.0000    0.5296 2180.0000   31.4653   -7.6479 
1787.1000    0.0101 6224.8779   67.1639 14198.3271    0.0101   24.3872   23.6081   24.3872    1.0000    0.5188 2182.0000   31.6124   -8.9853 
1787.2000    0.0083 6237.1191   67.9987 13885.0898    0.0083   24.5419   23.9059   24.5419    1.0000    0.5322 2177.0000   31.4006  -11.4975 
1787.3000    0.0052 6372.3555   69.8127 13938.4834    0.0052   24.9460   24.5489   24.9460    1.0000    0.5615 2189.0000   31.0054  -12.7857 
1787.4000    0.0131 6994.2861   74.0185 15253.5283    0.0131   24.2165   23.2103   24.2165    1.0000    0.5009 2157.0000   27.5210  -13.9158 
1787.5000    0.0423 7524.5317   74.2281 16291.3516    0.0423   23.9806   20.7229   23.9806    0.9590    0.3913 2183.0000   24.9350  -15.2295 
1787.6000    0.0528 8177.2905   72.0871 17655.1172    0.0528   23.6329   19.5654   23.6329    0.9082    0.3397 2170.0000   23.7164  -16.6506 
1787.7000    0.0508 9575.6602   64.5881 20173.2363    0.0639   20.4507   16.5404   21.4604    0.8521    0.2013 2182.0000   20.4507  -18.0817 
1787.8000    0.0499 10219.5176   61.4323 20866.6113    0.0669   19.5593   15.7148   20.8674    0.7861    0.1635 2165.0000   19.5593  -19.9311 
1787.9000    0.0494 10638.4883   58.5851 21244.3477    0.0687   19.0354   15.2295   20.5189    0.7193    0.1413 2192.0000   19.0354  -20.6632 
1788.0000    0.0484 10787.9639   51.4679 20850.0820    0.0723   17.9838   14.2554   19.8193    0.6948    0.0968 2167.0000   17.9838  -21.2610 
1788.1000    0.0483 10498.3301   47.0922 20239.3496    0.0726   17.8860   14.1648   19.7542    0.7142    0.0926 2180.0000   17.8860  -21.3287 
1788.2000    0.0485 10115.7314   43.5113 19493.4902    0.0721   18.0315   14.2996   19.8510    0.7334    0.0988 2177.0000   18.0315  -21.3763 
1788.3000    0.0591 9186.4658   42.6531 17900.9023    0.0701   19.3917   14.8383   20.2380    0.7750    0.1234 2171.0000   19.3917  -21.4286 
1788.4000    0.0545 8735.1621   45.2445 17388.6406    0.0668   19.9450   15.7520   20.8942    0.8233    0.1652 2175.0000   19.9450  -21.5359 
1788.5000    0.0541 8333.3184   49.2518 17188.4219    0.0616   21.3310   17.1649   21.9089    0.8856    0.2299 2176.0000   21.3310  -21.6881 
1788.6000    0.0525 8052.4614   53.8665 17184.8047    0.0578   22.2359   18.1940   22.6480    0.9169    0.2769 2179.0000   22.2359  -21.8447 
1788.7000    0.0535 7778.5649   59.4735 17063.2598    0.0544   23.2621   19.1446   23.3307    0.9539    0.3204 2157.0000   23.2621  -12.7203 
1788.8000    0.0525 7702.2441   58.8654 16907.9629    0.0525   23.6908   19.6459   23.6908    0.9782    0.3434 2181.0000   23.8034  -11.9983 
1788.9000    0.0523 7668.2539   56.9771 16610.1836    0.0523   23.7334   19.7052   23.7334    0.9967    0.3461 2207.0000   23.8674  -12.3552 
1789.0000    0.0516 7769.4556   56.9043 16354.1270    0.0516   23.8375   19.8636   23.8375    0.9968    0.3533 2181.0000   24.4605  -12.0113 
1789.1000    0.0534 7936.2715   59.5447 16766.0840    0.0534   23.5113   19.3960   23.5113    0.9738    0.3319 2174.0000   23.5336  -12.0987 
1789.2000    0.0535 8079.4897   61.9010 17389.1113    0.0543   23.2680   19.1500   23.3346    0.9492    0.3207 2211.0000   23.2680  -12.2442 
1789.3000    0.0522 8177.3135   62.0989 18375.0762    0.0590   21.9084   17.8907   22.4302    0.9278    0.2631 2184.0000   21.9084  -12.4485 
1789.4000    0.0521 8120.7056   60.1239 18333.8867    0.0594   21.7823   17.7739   22.3463    0.9278    0.2577 2177.0000   21.7823  -12.5087 
1789.5000    0.0523 7957.8169   57.5294 17786.2422    0.0585   22.0289   18.0023   22.5103    0.9310    0.2682 2192.0000   22.0289  -12.5517 
1789.6000    0.0532 7281.0781   55.7657 15769.4629    0.0532   23.5584   19.4616   23.5584    0.9540    0.3349 2180.0000   23.9301  -10.1417 
1789.7000    0.0466 6862.9746   58.3335 14846.7939    0.0466   23.9693   20.3818   23.9693    0.9786    0.3763 2190.0000   25.1121   -8.7838 
1789.8000    0.0264 6421.5181   62.5251 14241.6807    0.0264   23.9558   21.9264   23.9558    1.0000    0.4440 2184.0000   27.3451   -7.5759 
1789.9000    0.0049 5929.5913   69.9913 13685.1631    0.0049   24.9902   24.6120   24.9902    1.0000    0.5644 2182.0000   30.9339   -7.4164 
1790.0000    0.0035 5755.3164   71.1924 13560.2607    0.0035   25.3050   25.0348   25.3050    1.0000    0.5837 2174.0000   31.8438   -7.3750 
1790.1000    0.0042 5688.1255   70.5969 13501.8877    0.0042   25.1453   24.8254   25.1453    1.0000    0.5741 2183.0000   32.3702   -7.6831 
1790.2000    0.0064 5697.0288   68.9987 13445.3906    0.0064   24.7540   24.2611   24.7540    1.0000    0.5484 2180.0000   32.3673   -6.5707 
