~VERSION INFORMATION
 VERS.                 2.0:   CWLS LOG ASCII STANDARD - VERSION 2.0
 WRAP.                  NO:   SINGLE LINE PER DEPTH STEP
 CREA.                 09/07/2026 15:32:17
#CREATED USING IP VERSION 4.5.2019.2902 BY RADU VLADUTIU ON 09/07/2026 15:32:17
~WELL INFORMATION
#MNEM.UNIT       DATA                          DESCRIPTION MNEMONIC
#---------      ---------------------------   --------------------------
 STRT    .M         1340.0000                 : START DEPTH
 STOP    .M         2182.0000                 : STOP DEPTH
 STEP    .M         0.1000                    : STEP VALUE
 NULL    .      -999.0000                     : NULL VALUE
 DATE    .      09/07/2026                    : LAS file Creation Date
 WELL   .      187-Deleni               : Well Name
 COMP   .      S.N.G.N. Romgaz - Medias : Company
 FLD    .      Deleni                   : Field
 STATE  .      Romania                  : State
 UWI    .                               : Unique Well Identifier (UWI)
 LOC    .                               : Location
 EPDAT  .      0.0000                   : Elevation of Permanent Datum
 RWS    .      -999                     : Def_Rw
 WST    .      -999                     : Def_Rwt
 CNTY   .      Sibiu                    : County
 PROV   .                               : Province
 SRVC   .      PROSPECTIUNI             : Contractor
 GDAT   .      WGS 84                   : Geodatum
 LONG   .      0                        : Longitude
 LATI   .      0                        : Latitude
 COORDIN.                               : Grid System
 XCOORD .                               : X or East-West Coordinate
 YCOORD .                               : Y or North-South Coordinate
~CURVE INFORMATION
#MNEM              UNIT       API CODE   Curve Type Comments
#----------  --------------- ----------  ---------- -----------
 DEPTH      .M                         : Depth       
 BVWRAS     .Dec                       : BVWtdt      
 LS         .CPS                       :             Far Average Capture Rates
 GR         .GAPI                      : GammaRay    Gamma Ray
 SS         .CPS                       :             Near Average Capture Rates
 PHIE       .Dec                       : Phi         
 SigRec     .cu                        :             
 SigRecHyd  .cu                        :             
 SigRecWat  .cu                        :             
 SwRAS      .Dec                       : SwTDT       
 VCL        .Dec                       : Vcl         
 CCL        .                          : CollarLoc.  Casing Collar Locator
 SGFC       .CU                        :             Reservoir Sigma
 PS         .MV                        : SP          
~A  DEPTH   BVWRAS      LS        GR        SS       PHIE     SigRec  SigRecHy~ SigRecWa~   SwRAS      VCL       CCL       SGFC       PS    
# ...
2177.9000    0.0035 5933.2793   72.0285 14635.4063    0.0035   26.0421   25.7735   26.0421    1.0000    0.5906 2169.0000   31.1901    0.2827 
2178.0000    0.0034 6285.4253   73.7158 15048.6816    0.0034   26.0626   25.7994   26.0626    1.0000    0.5918 2190.0000   29.0189    0.0681 
2178.1000    0.0081 6551.9517   74.6696 15618.7344    0.0081   25.2580   24.6326   25.2580    0.9580    0.5409 2147.0000   27.8987   -0.1039 
2178.2000    0.0159 6849.8320   75.0188 16259.6367    0.0159   24.7932   23.5672   24.7932    0.9121    0.4951 2172.0000   26.8913   -0.4846 
2178.3000    0.0467 7479.6938   75.3249 17529.9902    0.0591   23.5618   19.9679   24.5159    0.8617    0.3437 2229.0000   23.5618   -1.2349 
2178.4000    0.0469 7615.4941   73.8217 17802.7793    0.0609   23.1141   19.5017   24.1908    0.8190    0.3234 2165.0000   23.1141   -1.8539 
2178.5000    0.0472 7694.9932   70.5923 17897.7832    0.0631   22.5709   18.9362   23.7964    0.7840    0.2987 2175.0000   22.5709   -2.1281 
2178.6000    0.0467 7523.5088   65.5273 17102.1758    0.0594   23.4813   19.8841   24.4574    0.8260    0.3401 2183.0000   23.4813   -2.1765 
2178.7000    0.0464 7319.5967   66.2446 16449.7578    0.0562   23.9733   20.4015   24.7301    0.8719    0.3624 2152.0000   23.9733   -2.1780 
2178.8000    0.0416 7094.6587   68.8025 16202.9893    0.0416   24.7107   21.5091   24.7107    0.9223    0.4087 2188.0000   24.9918   -2.1519 
2178.9000    0.0304 6864.2764   71.9873 16033.2881    0.0304   24.6402   22.2976   24.6402    0.9650    0.4415 2185.0000   25.7137   -2.1766 
2179.0000    0.0284 6620.0073   74.8391 16005.4639    0.0284   24.6374   22.4502   24.6374    1.0000    0.4479 2160.0000   25.8541   -2.1547 
2179.1000    0.0199 6510.3486   73.5318 16125.5879    0.0199   24.6992   23.1695   24.6992    1.0000    0.4782 2175.0000   26.5198   -2.0315 
2179.2000    0.0138 6434.5879   71.7101 16129.3711    0.0138   24.8725   23.8103   24.8725    1.0000    0.5054 2180.0000   27.1197   -1.8578 
2179.3000    0.0062 6310.6621   72.4501 15492.3223    0.0062   25.4952   25.0187   25.4952    1.0000    0.5576 2175.0000   28.2677   -1.4018 
2179.4000    0.0035 6229.0273   75.6248 15253.5928    0.0035   26.0412   25.7723   26.0412    1.0000    0.5906 2196.0000   28.9927   -0.7450 
2179.5000    0.0026 6102.0430   79.1876 15026.0186    0.0026   26.3182   26.1145   26.3182    1.0000    0.6056 2193.0000   29.3236   -0.3492 
2179.6000    0.0026 5872.0024   82.7422 14738.4033    0.0026   26.3501   26.1527   26.3501    1.0000    0.6073 2189.0000   29.3606    0.2250 
2179.7000    0.0024 5731.2715   82.2029 14525.0625    0.0024   26.4305   26.2482   26.4305    1.0000    0.6115 2169.0000   29.4531    0.8710 
2179.8000    0.0030 5671.2544   80.4077 14317.7100    0.0030   26.1980   25.9683   26.1980    1.0000    0.5992 2178.0000   29.1821    1.2756 
2179.9000    0.0040 5711.2910   74.4017 14111.8008    0.0040   25.8959   25.5841   25.8959    1.0000    0.5823 2206.0000   28.8112    1.6756 
2180.0000    0.0042 5802.2773   72.1508 14276.2363    0.0042   25.8605   25.5372   25.8605    1.0000    0.5803 2138.0000   28.7660    2.0693 
2180.1000    0.0052 5935.7827   72.2784 14702.7080    0.0052   25.6540   25.2527   25.6540    1.0000    0.5678 2030.0000   28.4922    2.2976 
2180.2000 -999.0000 6323.0288   78.5120 16068.3545 -999.0000 -999.0000 -999.0000 -999.0000    1.0000    0.5171 2167.0000   27.3766 -999.0000 
2180.3000 -999.0000 6595.7598   80.7186 16574.3281 -999.0000 -999.0000 -999.0000 -999.0000    1.0000    0.4728 2211.0000   26.4016 -999.0000 
2180.4000 -999.0000 6816.0132 -999.0000 16958.6191 -999.0000 -999.0000 -999.0000 -999.0000 -999.0000    0.4522 2145.0000   25.9479 -999.0000 
2180.5000 -999.0000 6952.0146 -999.0000 17150.1953 -999.0000 -999.0000 -999.0000 -999.0000 -999.0000    0.4358 2176.0000   25.5879 -999.0000 
2180.6000 -999.0000 7145.6563 -999.0000 16918.5938 -999.0000 -999.0000 -999.0000 -999.0000 -999.0000    0.4300 -999.0000   25.4591 -999.0000 
2180.7000 -999.0000 7136.8027 -999.0000 16787.9863 -999.0000 -999.0000 -999.0000 -999.0000 -999.0000    0.4298 -999.0000   25.4550 -999.0000 
2180.8000 -999.0000 7071.0620 -999.0000 16552.5898 -999.0000 -999.0000 -999.0000 -999.0000 -999.0000    0.4368 -999.0000   25.6103 -999.0000 
2180.9000 -999.0000 6796.5703 -999.0000 16190.3018 -999.0000 -999.0000 -999.0000 -999.0000 -999.0000    0.4765 -999.0000   26.4840 -999.0000 
2181.0000 -999.0000 6639.3643 -999.0000 15957.3633 -999.0000 -999.0000 -999.0000 -999.0000 -999.0000    0.4935 -999.0000   26.8560 -999.0000 
2181.1000 -999.0000 6457.4258 -999.0000 15731.6484 -999.0000 -999.0000 -999.0000 -999.0000 -999.0000    0.5523 -999.0000   28.1505 -999.0000 
2181.2000 -999.0000 6051.6479 -999.0000 15184.5508 -999.0000 -999.0000 -999.0000 -999.0000 -999.0000    0.6401 -999.0000   30.0823 -999.0000 
2181.3000 -999.0000 5888.3071 -999.0000 14889.5244 -999.0000 -999.0000 -999.0000 -999.0000 -999.0000    0.6778 -999.0000   30.9121 -999.0000 
2181.4000 -999.0000 5776.3120 -999.0000 14723.5996 -999.0000 -999.0000 -999.0000 -999.0000 -999.0000    0.7397 -999.0000   32.2731 -999.0000 
2181.5000 -999.0000 5631.3867 -999.0000 14682.3105 -999.0000 -999.0000 -999.0000 -999.0000 -999.0000    0.7894 -999.0000   33.3673 -999.0000 
2181.6000 -999.0000 5591.8765 -999.0000 14648.2910 -999.0000 -999.0000 -999.0000 -999.0000 -999.0000    0.8144 -999.0000   33.9169 -999.0000 
2181.7000 -999.0000 5579.0659 -999.0000 14626.2412 -999.0000 -999.0000 -999.0000 -999.0000 -999.0000    0.8219 -999.0000   34.0819 -999.0000 
2181.8000 -999.0000 5597.4971 -999.0000 14426.4258 -999.0000 -999.0000 -999.0000 -999.0000 -999.0000    0.8218 -999.0000   34.0788 -999.0000 
2181.9000 -999.0000 5685.6514 -999.0000 14423.9512 -999.0000 -999.0000 -999.0000 -999.0000 -999.0000    0.8252 -999.0000   34.1548 -999.0000 
2182.0000 -999.0000 5702.5981 -999.0000 14400.2842 -999.0000 -999.0000 -999.0000 -999.0000 -999.0000    0.8503 -999.0000   34.7057 -999.0000 
