~VERSION INFORMATION
 VERS.                 2.0:   CWLS LOG ASCII STANDARD - VERSION 2.0
 WRAP.                  NO:   SINGLE LINE PER DEPTH STEP
 CREA.                 09/07/2026 15:32:17
#CREATED USING IP VERSION 4.5.2019.2902 BY RADU VLADUTIU ON 09/07/2026 15:32:17
~WELL INFORMATION
#MNEM.UNIT       DATA                          DESCRIPTION MNEMONIC
#---------      ---------------------------   --------------------------
 STRT    .M         1340.0000                 : START DEPTH
 STOP    .M         2182.0000                 : STOP DEPTH
 STEP    .M         0.1000                    : STEP VALUE
 NULL    .      -999.0000                     : NULL VALUE
 DATE    .      09/07/2026                    : LAS file Creation Date
 WELL   .      187-Deleni               : Well Name
 COMP   .      S.N.G.N. Romgaz - Medias : Company
 FLD    .      Deleni                   : Field
 STATE  .      Romania                  : State
 UWI    .                               : Unique Well Identifier (UWI)
 LOC    .                               : Location
 EPDAT  .      0.0000                   : Elevation of Permanent Datum
 RWS    .      -999                     : Def_Rw
 WST    .      -999                     : Def_Rwt
 CNTY   .      Sibiu                    : County
 PROV   .                               : Province
 SRVC   .      PROSPECTIUNI             : Contractor
 GDAT   .      WGS 84                   : Geodatum
 LONG   .      0                        : Longitude
 LATI   .      0                        : Latitude
 COORDIN.                               : Grid System
 XCOORD .                               : X or East-West Coordinate
 YCOORD .                               : Y or North-South Coordinate
~CURVE INFORMATION
#MNEM              UNIT       API CODE   Curve Type Comments
#----------  --------------- ----------  ---------- -----------
 DEPTH      .M                         : Depth       
 BVWRAS     .Dec                       : BVWtdt      
 LS         .CPS                       :             Far Average Capture Rates
 GR         .GAPI                      : GammaRay    Gamma Ray
 SS         .CPS                       :             Near Average Capture Rates
 PHIE       .Dec                       : Phi         
 SigRec     .cu                        :             
 SigRecHyd  .cu                        :             
 SigRecWat  .cu                        :             
 SwRAS      .Dec                       : SwTDT       
 VCL        .Dec                       : Vcl         
 CCL        .                          : CollarLoc.  Casing Collar Locator
 SGFC       .CU                        :             Reservoir Sigma
 PS         .MV                        : SP          
~A  DEPTH   BVWRAS      LS        GR        SS       PHIE     SigRec  SigRecHy~ SigRecWa~   SwRAS      VCL       CCL       SGFC       PS    
# ...
1562.3000    0.1708 10033.6123   41.7990 20418.5898    0.1764   18.5225   11.8611   18.7396    0.9737    0.1601 2177.0000   18.5225  -41.1260 
1562.4000    0.1708 9883.6064   38.1737 20272.4258    0.1777   18.3959   11.7356   18.6673    0.9777    0.1536 2155.0000   18.3959  -42.5491 
1562.5000    0.1787 9767.0967   36.7530 20157.0039    0.1787   18.6167   11.6478   18.6167    0.9859    0.1491 2174.0000   18.7249  -43.5722 
1562.6000    0.1672 9293.1152   40.6826 19860.5449    0.1672   19.2265   12.7058   19.2265    0.9922    0.2038 2139.0000   19.3744  -43.6824 
1562.7000    0.1634 9104.6152   44.3395 19613.3867    0.1634   19.4262   13.0522   19.4262    1.0000    0.2217 2180.0000   19.7238  -42.6548 
1562.8000    0.1619 8959.5781   47.7336 19358.8691    0.1619   19.5062   13.1909   19.5062    1.0000    0.2289 2188.0000   19.8637  -40.6755 
1562.9000    0.1591 8832.7344   50.1160 19147.0879    0.1591   19.6547   13.4486   19.6547    1.0000    0.2422 2173.0000   20.1236  -39.5144 
1563.0000    0.1535 8589.8467   51.6545 18887.0879    0.1535   19.9512   13.9630   19.9512    1.0000    0.2688 2175.0000   20.6424  -37.8624 
1563.1000    0.1554 8516.7178   51.9390 18899.4375    0.1554   19.8544   13.7950   19.8544    1.0000    0.2601 2183.0000   20.4729  -36.0379 
1563.2000    0.1549 8518.2012   52.2555 18588.5332    0.1549   19.8797   13.8389   19.8797    1.0000    0.2624 2163.0000   20.5172  -34.8800 
1563.3000    0.1529 8586.5391   51.8076 18690.4082    0.1529   19.9866   14.0244   19.9866    1.0000    0.2720 2182.0000   20.7043  -33.2277 
1563.4000    0.1485 8598.9297   51.6887 18692.1816    0.1485   20.1311   14.3400   20.1311    1.0000    0.2882 2167.0000   21.0191  -31.4050 
1563.5000    0.1513 8617.7998   51.9604 18866.3457    0.1513   20.0689   14.1671   20.0689    1.0000    0.2794 2177.0000   20.8482  -30.2473 
1563.6000    0.1502 8838.1162   51.0351 19395.7266    0.1502   20.1132   14.2536   20.1132    1.0000    0.2838 2173.0000   20.9349  -28.5900 
1563.7000    0.1512 8855.3184   49.6049 19431.6426    0.1512   20.0736   14.1753   20.0736    1.0000    0.2798 2154.0000   20.8565  -26.7611 
1563.8000    0.1527 8928.6797   48.8468 19571.4648    0.1527   19.9976   14.0435   19.9976    1.0000    0.2730 2185.0000   20.7235  -25.5945 
1563.9000    0.1572 9007.0605   51.5352 19662.8867    0.1572   19.7549   13.6224   19.7549    1.0000    0.2512 2177.0000   20.2989  -23.9413 
1564.0000    0.1541 9075.1104   53.3670 19715.1133    0.1541   19.9199   13.9086   19.9199    1.0000    0.2660 2163.0000   20.5875  -22.1431 
1564.1000    0.1577 9153.8623   53.9740 19602.0762    0.1577   19.7286   13.5767   19.7286    1.0000    0.2489 2180.0000   20.2528  -21.0085 
1564.2000    0.1520 9293.6807   51.5969 19508.8301    0.1520   20.0311   14.1016   20.0311    1.0000    0.2760 2170.0000   20.7821  -19.3355 
1564.3000    0.1533 9446.9736   50.0442 19626.4336    0.1533   19.9650   13.9869   19.9650    1.0000    0.2701 2187.0000   20.6665  -17.9625 
1564.4000    0.1597 9551.5801   48.6496 19885.1543    0.1597   19.6224   13.3925   19.6224    1.0000    0.2393 2167.0000   20.0670  -17.9179 
1564.5000    0.1645 9601.3955   47.4459 20009.9102    0.1645   19.3717   12.9577   19.3717    0.9975    0.2168 2182.0000   19.6285  -18.0201 
1564.6000    0.1700 9439.2158   46.7822 19935.7695    0.1700   19.0758   12.4442   19.0758    0.9975    0.1903 2177.0000   19.1106  -18.3142 
1564.7000    0.1709 9299.7578   46.8824 19583.1484    0.1730   18.8354   12.1713   18.9185    0.9975    0.1762 2171.0000   18.8354  -19.3752 
1564.8000    0.1658 9202.3877   46.5960 19016.9297    0.1658   19.2988   12.8311   19.2988    0.9975    0.2103 2190.0000   19.5008  -20.9825 
1564.9000    0.1602 8858.3066   46.5782 18157.8945    0.1602   19.5992   13.3524   19.5992    0.9975    0.2373 2153.0000   20.0265  -22.0003 
1565.0000    0.1551 8669.1191   48.3645 18169.7598    0.1551   19.8705   13.8229   19.8705    1.0000    0.2616 2176.0000   20.5011  -23.4425 
1565.1000    0.1527 8662.4854   50.9165 18501.1836    0.1527   19.9983   14.0446   19.9983    1.0000    0.2731 2207.0000   20.7247  -24.5717 
1565.2000    0.1533 8666.6387   51.6528 19326.9238    0.1533   19.9624   13.9825   19.9624    1.0000    0.2698 2160.0000   20.6620  -24.5862 
1565.3000    0.1566 8671.5332   48.7625 19438.3984    0.1566   19.7879   13.6798   19.7879    1.0000    0.2542 2162.0000   20.3567  -24.6334 
1565.4000    0.1552 8570.2324   45.5549 19313.0195    0.1552   19.8659   13.8150   19.8659    1.0000    0.2612 2192.0000   20.4931  -24.6940 
1565.5000    0.1507 8398.4336   44.6961 18374.4688    0.1507   20.0997   14.2208   20.0997    1.0000    0.2822 2200.0000   20.9023  -24.7178 
1565.6000    0.1413 8420.3652   47.5874 18012.5137    0.1413   20.1054   14.5941   20.1054    1.0000    0.3005 2152.0000   21.2591  -25.5250 
1565.7000    0.1315 8380.4639   51.5483 17939.2461    0.1315   20.0016   14.8742   20.0016    1.0000    0.3137 2208.0000   21.5167  -26.8884 
1565.8000    0.1577 8776.3018   57.2895 18651.0391    0.1577   19.7318   13.5824   19.7318    0.9951    0.2492 2157.0000   20.2585  -27.6857 
1565.9000    0.1686 8982.9551   57.3300 19327.4805    0.1686   19.1517   12.5760   19.1517    0.9838    0.1971 2148.0000   19.2435  -28.8634 
1566.0000    0.1708 9275.5928   55.2667 19999.2305    0.1751   18.6377   11.9753   18.8055    0.9654    0.1660 2167.0000   18.6377  -30.1689 
1566.1000    0.1707 9588.3242   51.3025 20510.2539    0.1809   18.0983   11.4405   18.4972    0.9461    0.1384 2147.0000   18.0983  -31.0252 
1566.2000    0.1706 9873.7344   41.8663 20911.3594    0.1878   17.4624   10.8099   18.1337    0.9299    0.1058 2161.0000   17.4624  -31.8172 
1566.3000    0.1706 9867.9971   38.9171 20764.5195    0.1888   17.3700   10.7183   18.0809    0.9246    0.1010 2193.0000   17.3700  -32.1992 
1566.4000    0.1706 9667.1270   37.4598 20722.9512    0.1857   17.6547   11.0006   18.2436    0.9310    0.1156 2180.0000   17.6547  -32.1679 
1566.5000    0.1707 9038.0869   37.9360 19817.0938    0.1799   18.1994   11.5407   18.5550    0.9493    0.1436 2202.0000   18.1994  -31.7036 
1566.6000    0.1708 8703.8643   39.8385 19057.3125    0.1752   18.6316   11.9693   18.8020    0.9686    0.1657 2189.0000   18.6316  -30.8861 
1566.7000    0.1669 8280.2656   42.1755 18171.0820    0.1669   19.2406   12.7302   19.2406    0.9849    0.2051 2124.0000   19.3990  -30.3044 
1566.8000    0.1466 7700.1357   45.1140 16432.9082    0.1466   20.1333   14.4150   20.1333    0.9950    0.2918 2224.0000   21.0908  -29.4839 
1566.9000    0.1153 7581.7173   46.3012 15966.0469    0.1153   19.7810   15.2850   19.7810    1.0000    0.3327 2143.0000   21.9481  -28.5221 
1567.0000    0.0888 7605.4775   47.8589 15869.7432    0.0888   19.3983   15.9349   19.3983    1.0000    0.3627 2174.0000   23.6610  -27.7532 
1567.1000    0.0838 8017.4180   48.8567 17097.4160    0.0838   19.3292   16.0626   19.3292    1.0000    0.3686 2232.0000   22.5875  -27.4114 
1567.2000    0.1512 8364.3037   47.7452 18172.5352    0.1512   20.0778   14.1826   20.0778    0.9964    0.2802 2237.0000   20.8638  -27.8821 
1567.3000    0.1593 8906.2412   46.7078 19400.1992    0.1593   19.6480   13.4369   19.6480    0.9869    0.2416 2193.0000   20.1118  -28.7044 
1567.4000    0.1709 9933.5059   44.9324 21254.6445    0.1740   18.7409   12.0776   18.8645    0.9730    0.1713 2215.0000   18.7409  -29.9178 
1567.5000    0.1707 10271.6924   42.8711 21785.3828    0.1792   18.2598   11.6006   18.5895    0.9572    0.1467 2169.0000   18.2598  -31.2407 
1567.6000    0.1707 10431.8164   40.3595 21815.7949    0.1834   17.8684   11.2125   18.3658    0.9408    0.1266 2203.0000   17.8684  -32.1108 
1567.7000    0.1706 10539.2852   38.1747 21493.9824    0.1853   17.6936   11.0392   18.2659    0.9291    0.1176 2096.0000   17.6936  -32.9830 
1567.8000    0.1706 10428.2041   36.8835 20621.5391    0.1858   17.6476   10.9936   18.2396    0.9231    0.1153 2208.0000   17.6476  -33.8579 
1567.9000    0.1706 10264.1396   38.5456 20318.4453    0.1849   17.7316   11.0769   18.2876    0.9277    0.1196 2178.0000   17.7316  -35.1166 
