~VERSION INFORMATION
 VERS.                 2.0:   CWLS LOG ASCII STANDARD - VERSION 2.0
 WRAP.                  NO:   SINGLE LINE PER DEPTH STEP
 CREA.                 09/07/2026 15:32:17
#CREATED USING IP VERSION 4.5.2019.2902 BY RADU VLADUTIU ON 09/07/2026 15:32:17
~WELL INFORMATION
#MNEM.UNIT       DATA                          DESCRIPTION MNEMONIC
#---------      ---------------------------   --------------------------
 STRT    .M         1340.0000                 : START DEPTH
 STOP    .M         2182.0000                 : STOP DEPTH
 STEP    .M         0.1000                    : STEP VALUE
 NULL    .      -999.0000                     : NULL VALUE
 DATE    .      09/07/2026                    : LAS file Creation Date
 WELL   .      187-Deleni               : Well Name
 COMP   .      S.N.G.N. Romgaz - Medias : Company
 FLD    .      Deleni                   : Field
 STATE  .      Romania                  : State
 UWI    .                               : Unique Well Identifier (UWI)
 LOC    .                               : Location
 EPDAT  .      0.0000                   : Elevation of Permanent Datum
 RWS    .      -999                     : Def_Rw
 WST    .      -999                     : Def_Rwt
 CNTY   .      Sibiu                    : County
 PROV   .                               : Province
 SRVC   .      PROSPECTIUNI             : Contractor
 GDAT   .      WGS 84                   : Geodatum
 LONG   .      0                        : Longitude
 LATI   .      0                        : Latitude
 COORDIN.                               : Grid System
 XCOORD .                               : X or East-West Coordinate
 YCOORD .                               : Y or North-South Coordinate
~CURVE INFORMATION
#MNEM              UNIT       API CODE   Curve Type Comments
#----------  --------------- ----------  ---------- -----------
 DEPTH      .M                         : Depth       
 BVWRAS     .Dec                       : BVWtdt      
 LS         .CPS                       :             Far Average Capture Rates
 GR         .GAPI                      : GammaRay    Gamma Ray
 SS         .CPS                       :             Near Average Capture Rates
 PHIE       .Dec                       : Phi         
 SigRec     .cu                        :             
 SigRecHyd  .cu                        :             
 SigRecWat  .cu                        :             
 SwRAS      .Dec                       : SwTDT       
 VCL        .Dec                       : Vcl         
 CCL        .                          : CollarLoc.  Casing Collar Locator
 SGFC       .CU                        :             Reservoir Sigma
 PS         .MV                        : SP          
~A  DEPTH   BVWRAS      LS        GR        SS       PHIE     SigRec  SigRecHy~ SigRecWa~   SwRAS      VCL       CCL       SGFC       PS    
# ...
2120.9000    0.0128 6305.8335   67.1460 14990.0859    0.0128   24.9178   23.9306   24.9178    1.0000    0.5106 2181.0000   28.3305    4.1267 
2121.0000    0.0228 6479.9204   69.6500 15651.4404    0.0228   24.6606   22.9023   24.6606    1.0000    0.4669 2163.0000   26.2716    4.1243 
2121.1000    0.0273 6536.8052   68.3112 15889.6758    0.0273   24.6380   22.5322   24.6380    1.0000    0.4513 2154.0000   25.9296    4.0663 
2121.2000    0.0254 6576.0010   65.8143 15974.8555    0.0254   24.6433   22.6855   24.6433    1.0000    0.4578 2163.0000   26.0710    3.9148 
2121.3000    0.0382 6544.8169   61.5292 15615.1895    0.0382   24.6832   21.7448   24.6832    1.0000    0.4185 2170.0000   26.1292    3.7400 
2121.4000    0.0306 6544.7773   62.9002 15538.8818    0.0306   24.6406   22.2845   24.6406    1.0000    0.4410 2172.0000   26.5372    3.4592 
2121.5000    0.0156 6450.4829   66.8803 15335.6484    0.0156   24.8038   23.6029   24.8038    1.0000    0.4966 2185.0000   26.9248    3.1114 
2121.6000    0.0040 6347.1274   72.9176 15439.0537    0.0040   25.9147   25.6088   25.9147    1.0000    0.5834 2175.0000   28.8350    2.8732 
2121.7000    0.0073 6328.4214   72.2423 15493.8760    0.0073   25.3430   24.7771   25.3430    1.0000    0.5471 2167.0000   28.0366    2.3096 
2121.8000    0.0050 6298.2588   70.8194 15434.4570    0.0050   25.7022   25.3209   25.7022    1.0000    0.5708 2168.0000   29.0119    1.7070 
2121.9000    0.0057 6254.5303   70.2866 15330.9521    0.0057   25.5632   25.1208   25.5632    1.0000    0.5621 2159.0000   28.3894    1.6707 
2122.0000    0.0062 6125.1318   70.0272 15201.2393    0.0062   25.4982   25.0233   25.4982    1.0000    0.5578 2176.0000   28.4306    1.6081 
2122.1000    0.0092 6067.8872   68.5232 15023.2686    0.0092   25.1603   24.4550   25.1603    1.0000    0.5332 2178.0000   28.1678    1.5583 
2122.2000    0.0147 6035.8447   66.5464 14892.6270    0.0147   24.8348   23.7008   24.8348    1.0000    0.5008 2198.0000   28.6406    1.5765 
2122.3000    0.0237 5824.2593   64.2992 14659.5625    0.0237   24.6537   22.8318   24.6537    1.0000    0.4639 2184.0000   29.2666    1.5704 
2122.4000    0.0206 5803.7368   65.0040 14547.0264    0.0206   24.6882   23.1057   24.6882    1.0000    0.4755 2176.0000   28.9384    1.5995 
2122.5000    0.0127 5817.9185   67.1882 14403.6436    0.0127   24.9242   23.9467   24.9242    1.0000    0.5113 2188.0000   29.6977    1.7236 
2122.6000    0.0031 5876.0464   72.4239 14494.6348    0.0031   26.1597   25.9211   26.1597    1.0000    0.5971 2183.0000   30.6491    1.9847 
2122.7000    0.0031 5906.5215   73.0871 14618.7891    0.0031   26.1638   25.9261   26.1638    1.0000    0.5973 2174.0000   29.1413    2.3177 
2122.8000    0.0040 5916.8872   71.5955 14653.3721    0.0040   25.9168   25.6117   25.9168    1.0000    0.5835 2186.0000   28.8771    2.4883 
2122.9000    0.0277 6058.2988   63.4695 14807.1992    0.0277   24.6377   22.5077   24.6377    1.0000    0.4503 2188.0000   29.0613    2.6634 
2123.0000    0.0468 6018.9668   60.0074 14896.5293    0.0468   24.7507   21.1444   24.7507    1.0000    0.3936 2178.0000   29.2551    2.8447 
2123.1000    0.0517 5982.0103   59.0991 14816.5322    0.0517   24.7687   20.7875   24.7687    1.0000    0.3787 2197.0000   30.8074    3.1018 
2123.2000    0.0279 5864.7075   63.4163 14718.3662    0.0279   24.6375   22.4869   24.6375    1.0000    0.4494 2188.0000   30.6624    3.3836 
2123.3000    0.0166 5804.7236   66.0191 14619.6768    0.0166   24.7737   23.4981   24.7737    1.0000    0.4921 2185.0000   31.2621    3.5551 
2123.4000    0.0110 5807.7412   67.8036 14574.0918    0.0110   25.0249   24.1815   25.0249    1.0000    0.5214 2181.0000   31.4528    3.7960 
2123.5000    0.0083 5701.9004   68.9059 14443.7773    0.0083   25.2396   24.6000   25.2396    1.0000    0.5394 2182.0000   31.3074    4.0704 
2123.6000    0.0066 5611.6738   69.7639 14109.0947    0.0066   25.4341   24.9241   25.4341    1.0000    0.5535 2182.0000   31.1315    4.2587 
2123.7000    0.0065 5565.4395   69.8427 13867.2334    0.0065   25.4531   24.9538   25.4531    1.0000    0.5548 2186.0000   31.5684    4.4610 
2123.8000    0.0058 5553.8359   70.2548 13765.7061    0.0058   25.5552   25.1089   25.5552    1.0000    0.5616 2202.0000   31.6051    4.5849 
2123.9000    0.0036 5659.3931   71.8968 14085.3613    0.0036   26.0036   25.7243   26.0036    1.0000    0.5885 2163.0000   30.6899    4.5739 
2124.0000    0.0027 5703.2397   72.8439 14393.1758    0.0027   26.2877   26.0777   26.2877    1.0000    0.6040 2040.0000   30.4858    4.4694 
2124.1000    0.0020 5777.9702   73.8914 14758.5479    0.0020   26.6188   26.4675   26.6188    1.0000    0.6212 2168.0000   30.3633    4.2869 
2124.2000    0.0013 5930.5352   75.1392 15323.8486    0.0013   27.0314   26.9307   27.0314    1.0000    0.6416 2170.0000   31.0300    4.1748 
2124.3000    0.0011 6037.0576   75.5688 15233.0605    0.0011   27.1771   27.0900   27.1771    1.0000    0.6487 2178.0000   31.2332    4.0554 
2124.4000    0.0008 6115.6348   76.4884 15191.7861    0.0008   27.4940   27.4305   27.4940    1.0000    0.6637 2182.0000   31.2415    3.9622 
2124.5000    0.0006 6138.6934   78.9339 15202.3799    0.0006   27.8408   27.7962   27.8408    1.0000    0.6799 2170.0000   30.9588    3.9195 
2124.6000    0.0008 6168.9453   78.7879 15209.0166    0.0008   27.5589   27.4994   27.5589    1.0000    0.6668 2181.0000   30.6695    3.8873 
2124.7000    0.0010 6221.3687   77.3619 15201.1475    0.0010   27.3183   27.2427   27.3183    1.0000    0.6554 2159.0000   30.4194    3.9497 
2124.8000    0.0015 6242.7236   74.6657 15279.6592    0.0015   26.8728   26.7551   26.8728    1.0000    0.6339 2170.0000   30.6311    4.1229 
2124.9000    0.0019 6231.9697   74.0265 15228.8896    0.0019   26.6626   26.5177   26.6626    1.0000    0.6234 2158.0000   30.8464    4.5471 
2125.0000    0.0024 6199.4268   73.2415 15147.1084    0.0024   26.4115   26.2258   26.4115    1.0000    0.6105 2181.0000   31.4263    5.0595 
2125.1000    0.0030 6272.9268   72.4951 15163.7783    0.0030   26.1812   25.9477   26.1812    1.0000    0.5983 2140.0000   31.6005    5.2152 
2125.2000    0.0026 6276.0674   72.9833 15238.2227    0.0026   26.3308   26.1296   26.3308    1.0000    0.6063 2154.0000   30.7906    5.4081 
2125.3000    0.0021 6267.2959   73.6085 15350.5273    0.0021   26.5278   26.3623   26.5278    1.0000    0.6165 2171.0000   30.3591    5.5494 
2125.4000    0.0021 6281.4146   73.6927 15400.5166    0.0021   26.5548   26.3936   26.5548    1.0000    0.6179 2156.0000   30.0273    5.5485 
2125.5000    0.0027 6245.5332   73.0568 15277.6172    0.0027   26.3148   26.1104   26.3148    1.0000    0.6054 2152.0000   29.3196    5.5474 
2125.6000    0.0025 6253.8438   73.1585 15309.2480    0.0025   26.3855   26.1949   26.3855    1.0000    0.6092 2176.0000   29.9683    5.5416 
2125.7000    0.0020 6157.0317   73.8396 15157.0215    0.0020   26.6021   26.4482   26.6021    1.0000    0.6203 2176.0000   30.4588    5.5296 
2125.8000    0.0006 6037.8433   77.5706 14885.5156    0.0006   27.8740   27.8309   27.8740    1.0000    0.6815 2178.0000   31.5216    5.4205 
2125.9000    0.0003 5967.2563   79.6221 14849.6855    0.0003   28.6089   28.5890   28.6089    1.0000    0.7151 2172.0000   32.4199    5.1774 
2126.0000    0.0002 5923.3154   80.6274 14912.4482    0.0002   28.9736   28.9601   28.9736    1.0000    0.7316 2175.0000   32.7344    4.7865 
2126.1000    0.0002 5915.2729   80.1376 15008.4775    0.0002   28.7956   28.7793   28.7956    1.0000    0.7236 2157.0000   32.5788    4.3152 
2126.2000    0.0002 5923.0405   79.8380 15161.7715    0.0002   28.6871   28.6687   28.6871    1.0000    0.7187 2192.0000   32.6074    4.0144 
2126.3000    0.0003 5986.1270   79.4314 15210.9746    0.0003   28.5255   28.5037   28.5255    1.0000    0.7113 2184.0000   31.6493    3.5860 
2126.4000    0.0010 6051.1240   76.0312 15259.9248    0.0010   27.3356   27.2613   27.3356    1.0000    0.6562 2154.0000   31.9195    3.1661 
2126.5000    0.0023 6112.3584   73.3275 15307.0020    0.0023   26.4386   26.2578   26.4386    1.0000    0.6119 2158.0000   31.8053    3.0016 
