~VERSION INFORMATION
 VERS.                 2.0:   CWLS LOG ASCII STANDARD - VERSION 2.0
 WRAP.                  NO:   SINGLE LINE PER DEPTH STEP
 CREA.                 09/07/2026 15:32:17
#CREATED USING IP VERSION 4.5.2019.2902 BY RADU VLADUTIU ON 09/07/2026 15:32:17
~WELL INFORMATION
#MNEM.UNIT       DATA                          DESCRIPTION MNEMONIC
#---------      ---------------------------   --------------------------
 STRT    .M         1340.0000                 : START DEPTH
 STOP    .M         2182.0000                 : STOP DEPTH
 STEP    .M         0.1000                    : STEP VALUE
 NULL    .      -999.0000                     : NULL VALUE
 DATE    .      09/07/2026                    : LAS file Creation Date
 WELL   .      187-Deleni               : Well Name
 COMP   .      S.N.G.N. Romgaz - Medias : Company
 FLD    .      Deleni                   : Field
 STATE  .      Romania                  : State
 UWI    .                               : Unique Well Identifier (UWI)
 LOC    .                               : Location
 EPDAT  .      0.0000                   : Elevation of Permanent Datum
 RWS    .      -999                     : Def_Rw
 WST    .      -999                     : Def_Rwt
 CNTY   .      Sibiu                    : County
 PROV   .                               : Province
 SRVC   .      PROSPECTIUNI             : Contractor
 GDAT   .      WGS 84                   : Geodatum
 LONG   .      0                        : Longitude
 LATI   .      0                        : Latitude
 COORDIN.                               : Grid System
 XCOORD .                               : X or East-West Coordinate
 YCOORD .                               : Y or North-South Coordinate
~CURVE INFORMATION
#MNEM              UNIT       API CODE   Curve Type Comments
#----------  --------------- ----------  ---------- -----------
 DEPTH      .M                         : Depth       
 BVWRAS     .Dec                       : BVWtdt      
 LS         .CPS                       :             Far Average Capture Rates
 GR         .GAPI                      : GammaRay    Gamma Ray
 SS         .CPS                       :             Near Average Capture Rates
 PHIE       .Dec                       : Phi         
 SigRec     .cu                        :             
 SigRecHyd  .cu                        :             
 SigRecWat  .cu                        :             
 SwRAS      .Dec                       : SwTDT       
 VCL        .Dec                       : Vcl         
 CCL        .                          : CollarLoc.  Casing Collar Locator
 SGFC       .CU                        :             Reservoir Sigma
 PS         .MV                        : SP          
~A  DEPTH   BVWRAS      LS        GR        SS       PHIE     SigRec  SigRecHy~ SigRecWa~   SwRAS      VCL       CCL       SGFC       PS    
# ...
1454.0000    0.0304 6373.0195   60.5878 14568.0381    0.0304   21.1627   19.9764   21.1627    1.0000    0.4810 2173.0000   24.7537   -7.6582 
1454.1000    0.0083 6174.8745   59.1372 13799.7520    0.0083   22.1509   21.8272   22.1509    1.0000    0.5616 2191.0000   26.6458   -8.2333 
1454.2000    0.0117 6104.4346   58.8077 13598.9482    0.0117   21.8388   21.3816   21.8388    1.0000    0.5419 2153.0000   26.0265   -8.9989 
1454.3000    0.0078 6170.0469   59.7710 13570.0381    0.0078   22.2123   21.9092   22.2123    1.0000    0.5653 2179.0000   26.5146   -9.4780 
1454.4000    0.0205 6438.9160   62.2933 14058.2100    0.0205   21.3966   20.5987   21.3966    1.0000    0.5077 2186.0000   25.3118   -9.8015 
1454.5000    0.0584 6622.5029   61.6099 14705.7305    0.0584   21.0427   18.7654   21.0427    0.9986    0.4304 2194.0000   23.6963   -9.7568 
1454.6000    0.0740 6913.6987   59.5205 15388.5576    0.0740   21.1185   18.2320   21.1185    0.9954    0.4087 2174.0000   23.2415   -9.5474 
1454.7000    0.1370 7426.3887   54.0378 16471.4902    0.1379   21.2246   15.8455   21.2246    0.9908    0.3104 2177.0000   21.1868   -8.8984 
1454.8000    0.1373 7541.3423   51.5660 16679.9668    0.1396   21.1011   15.6574   21.1011    0.9858    0.3021 2176.0000   21.0136   -7.7364 
1454.9000    0.1376 7538.2710   49.7743 16764.5195    0.1408   21.0083   15.5159   21.0083    0.9858    0.2959 2154.0000   20.8834   -7.0745 
1455.0000    0.1377 7496.2627   49.0832 16665.0723    0.1413   20.9738   15.4635   20.9738    0.9872    0.2935 2228.0000   20.8351   -6.1466 
1455.1000    0.1333 7387.6260   49.8228 16193.8711    0.1333   21.4482   16.2494   21.4482    0.9904    0.3280 2184.0000   21.5552   -4.9921 
1455.2000    0.1267 7122.8584   50.0701 15806.4375    0.1267   21.4797   16.5388   21.4797    0.9950    0.3401 2179.0000   21.8081   -4.3093 
1455.3000    0.0851 6863.3726   50.3606 15349.9922    0.0851   21.1986   17.8795   21.1986    1.0000    0.3944 2194.0000   22.9435   -3.4551 
1455.4000    0.0438 6314.4258   53.3656 14387.8359    0.0438   21.0441   19.3346   21.0441    1.0000    0.4540 2192.0000   24.1886   -2.6644 
1455.5000    0.0255 6129.5088   56.4614 13883.3623    0.0255   21.2555   20.2607   21.2555    1.0000    0.4932 2152.0000   25.0075   -2.5784 
1455.6000    0.0121 5969.2085   60.3411 13397.2314    0.0121   21.8130   21.3421   21.8130    1.0000    0.5402 2163.0000   25.9901   -2.9183 
1455.7000    0.0071 5713.4614   67.9396 13104.1582    0.0071   22.2986   22.0220   22.2986    1.0000    0.5703 2166.0000   26.6195   -4.1085 
1455.8000    0.0038 5754.3066   69.7278 13125.4893    0.0038   22.9151   22.7688   22.9151    1.0000    0.6037 2146.0000   27.3178   -5.3987 
1455.9000    0.0135 5792.6553   69.5028 13281.6689    0.0135   21.7166   21.1893   21.7166    1.0000    0.5335 2179.0000   25.8498   -7.1151 
1456.0000    0.0164 6094.4121   66.2718 13829.8740    0.0164   21.5578   20.9163   21.5578    1.0000    0.5215 2159.0000   25.6002   -9.1860 
1456.1000    0.0208 6281.1895   65.1603 14134.4355    0.0208   21.3836   20.5705   21.3836    1.0000    0.5065 2164.0000   25.2863  -10.3933 
1456.2000    0.0255 6483.6167   64.3709 14418.3486    0.0255   21.2556   20.2609   21.2556    1.0000    0.4932 2199.0000   25.0077  -12.0076 
1456.3000    0.0767 6902.4990   61.6550 15126.8633    0.0767   21.1363   18.1460   21.1363    1.0000    0.4052 2209.0000   23.1686  -13.6353 
1456.4000    0.1010 7081.5103   59.5498 15556.7148    0.1010   21.3281   17.3901   21.3281    1.0000    0.3747 2151.0000   22.5313  -13.7792 
1456.5000    0.1339 7279.1304   57.1666 15915.9453    0.1339   21.4390   16.2167   21.4390    0.9998    0.3266 2169.0000   21.5261  -13.7749 
1456.6000    0.1364 7430.5225   54.3617 16225.2344    0.1364   21.3411   16.0229   21.3411    0.9998    0.3182 2158.0000   21.3502  -13.4820 
1456.7000    0.1367 7370.1211   47.4069 16390.9023    0.1368   21.3058   15.9693   21.3058    0.9998    0.3158 2153.0000   21.3008  -13.0228 
1456.8000    0.1373 7307.7603   44.5032 16235.5264    0.1373   21.2728   15.9190   21.2728    0.9998    0.3136 2156.0000   21.3144  -12.6000 
1456.9000    0.1419 7205.5171   43.1393 16013.5342    0.1419   20.9284   15.3943   20.9284    0.9998    0.2905 2194.0000   21.4400  -12.8942 
1457.0000    0.1295 6884.1348   45.7887 15191.1172    0.1295   21.4762   16.4256   21.4762    1.0000    0.3354 2185.0000   22.8552  -13.7905 
1457.1000    0.1080 6572.6294   47.5859 14606.7832    0.1080   21.3841   17.1709   21.3841    1.0000    0.3659 2199.0000   23.5978  -15.5231 
1457.2000    0.1065 6308.5449   47.6995 14202.7178    0.1065   21.3724   17.2186   21.3724    1.0000    0.3678 2189.0000   23.8606  -16.5276 
1457.3000    0.1289 6040.6123   45.8544 13303.6699    0.1289   21.4779   16.4523   21.4779    1.0000    0.3365 2178.0000   25.2292  -17.7736 
1457.4000    0.1070 5868.3857   47.6640 12986.4951    0.1070   21.3761   17.2037   21.3761    1.0000    0.3672 2265.0000   26.2454  -18.9550 
1457.5000    0.0534 5745.3730   51.8497 12895.5752    0.0534   21.0329   18.9521   21.0329    1.0000    0.4381 2193.0000   27.7728  -19.0142 
1457.6000    0.0052 5668.1177   60.6018 12992.1318    0.0052   22.5885   22.3840   22.5885    1.0000    0.5865 2192.0000   28.5334  -18.9898 
1457.7000    0.0026 5817.7832   62.6751 13083.8291    0.0026   23.2683   23.1663   23.2683    1.0000    0.6216 2171.0000   27.9544  -18.4950 
1457.8000    0.0027 5968.6074   63.7563 13253.5703    0.0027   23.2536   23.1501   23.2536    1.0000    0.6209 2189.0000   27.6764  -17.3841 
1457.9000    0.0208 6353.2856   65.3401 13884.4473    0.0208   21.3841   20.5715   21.3841    1.0000    0.5066 2168.0000   25.2872  -15.9857 
1458.0000    0.0378 6599.7642   64.5156 14393.3359    0.0378   21.0781   19.6024   21.0781    1.0000    0.4652 2180.0000   24.4231  -14.2983 
1458.1000    0.0596 6807.5518   62.1548 14958.9365    0.0596   21.0463   18.7227   21.0463    1.0000    0.4287 2173.0000   23.6597  -13.2546 
1458.2000    0.0708 6927.2192   58.9473 15437.5566    0.0708   21.0985   18.3374   21.0985    1.0000    0.4130 2178.0000   23.3309  -11.8594 
1458.3000    0.0932 6911.0728   52.5301 15562.9092    0.0932   21.2637   17.6301   21.2637    1.0000    0.3844 2176.0000   22.7334  -10.2918 
1458.4000    0.0749 6813.8721   50.8592 15381.6660    0.0749   21.1242   18.2035   21.1242    1.0000    0.4075 2159.0000   23.2173   -9.9270 
1458.5000    0.0612 6621.3008   51.1562 15055.8086    0.0612   21.0517   18.6662   21.0517    1.0000    0.4264 2164.0000   23.6382   -9.6989 
1458.6000    0.0256 6131.0566   55.6522 13825.7314    0.0256   21.2524   20.2524   21.2524    1.0000    0.4928 2182.0000   25.0000   -9.8779 
1458.7000    0.0118 5887.4053   57.9479 13373.2773    0.0118   21.8321   21.3714   21.8321    1.0000    0.5415 2174.0000   26.6604  -10.3034 
1458.8000    0.0070 5709.0337   59.7070 12831.1797    0.0070   22.3159   22.0443   22.3159    1.0000    0.5713 2178.0000   28.4017  -10.8499 
1458.9000    0.0022 5383.9229   63.1880 12250.9307    0.0022   23.4442   23.3591   23.4442    1.0000    0.6303 2174.0000   31.1662  -11.5387 
1459.0000    0.0009 5357.3462   65.6789 12142.2988    0.0009   24.3264   24.2925   24.3264    1.0000    0.6725 2190.0000   30.8190  -11.9664 
1459.1000    0.0004 5370.1792   67.9464 12236.2363    0.0004   25.1535   25.1398   25.1535    1.0000    0.7110 2186.0000   29.9285  -12.5271 
1459.2000    0.0004 5369.0547   67.7588 12510.3574    0.0004   25.0846   25.0697   25.0846    1.0000    0.7078 2185.0000   30.5566  -13.2466 
1459.3000    0.0007 5354.3115   66.3507 12537.9688    0.0007   24.5698   24.5437   24.5698    1.0000    0.6839 2195.0000   30.5608  -13.6703 
1459.4000    0.0009 5343.3721   65.5247 12477.7041    0.0009   24.2708   24.2348   24.2708    1.0000    0.6699 2187.0000   31.1363  -14.2169 
1459.5000    0.0012 5455.9380   64.8211 12452.4004    0.0012   24.0184   23.9715   24.0184    1.0000    0.6580 2183.0000   30.2981  -14.8995 
1459.6000    0.0015 5449.7212   64.2775 12470.5361    0.0015   23.8253   23.7678   23.8253    1.0000    0.6488 2178.0000   31.4817  -15.2725 
