~VERSION INFORMATION
 VERS.                 2.0:   CWLS LOG ASCII STANDARD - VERSION 2.0
 WRAP.                  NO:   SINGLE LINE PER DEPTH STEP
 CREA.                 09/07/2026 15:32:17
#CREATED USING IP VERSION 4.5.2019.2902 BY RADU VLADUTIU ON 09/07/2026 15:32:17
~WELL INFORMATION
#MNEM.UNIT       DATA                          DESCRIPTION MNEMONIC
#---------      ---------------------------   --------------------------
 STRT    .M         1340.0000                 : START DEPTH
 STOP    .M         2182.0000                 : STOP DEPTH
 STEP    .M         0.1000                    : STEP VALUE
 NULL    .      -999.0000                     : NULL VALUE
 DATE    .      09/07/2026                    : LAS file Creation Date
 WELL   .      187-Deleni               : Well Name
 COMP   .      S.N.G.N. Romgaz - Medias : Company
 FLD    .      Deleni                   : Field
 STATE  .      Romania                  : State
 UWI    .                               : Unique Well Identifier (UWI)
 LOC    .                               : Location
 EPDAT  .      0.0000                   : Elevation of Permanent Datum
 RWS    .      -999                     : Def_Rw
 WST    .      -999                     : Def_Rwt
 CNTY   .      Sibiu                    : County
 PROV   .                               : Province
 SRVC   .      PROSPECTIUNI             : Contractor
 GDAT   .      WGS 84                   : Geodatum
 LONG   .      0                        : Longitude
 LATI   .      0                        : Latitude
 COORDIN.                               : Grid System
 XCOORD .                               : X or East-West Coordinate
 YCOORD .                               : Y or North-South Coordinate
~CURVE INFORMATION
#MNEM              UNIT       API CODE   Curve Type Comments
#----------  --------------- ----------  ---------- -----------
 DEPTH      .M                         : Depth       
 BVWRAS     .Dec                       : BVWtdt      
 LS         .CPS                       :             Far Average Capture Rates
 GR         .GAPI                      : GammaRay    Gamma Ray
 SS         .CPS                       :             Near Average Capture Rates
 PHIE       .Dec                       : Phi         
 SigRec     .cu                        :             
 SigRecHyd  .cu                        :             
 SigRecWat  .cu                        :             
 SwRAS      .Dec                       : SwTDT       
 VCL        .Dec                       : Vcl         
 CCL        .                          : CollarLoc.  Casing Collar Locator
 SGFC       .CU                        :             Reservoir Sigma
 PS         .MV                        : SP          
~A  DEPTH   BVWRAS      LS        GR        SS       PHIE     SigRec  SigRecHy~ SigRecWa~   SwRAS      VCL       CCL       SGFC       PS    
# ...
2063.9000    0.0057 5899.0884   70.3316 14488.0400    0.0057   25.5747   25.1378   25.5747    1.0000    0.5628 2183.0000   33.2053    4.7873 
2064.0000    0.0128 5915.8354   67.1676 14492.4482    0.0128   24.9211   23.9388   24.9211    1.0000    0.5109 2150.0000   34.0451    4.6764 
2064.1000    0.0164 5935.7827   66.0773 14509.9775    0.0164   24.7798   23.5205   24.7798    1.0000    0.4931 2158.0000   33.5493    4.5656 
2064.2000    0.0193 5944.8218   65.3175 14522.0615    0.0193   24.7101   23.2272   24.7101    1.0000    0.4806 2191.0000   33.4061    4.0211 
2064.3000    0.0163 5895.3794   66.0925 14333.6055    0.0163   24.7815   23.5263   24.7815    1.0000    0.4933 2191.0000   34.1230    3.8421 
2064.4000    0.0119 5910.1934   67.4452 14383.5859    0.0119   24.9645   24.0449   24.9645    1.0000    0.5155 2163.0000   33.3891    3.6632 
2064.5000    0.0096 6005.8203   68.3527 14433.8350    0.0096   25.1266   24.3903   25.1266    1.0000    0.5304 2155.0000   33.0619    3.1634 
2064.6000    0.0104 6106.2935   68.0151 14447.4766    0.0104   25.0628   24.2620   25.0628    1.0000    0.5248 2202.0000   31.5885    2.9409 
2064.7000    0.0290 6325.3828   63.2154 14858.8564    0.0290   24.6377   22.4082   24.6377    1.0000    0.4462 2180.0000   29.8997    2.7185 
2064.8000    0.0431 6440.1514   60.6627 15048.8633    0.0431   24.7232   21.4029   24.7232    1.0000    0.4043 2178.0000   27.9496    2.3495 
2064.9000    0.0503 6568.7637   59.3645 15164.6035    0.0503   24.7671   20.8916   24.7671    1.0000    0.3830 2177.0000   26.9076    2.3670 
2065.0000    0.0523 6750.3408   58.9779 15537.4844    0.0523   24.7681   20.7400   24.7681    1.0000    0.3767 2189.0000   25.8298    2.3846 
2065.1000    0.0542 6684.3125   58.5854 15493.3750    0.0542   24.7592   20.5868   24.7592    1.0000    0.3703 2178.0000   26.5691    2.3583 
2065.2000    0.0572 6622.9409   57.8442 15453.6445    0.0572   24.7024   20.3000   24.7024    1.0000    0.3581 2168.0000   27.1654    2.3651 
2065.3000    0.0597 6412.9204   56.5312 15125.7617    0.0597   24.4018   19.8043   24.4018    1.0000    0.3366 2171.0000   29.1372    2.3718 
2065.4000    0.0588 6275.1680   57.1282 14842.7080    0.0588   24.5582   20.0285   24.5582    1.0000    0.3464 2177.0000   29.5405    2.3662 
2065.5000    0.0527 6105.5054   58.8979 14644.2646    0.0527   24.7672   20.7088   24.7672    1.0000    0.3754 2187.0000   31.2087    2.3661 
2065.6000    0.0267 5850.7163   63.6564 14452.5977    0.0267   24.6391   22.5808   24.6391    1.0000    0.4534 2190.0000   31.9912    2.3667 
2065.7000    0.0186 5796.8613   65.4730 14442.5293    0.0186   24.7224   23.2873   24.7224    1.0000    0.4832 2169.0000   32.3967    2.4065 
2065.8000    0.0124 5755.4595   67.2856 14487.8789    0.0124   24.9392   23.9839   24.9392    1.0000    0.5129 2188.0000   32.9605    2.4519 
2065.9000    0.0031 5755.0215   72.3955 14542.9502    0.0031   26.1512   25.9105   26.1512    1.0000    0.5966 2206.0000   32.8273    2.7814 
2066.0000    0.0019 5777.9604   73.9450 14424.9189    0.0019   26.6361   26.4874   26.6361    1.0000    0.6220 2179.0000   32.7435    2.9774 
2066.1000    0.0021 5863.8159   73.6971 14443.0889    0.0021   26.5562   26.3953   26.5562    1.0000    0.6180 2200.0000   32.8830    3.1782 
2066.2000    0.0033 5922.5850   72.2041 14519.4326    0.0033   26.0940   25.8391   26.0940    1.0000    0.5935 2204.0000   32.4672    3.5863 
2066.3000    0.0089 5965.2441   68.6161 14555.5703    0.0089   25.1791   24.4903   25.1791    1.0000    0.5347 2167.0000   30.6712    4.1302 
2066.4000    0.0143 5911.7915   66.6883 14607.5098    0.0143   24.8531   23.7553   24.8531    1.0000    0.5031 2180.0000   30.6583    4.6709 
2066.5000    0.0215 5937.6987   64.7870 14584.5986    0.0215   24.6754   23.0215   24.6754    1.0000    0.4719 2165.0000   31.3062    5.0849 
2066.6000    0.0313 5922.1934   62.7671 14195.3115    0.0313   24.6428   22.2322   24.6428    1.0000    0.4388 2162.0000   30.2428    5.2398 
2066.7000    0.0319 5896.9883   62.6641 14106.9258    0.0319   24.6448   22.1918   24.6448    1.0000    0.4371 2181.0000   30.9502    5.4024 
2066.8000    0.0293 5864.7896   63.1472 14046.2344    0.0293   24.6381   22.3814   24.6381    1.0000    0.4450 2173.0000   31.2629    5.8081 
2066.9000    0.0126 5863.0186   67.2269 14136.3281    0.0126   24.9301   23.9615   24.9301    1.0000    0.5119 2188.0000   31.2815    6.0289 
2067.0000    0.0066 5982.5928   69.7502 14412.2793    0.0066   25.4309   24.9189   25.4309    1.0000    0.5533 2184.0000   30.9873    6.2550 
2067.1000    0.0042 5963.3184   71.4290 14609.0205    0.0042   25.8696   25.5494   25.8696    1.0000    0.5808 2177.0000   30.7098    6.6268 
2067.2000    0.0027 6003.2529   72.9322 14804.0859    0.0027   26.3150   26.1106   26.3150    1.0000    0.6054 2211.0000   30.4249    6.7867 
2067.3000    0.0030 5992.5967   72.5367 14835.1572    0.0030   26.1938   25.9632   26.1938    1.0000    0.5990 2177.0000   30.0615    6.9439 
2067.4000    0.0048 6018.9741   70.9098 14879.5293    0.0048   25.7265   25.3548   25.7265    1.0000    0.5723 2170.0000   31.1165    7.0317 
2067.5000    0.0108 6091.8013   67.8685 14813.0146    0.0108   25.0364   24.2063   25.0364    1.0000    0.5224 2192.0000   32.0980    7.1878 
2067.6000    0.0080 6063.4844   69.0678 14798.0742    0.0080   25.2745   24.6613   25.2745    1.0000    0.5421 2174.0000   31.8461    7.3495 
2067.7000    0.0036 6090.1323   71.9022 14887.6914    0.0036   26.0052   25.7263   26.0052    1.0000    0.5886 2165.0000   32.1576    7.6365 
2067.8000    0.0016 6137.9341   74.5198 14969.8594    0.0016   26.8244   26.7009   26.8244    1.0000    0.6315 2177.0000   31.4235    7.7198 
2067.9000    0.0021 6205.6860   73.7389 15079.9297    0.0021   26.5696   26.4108   26.5696    1.0000    0.6187 2186.0000   31.6038    7.8095 
2068.0000    0.0046 6217.4458   71.0893 15144.2861    0.0046   25.7753   25.4221   25.7753    1.0000    0.5752 2157.0000   31.0671    8.0239 
2068.1000    0.0087 6195.5371   68.7383 15218.6895    0.0087   25.2043   24.5366   25.2043    1.0000    0.5367 2180.0000   31.2067    7.9374 
2068.2000    0.0111 6204.3706   67.7656 15295.2998    0.0111   25.0183   24.1671   25.0183    1.0000    0.5207 2192.0000   30.9706    7.8269 
2068.3000    0.0115 6176.6895   67.6065 15308.7852    0.0115   24.9911   24.1064   24.9911    1.0000    0.5181 2158.0000   31.0202    7.2457 
2068.4000    0.0159 6111.5117   66.1960 15169.6836    0.0159   24.7929   23.5662   24.7929    1.0000    0.4950 2192.0000   31.2369    6.8070 
2068.5000    0.0270 5981.0845   63.6010 14995.3721    0.0270   24.6385   22.5592   24.6385    1.0000    0.4525 2191.0000   31.4934    6.3258 
2068.6000    0.0234 5935.6450   64.3486 14786.6240    0.0234   24.6554   22.8510   24.6554    1.0000    0.4647 2196.0000   31.6665    5.1250 
2068.7000    0.0188 5926.7383   65.4325 14617.5918    0.0188   24.7191   23.2717   24.7191    1.0000    0.4825 2189.0000   32.3542    5.0623 
2068.8000    0.0117 5802.2612   67.5190 14559.0332    0.0117   24.9766   24.0731   24.9766    1.0000    0.5167 2170.0000   32.2097    4.9956 
2068.9000    0.0069 5788.3667   69.6052 14599.8105    0.0069   25.3965   24.8643   25.3965    1.0000    0.5509 2155.0000   32.0490    4.8616 
2069.0000    0.0037 5833.2202   71.8531 14601.4961    0.0037   25.9909   25.7080   25.9909    1.0000    0.5878 2154.0000   31.7234    4.7114 
2069.1000    0.0023 5923.8853   73.3753 14883.3955    0.0023   26.4537   26.2756   26.4537    1.0000    0.6127 2175.0000   32.0568    4.3091 
2069.2000    0.0026 5997.9492   73.0611 14923.1719    0.0026   26.3550   26.1586   26.3550    1.0000    0.6076 2167.0000   31.9783    4.1225 
2069.3000    0.0027 6027.0752   72.8944 15063.2832    0.0027   26.3033   26.0965   26.3033    1.0000    0.6048 2177.0000   31.5999    3.9489 
2069.4000    0.0028 6166.8198   72.7924 15160.5430    0.0028   26.2719   26.0585   26.2719    1.0000    0.6032 2169.0000   31.2626    3.9922 
2069.5000    0.0043 6335.7588   71.3420 15418.6377    0.0043   25.8452   25.5168   25.8452    1.0000    0.5794 2189.0000   30.4298    4.2580 
