~VERSION INFORMATION
 VERS.                 2.0:   CWLS LOG ASCII STANDARD - VERSION 2.0
 WRAP.                  NO:   SINGLE LINE PER DEPTH STEP
 CREA.                 09/07/2026 15:32:17
#CREATED USING IP VERSION 4.5.2019.2902 BY RADU VLADUTIU ON 09/07/2026 15:32:17
~WELL INFORMATION
#MNEM.UNIT       DATA                          DESCRIPTION MNEMONIC
#---------      ---------------------------   --------------------------
 STRT    .M         1340.0000                 : START DEPTH
 STOP    .M         2182.0000                 : STOP DEPTH
 STEP    .M         0.1000                    : STEP VALUE
 NULL    .      -999.0000                     : NULL VALUE
 DATE    .      09/07/2026                    : LAS file Creation Date
 WELL   .      187-Deleni               : Well Name
 COMP   .      S.N.G.N. Romgaz - Medias : Company
 FLD    .      Deleni                   : Field
 STATE  .      Romania                  : State
 UWI    .                               : Unique Well Identifier (UWI)
 LOC    .                               : Location
 EPDAT  .      0.0000                   : Elevation of Permanent Datum
 RWS    .      -999                     : Def_Rw
 WST    .      -999                     : Def_Rwt
 CNTY   .      Sibiu                    : County
 PROV   .                               : Province
 SRVC   .      PROSPECTIUNI             : Contractor
 GDAT   .      WGS 84                   : Geodatum
 LONG   .      0                        : Longitude
 LATI   .      0                        : Latitude
 COORDIN.                               : Grid System
 XCOORD .                               : X or East-West Coordinate
 YCOORD .                               : Y or North-South Coordinate
~CURVE INFORMATION
#MNEM              UNIT       API CODE   Curve Type Comments
#----------  --------------- ----------  ---------- -----------
 DEPTH      .M                         : Depth       
 BVWRAS     .Dec                       : BVWtdt      
 LS         .CPS                       :             Far Average Capture Rates
 GR         .GAPI                      : GammaRay    Gamma Ray
 SS         .CPS                       :             Near Average Capture Rates
 PHIE       .Dec                       : Phi         
 SigRec     .cu                        :             
 SigRecHyd  .cu                        :             
 SigRecWat  .cu                        :             
 SwRAS      .Dec                       : SwTDT       
 VCL        .Dec                       : Vcl         
 CCL        .                          : CollarLoc.  Casing Collar Locator
 SGFC       .CU                        :             Reservoir Sigma
 PS         .MV                        : SP          
~A  DEPTH   BVWRAS      LS        GR        SS       PHIE     SigRec  SigRecHy~ SigRecWa~   SwRAS      VCL       CCL       SGFC       PS    
# ...
1841.6000    0.0389 6850.8057   56.3137 14702.6748    0.0389   24.6890   21.6934   24.6890    0.9735    0.4164 2181.0000   27.9811    0.0867 
1841.7000    0.0328 7031.7627   57.5311 15166.4053    0.0328   24.6488   22.1238   24.6488    0.9402    0.4343 2175.0000   26.1004   -0.2168 
1841.8000    0.0513 7154.6797   60.4389 15995.1182    0.0591   23.9089   19.9621   24.5119    0.8999    0.3435 2199.0000   23.9089   -0.7739 
1841.9000    0.0510 7179.2319   59.8751 16298.1738    0.0612   23.3604   19.4365   24.1453    0.8531    0.3205 2180.0000   23.3604   -1.0603 
1842.0000    0.0506 7245.4380   57.9514 16489.8633    0.0634   22.7616   18.8626   23.7450    0.8237    0.2955 2163.0000   22.7616   -1.3650 
1842.1000    0.0503 7254.2896   53.3541 16084.5371    0.0657   22.1635   18.2894   23.3453    0.8184    0.2704 2180.0000   22.1635   -1.8282 
1842.2000    0.0511 7235.6592   52.3591 15708.5938    0.0599   23.6825   19.7452   24.3606    0.8245    0.3340 2174.0000   23.6825   -1.8661 
1842.3000    0.0510 7253.1982   52.9646 15496.6338    0.0607   23.4796   19.5507   24.2250    0.8139    0.3255 2164.0000   23.4796   -1.9100 
1842.4000    0.0512 7403.4971   55.1672 15746.1279    0.0593   23.8581   19.9135   24.4780    0.8072    0.3413 2171.0000   23.8581   -2.0306 
1842.5000    0.0501 7912.1089   59.8036 16655.5176    0.0672   21.7507   17.8938   23.0693    0.7807    0.2532 2167.0000   21.7507   -2.3486 
1842.6000    0.0500 8090.6172   59.0143 17215.6816    0.0682   21.4996   17.6532   22.9015    0.7535    0.2427 2193.0000   21.4996   -2.7025 
1842.7000    0.0498 8215.7256   55.8176 17638.4863    0.0691   21.2402   17.4046   22.7281    0.7255    0.2318 2177.0000   21.2402   -3.2508 
1842.8000    0.0496 8048.5049   49.4338 17382.5430    0.0704   20.8991   17.0777   22.5001    0.7334    0.2175 2158.0000   20.8991   -3.5458 
1842.9000    0.0499 7811.9609   48.9396 16708.5078    0.0689   21.3126   17.4739   22.7765    0.7868    0.2348 2163.0000   21.3126   -3.8865 
1843.0000    0.0505 7378.3433   49.6987 15827.3428    0.0643   22.5165   18.6277   23.5812    0.8427    0.2852 2162.0000   22.5165   -4.3864 
1843.1000    0.0600 6327.1812   50.6752 13908.3848    0.0600   24.3520   19.7329   24.3520    0.9018    0.3335 2213.0000   25.8271   -4.4365 
1843.2000    0.0597 5922.5352   50.9153 13217.0928    0.0597   24.4084   19.8137   24.4084    0.9570    0.3370 2162.0000   27.6810   -4.4828 
1843.3000    0.0572 5609.0635   52.3346 12787.5859    0.0572   24.7006   20.2944   24.7006    1.0000    0.3579 2264.0000   29.8554   -4.4365 
1843.4000    0.0229 5299.3110   59.7401 12529.5537    0.0229   24.6603   22.8993   24.6603    1.0000    0.4668 2539.0000   35.4078   -4.0639 
1843.5000    0.0104 5211.1450   63.6788 12655.1455    0.0104   25.0612   24.2586   25.0612    1.0000    0.5247 2150.0000   35.3872   -3.6933 
1843.6000    0.0056 5261.3101   66.3533 12888.7656    0.0056   25.5935   25.1654   25.5935    1.0000    0.5640 2208.0000   34.8699   -3.3311 
1843.7000    0.0041 5690.7598   67.5067 13266.0488    0.0041   25.8727   25.5534   25.8727    1.0000    0.5810 2185.0000   33.4200   -2.8903 
1843.8000    0.0053 5943.1362   66.5518 13640.8262    0.0053   25.6397   25.2323   25.6397    1.0000    0.5669 2157.0000   32.1264   -2.2646 
1843.9000    0.0079 6245.9497   64.8769 14230.1943    0.0079   25.2774   24.6662   25.2774    0.9624    0.5423 2169.0000   29.2597   -1.9487 
1844.0000    0.0304 6625.6494   62.4344 14937.2314    0.0304   24.6402   22.2967   24.6402    0.9198    0.4415 2155.0000   26.2518   -1.7898 
1844.1000    0.0508 7414.8550   56.1712 16512.4668    0.0625   23.0020   19.0930   23.9057    0.8673    0.3055 2160.0000   23.0020   -2.0974 
1844.2000    0.0505 7753.3242   53.1831 17206.2188    0.0642   22.5503   18.6601   23.6038    0.8099    0.2866 2174.0000   22.5503   -2.3567 
1844.3000    0.0500 7974.0718   50.0602 17681.4707    0.0678   21.5870   17.7369   22.9599    0.7678    0.2463 2172.0000   21.5870   -2.6951 
1844.4000    0.0497 8334.4629   43.5624 17686.9746    0.0697   21.0888   17.2595   22.6269    0.7722    0.2255 2143.0000   21.0888   -3.1669 
1844.5000    0.0568 8274.9639   41.6386 17427.4629    0.0719   21.0627   16.6890   22.2291    0.7859    0.2006 2167.0000   21.0627   -3.4283 
1844.6000    0.0607 8177.9673   41.0178 17074.3555    0.0728   21.1528   16.4799   22.0832    0.8027    0.1914 2155.0000   21.1528   -3.7721 
1844.7000    0.0617 7986.2451   41.4805 16257.2998    0.0722   21.3898   16.6357   22.1919    0.8063    0.1982 2167.0000   21.3898   -4.2280 
1844.8000    0.0582 7967.2300   42.3997 16224.5850    0.0709   21.4297   16.9454   22.4079    0.7862    0.2118 2185.0000   21.4297   -4.4861 
1844.9000    0.0499 8021.1919   44.6962 16438.7949    0.0683   21.4710   17.6257   22.8824    0.7587    0.2415 2148.0000   21.4710   -4.8476 
1845.0000    0.0494 8105.7563   50.2702 16996.6543    0.0717   20.5498   16.7429   22.2667    0.7246    0.2029 2168.0000   20.5498   -5.2937 
1845.1000    0.0495 8253.9229   49.8304 17337.8652    0.0711   20.7087   16.8952   22.3729    0.7030    0.2096 2178.0000   20.7087   -5.4572 
1845.2000    0.0494 8322.4434   47.1505 17553.8125    0.0721   20.4523   16.6495   22.2015    0.7117    0.1988 2177.0000   20.4523   -5.5544 
1845.3000    0.0503 8204.7510   42.7531 17231.8145    0.0705   20.9343   17.0644   22.4909    0.7712    0.2170 2203.0000   20.9343   -5.4246 
1845.4000    0.0549 8045.9224   42.4588 16674.9590    0.0709   21.1933   16.9653   22.4218    0.8320    0.2126 2175.0000   21.1933   -5.1097 
1845.5000    0.0699 7824.1572   42.4726 16187.0645    0.0708   22.3535   16.9699   22.4250    0.8950    0.2128 2177.0000   22.3535   -4.7126 
1845.6000    0.0712 7522.1870   42.2174 15650.4492    0.0712   22.3650   16.8840   22.3650    0.9524    0.2091 2155.0000   23.0019   -4.2816 
1845.7000    0.0706 7098.5518   42.6763 14885.4443    0.0706   22.4729   17.0385   22.4729    0.9974    0.2158 2168.0000   24.8591   -4.0302 
1845.8000    0.0684 6954.2261   44.2830 14706.9072    0.0684   22.8503   17.5797   22.8503    1.0000    0.2395 2186.0000   25.4446   -3.7663 
1845.9000    0.0658 6883.6064   46.3113 14737.3223    0.0658   23.3268   18.2629   23.3268    1.0000    0.2693 2179.0000   27.2306   -3.4331 
1846.0000    0.0618 6733.7153   49.2762 14878.9082    0.0618   24.0233   19.2616   24.0233    1.0000    0.3129 2176.0000   26.3074   -3.0247 
1846.1000    0.0611 6672.9375   49.8703 14949.4385    0.0611   24.1629   19.4618   24.1629    1.0000    0.3216 2187.0000   26.5423   -2.7597 
1846.2000    0.0606 6574.4463   50.2197 14817.7646    0.0606   24.2450   19.5794   24.2450    1.0000    0.3268 2189.0000   26.5921   -2.7065 
1846.3000    0.0587 6324.2905   51.6857 14375.4590    0.0587   24.5894   20.0732   24.5894    1.0000    0.3483 2190.0000   27.3157   -2.6670 
1846.4000    0.0538 6120.2109   53.2715 14094.4238    0.0538   24.7621   20.6198   24.7621    1.0000    0.3716 2210.0000   28.2929   -2.9399 
1846.5000    0.0420 5926.2983   55.7187 13802.7666    0.0420   24.7138   21.4828   24.7138    1.0000    0.4076 2182.0000   29.4217   -3.5410 
1846.6000    0.0116 5666.7188   63.1916 13462.3018    0.0116   24.9848   24.0921   24.9848    1.0000    0.5175 2166.0000   32.4018   -4.0563 
1846.7000    0.0042 5568.9028   67.4431 13371.7881    0.0042   25.8567   25.5321   25.8567    1.0000    0.5800 2175.0000   32.6286   -4.3944 
1846.8000    0.0015 5585.1572   71.0993 13471.2500    0.0015   26.8718   26.7539   26.8718    1.0000    0.6338 2177.0000   33.7651   -4.5278 
1846.9000    0.0036 5799.2310   73.4060 13805.7656    0.0036   26.0102   25.7327   26.0102    1.0000    0.5888 2162.0000   29.7733   -4.8826 
1847.0000    0.0064 6085.3091   71.4440 14198.6904    0.0064   25.4609   24.9659   25.4609    1.0000    0.5553 2184.0000   28.9723   -5.3512 
1847.1000    0.0251 6380.5815   67.9914 14749.9102    0.0251   24.6450   22.7157   24.6450    0.9428    0.4590 2191.0000   26.6711   -5.6881 
1847.2000    0.0421 6755.7378   63.8203 15509.9463    0.0421   24.7145   21.4764   24.7145    0.8796    0.4074 2172.0000   25.4359   -6.0283 
