~VERSION INFORMATION
 VERS.                 2.0:   CWLS LOG ASCII STANDARD - VERSION 2.0
 WRAP.                  NO:   SINGLE LINE PER DEPTH STEP
 CREA.                 09/07/2026 15:32:17
#CREATED USING IP VERSION 4.5.2019.2902 BY RADU VLADUTIU ON 09/07/2026 15:32:17
~WELL INFORMATION
#MNEM.UNIT       DATA                          DESCRIPTION MNEMONIC
#---------      ---------------------------   --------------------------
 STRT    .M         1340.0000                 : START DEPTH
 STOP    .M         2182.0000                 : STOP DEPTH
 STEP    .M         0.1000                    : STEP VALUE
 NULL    .      -999.0000                     : NULL VALUE
 DATE    .      09/07/2026                    : LAS file Creation Date
 WELL   .      187-Deleni               : Well Name
 COMP   .      S.N.G.N. Romgaz - Medias : Company
 FLD    .      Deleni                   : Field
 STATE  .      Romania                  : State
 UWI    .                               : Unique Well Identifier (UWI)
 LOC    .                               : Location
 EPDAT  .      0.0000                   : Elevation of Permanent Datum
 RWS    .      -999                     : Def_Rw
 WST    .      -999                     : Def_Rwt
 CNTY   .      Sibiu                    : County
 PROV   .                               : Province
 SRVC   .      PROSPECTIUNI             : Contractor
 GDAT   .      WGS 84                   : Geodatum
 LONG   .      0                        : Longitude
 LATI   .      0                        : Latitude
 COORDIN.                               : Grid System
 XCOORD .                               : X or East-West Coordinate
 YCOORD .                               : Y or North-South Coordinate
~CURVE INFORMATION
#MNEM              UNIT       API CODE   Curve Type Comments
#----------  --------------- ----------  ---------- -----------
 DEPTH      .M                         : Depth       
 BVWRAS     .Dec                       : BVWtdt      
 LS         .CPS                       :             Far Average Capture Rates
 GR         .GAPI                      : GammaRay    Gamma Ray
 SS         .CPS                       :             Near Average Capture Rates
 PHIE       .Dec                       : Phi         
 SigRec     .cu                        :             
 SigRecHyd  .cu                        :             
 SigRecWat  .cu                        :             
 SwRAS      .Dec                       : SwTDT       
 VCL        .Dec                       : Vcl         
 CCL        .                          : CollarLoc.  Casing Collar Locator
 SGFC       .CU                        :             Reservoir Sigma
 PS         .MV                        : SP          
~A  DEPTH   BVWRAS      LS        GR        SS       PHIE     SigRec  SigRecHy~ SigRecWa~   SwRAS      VCL       CCL       SGFC       PS    
# ...
1676.3000    0.0148 6370.0337   65.8508 15030.8691    0.0148   19.1688   18.5897   19.1688    1.0000    0.4915 2176.0000   24.9840   -2.5587 
1676.4000    0.0175 6391.1543   67.3143 15159.7607    0.0175   19.0309   18.3503   19.0309    1.0000    0.4791 2182.0000   24.7426   -2.7707 
1676.5000    0.0188 6436.1904   67.6604 15212.8818    0.0188   18.9664   18.2314   18.9664    1.0000    0.4730 2181.0000   24.6230   -3.0134 
1676.6000    0.0210 6447.6270   64.1902 14988.7549    0.0210   18.8772   18.0586   18.8772    1.0000    0.4641 2176.0000   24.4497   -3.2471 
1676.7000    0.0165 6393.6851   62.8455 14771.9287    0.0165   19.0786   18.4353   19.0786    1.0000    0.4835 2174.0000   24.8282   -3.5338 
1676.8000    0.0111 6355.4814   62.7207 14580.0322    0.0111   19.4256   18.9929   19.4256    1.0000    0.5125 2171.0000   25.3929   -3.6924 
1676.9000    0.0100 6479.0391   64.6735 14677.5293    0.0100   19.5209   19.1317   19.5209    1.0000    0.5197 2170.0000   25.5344   -3.8087 
1677.0000    0.0119 6625.1367   66.3501 15114.4443    0.0119   19.3598   18.8939   19.3598    1.0000    0.5073 2176.0000   25.2923   -4.3201 
1677.1000    0.0267 6826.8501   68.4548 15606.8633    0.0267   18.6825   17.6409   18.6825    1.0000    0.4427 2167.0000   24.0328   -4.6690 
1677.2000    0.0466 7077.4180   70.5973 16198.1787    0.0466   18.1534   16.3355   18.1534    1.0000    0.3763 2172.0000   22.7373   -4.9358 
1677.3000    0.0566 7371.7070   69.4469 16861.5684    0.0566   16.9534   14.7467   16.9534    1.0000    0.2927 2182.0000   21.1082   -5.0937 
1677.4000    0.0571 7423.2090   64.0355 16874.6406    0.0571   16.8584   14.6329   16.8584    1.0000    0.2867 2180.0000   20.9907   -5.3185 
1677.5000    0.0581 7419.8281   57.1499 16643.0098    0.0581   16.6472   14.3800   16.6472    1.0000    0.2733 2175.0000   20.7294   -5.5724 
1677.6000    0.0533 7211.8330   50.2640 16022.8789    0.0533   17.6035   15.5255   17.6035    1.0000    0.3340 2179.0000   21.9126   -5.7249 
1677.7000    0.0507 7013.0562   52.4581 15847.8945    0.0507   17.9754   15.9998   17.9754    1.0000    0.3590 2175.0000   22.4002   -5.8535 
1677.8000    0.0421 6753.3423   56.3401 15665.9844    0.0421   18.2859   16.6441   18.2859    1.0000    0.3920 2173.0000   23.0443   -5.9839 
1677.9000    0.0235 6355.9976   60.1057 15020.8096    0.0235   18.7867   17.8718   18.7867    1.0000    0.4545 2186.0000   24.2630   -5.9047 
1678.0000    0.0243 6160.7383   59.4619 14580.5732    0.0243   18.7573   17.8085   18.7573    1.0000    0.4513 2170.0000   24.1998   -5.8204 
1678.1000    0.0116 5943.2637   59.4749 14024.2236    0.0116   19.3852   18.9325   19.3852    1.0000    0.5093 2171.0000   25.3315   -5.7526 
1678.2000    0.0040 5641.2227   65.8051 13204.3516    0.0040   20.3699   20.2153   20.3699    1.0000    0.5768 2187.0000   26.6483   -5.3189 
1678.3000    0.0002 5583.0659   69.6832 13060.0703    0.0002   23.0447   23.0381   23.0447    1.0000    0.7279 2180.0000   29.5938   -5.0147 
1678.4000    0.0002 5580.0908   71.6795 13164.1133    0.0002   23.0633   23.0568   23.0633    1.0000    0.7289 2181.0000   29.6134   -4.7795 
1678.5000    0.0022 5904.5513   71.3817 13876.9082    0.0022   20.8926   20.8053   20.8926    1.0000    0.6082 2178.0000   27.2605   -4.5137 
1678.6000    0.0095 6270.1729   71.3605 14613.6064    0.0095   19.5688   19.1997   19.5688    1.0000    0.5233 2177.0000   25.6038   -4.3159 
1678.7000    0.0272 6708.4722   71.1749 15405.7471    0.0272   18.6682   17.6077   18.6682    1.0000    0.4410 2178.0000   23.9998   -4.1405 
1678.8000    0.0451 7148.0107   69.4151 16238.8877    0.0451   18.2022   16.4439   18.2022    1.0000    0.3818 2176.0000   22.8453   -4.0293 
1678.9000    0.0586 7732.4707   58.4297 17527.9766    0.0586   16.5604   14.2760   16.5604    1.0000    0.2678 2179.0000   20.6220   -3.9368 
1679.0000    0.0622 7808.8999   51.0291 17656.6367    0.0622   15.8543   13.4300   15.8543    1.0000    0.2230 2188.0000   19.7483   -3.7501 
1679.1000    0.0631 7785.6597   45.1016 17450.3086    0.0631   15.6622   13.1999   15.6622    1.0000    0.2108 2174.0000   19.5106   -3.8426 
1679.2000    0.0619 7342.5620   41.9697 16265.8154    0.0619   15.9082   13.4946   15.9082    1.0000    0.2264 2092.0000   19.8150   -4.0241 
1679.3000    0.0604 6978.7559   44.9299 15483.2207    0.0604   16.2027   13.8474   16.2027    1.0000    0.2451 2141.0000   20.1794   -4.1235 
1679.4000    0.0540 6649.2764   50.6072 14922.7783    0.0540   17.4524   15.3445   17.4524    1.0000    0.3244 2181.0000   21.7256   -4.2653 
1679.5000    0.0332 6243.8081   64.1011 14290.4756    0.0332   18.5072   17.2134   18.5072    1.0000    0.4209 2177.0000   23.6084   -4.4263 
1679.6000    0.0159 6201.1606   67.5715 14439.4912    0.0159   19.1117   18.4927   19.1117    1.0000    0.4865 2178.0000   24.8861   -4.7099 
1679.7000    0.0147 6197.7861   67.8624 14678.9609    0.0147   19.1805   18.6091   19.1805    1.0000    0.4925 2180.0000   25.0036   -4.8460 
1679.8000    0.0155 6353.7700   63.8592 15031.9219    0.0155   19.1296   18.5236   19.1296    1.0000    0.4881 2172.0000   24.9172   -4.9291 
1679.9000    0.0163 6433.1987   61.4634 15132.2773    0.0163   19.0908   18.4565   19.0908    1.0000    0.4846 2187.0000   24.8496   -4.9668 
1680.0000    0.0184 6415.5864   59.4635 15119.4941    0.0184   18.9885   18.2728   18.9885    1.0000    0.4751 2182.0000   24.6646   -4.9897 
1680.1000    0.0125 6358.6123   58.3650 14858.5938    0.0125   19.3230   18.8374   19.3230    1.0000    0.5044 2176.0000   25.2349   -5.0121 
1680.2000    0.0097 6366.2036   59.1658 14872.7773    0.0097   19.5439   19.1646   19.5439    1.0000    0.5214 2176.0000   25.5679   -5.0371 
1680.3000    0.0070 6349.2695   60.5021 14893.6357    0.0070   19.8479   19.5759   19.8479    1.0000    0.5430 2183.0000   25.9890   -5.0971 
1680.4000    0.0052 6306.0244   62.0049 14924.4570    0.0052   20.1242   19.9225   20.1242    1.0000    0.5613 2179.0000   26.3458   -5.1669 
1680.5000    0.0030 6142.1748   62.9109 14840.1699    0.0030   20.6243   20.5071   20.6243    1.0000    0.5923 2185.0000   26.9507   -5.2688 
1680.6000    0.0037 6152.8516   62.0116 14761.5293    0.0037   20.4372   20.2934   20.4372    1.0000    0.5810 2180.0000   26.7292   -5.4489 
1680.7000    0.0028 6153.3779   61.3563 14589.8721    0.0028   20.6889   20.5797   20.6889    1.0000    0.5962 2179.0000   27.0261   -5.6490 
1680.8000    0.0040 6174.4902   63.6094 14498.5078    0.0040   20.3513   20.1935   20.3513    1.0000    0.5757 2178.0000   26.6258   -5.8973 
1680.9000    0.0066 6215.4888   65.5643 14630.5439    0.0066   19.8983   19.6407   19.8983    1.0000    0.5464 2185.0000   26.0556   -6.1243 
1681.0000    0.0091 6212.1992   66.8644 14874.4902    0.0091   19.6090   19.2558   19.6090    1.0000    0.5262 2171.0000   25.6611   -6.3412 
1681.1000    0.0089 6337.3496   65.1964 15224.7051    0.0089   19.6251   19.2781   19.6251    1.0000    0.5274 2173.0000   25.6839   -6.5423 
1681.2000    0.0084 6285.8120   61.7769 15271.3896    0.0084   19.6787   19.3516   19.6787    1.0000    0.5312 2189.0000   25.7591   -6.7217 
1681.3000    0.0132 6234.2280   57.8705 15006.2275    0.0132   19.2743   18.7611   19.2743    1.0000    0.5004 2179.0000   25.1575   -6.8963 
1681.4000    0.0160 5990.4126   54.2557 14248.0078    0.0160   19.1029   18.4777   19.1029    1.0000    0.4857 2178.0000   26.3356   -7.0245 
1681.5000    0.0135 5887.5229   54.9282 13860.5039    0.0135   19.2529   18.7271   19.2529    1.0000    0.4986 2181.0000   26.7967   -7.1484 
1681.6000    0.0084 5784.3330   56.6279 13611.9844    0.0084   19.6797   19.3530   19.6797    1.0000    0.5313 2174.0000   27.1928   -7.2747 
1681.7000    0.0017 5562.2070   61.4147 13472.0684    0.0017   21.1539   21.0886   21.1539    1.0000    0.6234 2174.0000   27.6510   -7.1787 
1681.8000    0.0011 5568.6064   63.1888 13597.2676    0.0011   21.5290   21.4864   21.5290    1.0000    0.6446 2188.0000   27.9704   -6.9598 
1681.9000    0.0014 5622.2515   64.0729 13673.2822    0.0014   21.3221   21.2681   21.3221    1.0000    0.6330 2188.0000   27.7426   -6.7241 
