~VERSION INFORMATION
 VERS.                 2.0:   CWLS LOG ASCII STANDARD - VERSION 2.0
 WRAP.                  NO:   SINGLE LINE PER DEPTH STEP
 CREA.                 09/07/2026 15:32:17
#CREATED USING IP VERSION 4.5.2019.2902 BY RADU VLADUTIU ON 09/07/2026 15:32:17
~WELL INFORMATION
#MNEM.UNIT       DATA                          DESCRIPTION MNEMONIC
#---------      ---------------------------   --------------------------
 STRT    .M         1340.0000                 : START DEPTH
 STOP    .M         2182.0000                 : STOP DEPTH
 STEP    .M         0.1000                    : STEP VALUE
 NULL    .      -999.0000                     : NULL VALUE
 DATE    .      09/07/2026                    : LAS file Creation Date
 WELL   .      187-Deleni               : Well Name
 COMP   .      S.N.G.N. Romgaz - Medias : Company
 FLD    .      Deleni                   : Field
 STATE  .      Romania                  : State
 UWI    .                               : Unique Well Identifier (UWI)
 LOC    .                               : Location
 EPDAT  .      0.0000                   : Elevation of Permanent Datum
 RWS    .      -999                     : Def_Rw
 WST    .      -999                     : Def_Rwt
 CNTY   .      Sibiu                    : County
 PROV   .                               : Province
 SRVC   .      PROSPECTIUNI             : Contractor
 GDAT   .      WGS 84                   : Geodatum
 LONG   .      0                        : Longitude
 LATI   .      0                        : Latitude
 COORDIN.                               : Grid System
 XCOORD .                               : X or East-West Coordinate
 YCOORD .                               : Y or North-South Coordinate
~CURVE INFORMATION
#MNEM              UNIT       API CODE   Curve Type Comments
#----------  --------------- ----------  ---------- -----------
 DEPTH      .M                         : Depth       
 BVWRAS     .Dec                       : BVWtdt      
 LS         .CPS                       :             Far Average Capture Rates
 GR         .GAPI                      : GammaRay    Gamma Ray
 SS         .CPS                       :             Near Average Capture Rates
 PHIE       .Dec                       : Phi         
 SigRec     .cu                        :             
 SigRecHyd  .cu                        :             
 SigRecWat  .cu                        :             
 SwRAS      .Dec                       : SwTDT       
 VCL        .Dec                       : Vcl         
 CCL        .                          : CollarLoc.  Casing Collar Locator
 SGFC       .CU                        :             Reservoir Sigma
 PS         .MV                        : SP          
~A  DEPTH   BVWRAS      LS        GR        SS       PHIE     SigRec  SigRecHy~ SigRecWa~   SwRAS      VCL       CCL       SGFC       PS    
# ...
1397.0000    0.0881 7324.0293   53.8272 16395.9219    0.0881   21.2228   17.7850   21.2228    1.0000    0.3906 2179.0000   22.8638  -10.3429 
1397.1000    0.1147 7593.0435   51.6973 16975.7930    0.1147   21.4309   16.9593   21.4309    1.0000    0.3573 2192.0000   22.1676   -8.3024 
1397.2000    0.1333 7581.3623   51.5866 16997.9609    0.1333   21.4475   16.2470   21.4475    1.0000    0.3279 2182.0000   21.5530   -8.1550 
1397.3000    0.1301 7582.7935   51.3388 16785.8496    0.1301   21.4742   16.4021   21.4742    1.0000    0.3344 2183.0000   21.6894   -8.1235 
1397.4000    0.1289 7553.9771   50.4497 16481.4609    0.1289   21.4779   16.4524   21.4779    1.0000    0.3365 2177.0000   21.7332   -8.0381 
1397.5000    0.1355 7549.4844   51.4060 16517.4512    0.1355   21.3964   16.1103   21.3964    1.0000    0.3220 2162.0000   21.4305   -8.4927 
1397.6000    0.1357 7536.0903   53.3695 16758.0625    0.1357   21.3892   16.0972   21.3892    1.0000    0.3215 2173.0000   21.4185   -8.9813 
1397.7000    0.1229 7519.3203   56.1684 17114.0176    0.1229   21.4725   16.6789   21.4725    1.0000    0.3459 2161.0000   21.9286  -10.9863 
1397.8000    0.1176 7592.5498   55.6589 17142.5820    0.1176   21.4486   16.8620   21.4486    1.0000    0.3533 2171.0000   22.0849  -12.0952 
1397.9000    0.1028 7604.1704   53.9157 16898.1895    0.1028   21.3429   17.3338   21.3429    1.0000    0.3724 2165.0000   22.4839  -13.1383 
1398.0000    0.0977 7646.7017   51.6199 16748.5918    0.0977   21.3012   17.4908   21.3012    1.0000    0.3788 2174.0000   22.6161  -15.1087 
1398.1000    0.0946 7776.1763   48.9838 16787.8086    0.0946   21.2759   17.5850   21.2759    1.0000    0.3826 2166.0000   22.6954  -16.1973 
1398.2000    0.1022 7894.1274   48.5134 17079.0449    0.1022   21.3385   17.3509   21.3385    1.0000    0.3731 2178.0000   22.4983  -17.2201 
1398.3000    0.1133 8053.4312   47.1857 17435.9688    0.1133   21.4220   17.0032   21.4220    1.0000    0.3591 2191.0000   22.5086  -19.2065 
1398.4000    0.1458 8656.7568   41.9957 18727.5938    0.1458   20.6396   14.9543   20.6396    0.9940    0.2711 2175.0000   20.8438  -20.3097 
1398.5000    0.1530 8996.9229   39.8591 19301.2715    0.1530   20.1000   14.1322   20.1000    0.9669    0.2349 2183.0000   20.1231  -21.3432 
1398.6000    0.1533 9236.7480   38.3940 19768.7832    0.1580   19.6504   13.5685   19.7300    0.9370    0.2101 2187.0000   19.5454  -23.2690 
1398.7000    0.1434 9372.0293   36.4312 19700.1680    0.1659   18.3459   12.6674   19.1385    0.9066    0.1704 2176.0000   18.2607  -24.2849 
1398.8000    0.1443 9342.1094   35.3518 19235.5625    0.1696   17.9516   12.2491   18.8639    0.9002    0.1519 2157.0000   17.8756  -25.2259 
1398.9000    0.1475 9229.3096   33.7036 18752.0391    0.1739   17.5810   11.7639   18.5455    0.8894    0.1306 2203.0000   17.5157  -24.9738 
1399.0000    0.1746 8841.8711   31.7919 17794.0137    0.1804   17.8874   11.0284   18.0627    0.8908    0.0982 1989.0000   17.8383  -24.7369 
1399.1000    0.1572 8630.5625   34.3629 17643.4297    0.1717   18.2204   12.0176   18.7120    0.9011    0.1417 2139.0000   18.1495  -24.5087 
1399.2000    0.1430 8448.2158   39.0733 17884.0625    0.1642   18.5350   12.8680   19.2702    0.9171    0.1792 2162.0000   18.4454  -24.2811 
1399.3000    0.1413 8345.5293   46.0090 18354.6934    0.1565   19.3501   13.7326   19.8377    0.9108    0.2173 2206.0000   19.2415  -24.0536 
1399.4000    0.1399 8247.3037   46.2984 18268.9473    0.1508   19.9688   14.3889   20.2685    0.9212    0.2462 2168.0000   19.8457  -23.5153 
1399.5000    0.1395 8231.7188   46.1169 18153.3730    0.1490   20.1536   14.5849   20.3971    0.9470    0.2548 2160.0000   20.0262  -23.9963 
1399.6000    0.1380 8147.7793   47.0710 18030.1973    0.1425   20.8482   15.3217   20.8808    0.9665    0.2873 2205.0000   20.7046  -24.5675 
1399.7000    0.1213 8095.5215   52.8479 17626.2773    0.1213   21.4666   16.7352   21.4666    0.9809    0.3482 2167.0000   21.9768  -26.4719 
1399.8000    0.1120 8088.2534   55.1186 17557.2637    0.1120   21.4129   17.0458   21.4129    0.9937    0.3608 2175.0000   22.2408  -27.5674 
1399.9000    0.1270 8071.7061   55.5354 17586.8770    0.1270   21.4797   16.5263   21.4797    1.0000    0.3396 2161.0000   21.7973  -28.5797 
1400.0000    0.1361 8148.4790   53.0662 17955.1621    0.1361   21.3600   16.0518   21.3600    1.0000    0.3195 2167.0000   21.3768  -30.5192 
1400.1000    0.1359 8185.9688   52.2687 17937.8008    0.1359   21.3738   16.0729   21.3738    0.9998    0.3204 2177.0000   21.3962  -31.6213 
1400.2000    0.1356 8244.2139   52.6033 17972.0566    0.1356   21.3958   16.1091   21.3958    0.9998    0.3220 2176.0000   21.4294  -32.6371 
1400.3000    0.1367 8320.5811   54.3689 18061.5215    0.1368   21.3058   15.9692   21.3058    0.9998    0.3158 2172.0000   21.3007  -34.5693 
1400.4000    0.1343 8349.1172   54.4620 18162.5449    0.1343   21.4310   16.1919   21.4310    0.9998    0.3256 2182.0000   21.5040  -35.6581 
1400.5000    0.1077 8441.4619   54.3117 18264.9063    0.1077   21.3816   17.1809   21.3816    0.9998    0.3663 2171.0000   22.3550  -36.6564 
1400.6000    0.1144 8509.3838   54.5061 18571.9453    0.1144   21.4294   16.9667   21.4294    1.0000    0.3576 2179.0000   22.1738  -38.6010 
1400.7000    0.1177 8530.2285   54.8532 18789.2617    0.1177   21.4490   16.8595   21.4490    1.0000    0.3532 2180.0000   22.0828  -39.7247 
1400.8000    0.1188 8592.7168   55.4850 18867.8203    0.1188   21.4552   16.8203   21.4552    0.9996    0.3516 2173.0000   22.0494  -40.7560 
1400.9000    0.1300 8618.7441   56.3818 18832.9766    0.1300   21.4744   16.4037   21.4744    0.9993    0.3345 2170.0000   21.6908  -42.5103 
1401.0000    0.1368 8571.4336   55.7253 18657.9766    0.1370   21.2911   15.9469   21.2911    0.9993    0.3148 2175.0000   21.2802  -43.6641 
1401.1000    0.1367 8490.2217   54.6167 18345.9629    0.1370   21.2969   15.9557   21.2969    0.9993    0.3152 2186.0000   21.2883  -44.7472 
1401.2000    0.1366 8341.3037   53.9485 17996.6172    0.1366   21.3229   15.9952   21.3229    0.9993    0.3170 2171.0000   21.3247  -46.0747 
1401.3000    0.1071 8056.4277   56.1166 17403.0059    0.1071   21.3769   17.2003   21.3769    0.9997    0.3671 2193.0000   22.3714  -45.9741 
1401.4000    0.0913 7838.9487   58.2619 17073.8125    0.0913   21.2487   17.6864   21.2487    1.0000    0.3866 2185.0000   22.7808  -45.7160 
1401.5000    0.0937 7504.5259   60.3551 16814.6289    0.0937   21.2679   17.6144   21.2679    1.0000    0.3837 2186.0000   22.7202  -45.6514 
1401.6000    0.0629 7214.9585   63.4242 16009.0537    0.0629   21.0583   18.6064   21.0583    1.0000    0.4239 2190.0000   23.5601  -34.0324 
1401.7000    0.0584 7106.0024   64.2476 15740.8379    0.0584   21.0428   18.7646   21.0428    1.0000    0.4304 2178.0000   23.6956  -21.1160 
1401.8000    0.0529 7081.1362   64.5221 15598.5869    0.0529   21.0325   18.9697   21.0325    1.0000    0.4389 2180.0000   23.8721  -17.3408 
1401.9000    0.0856 7157.7837   62.9761 15854.1543    0.0856   21.2027   17.8634   21.2027    1.0000    0.3938 2189.0000   22.9299  -15.8356 
1402.0000    0.0919 7308.8628   61.0512 16196.8789    0.0919   21.2530   17.6703   21.2530    1.0000    0.3860 2179.0000   22.7672  -14.4719 
1402.1000    0.1073 7501.1440   58.1495 16738.0645    0.1073   21.3784   17.1941   21.3784    1.0000    0.3668 2180.0000   22.3661  -12.6669 
1402.2000    0.1230 7750.6372   51.7262 17483.2754    0.1230   21.4729   16.6742   21.4729    1.0000    0.3457 2162.0000   21.9246  -12.4258 
1402.3000    0.1181 7882.4893   50.1763 17758.5273    0.1181   21.4510   16.8469   21.4510    1.0000    0.3527 2181.0000   22.0721  -12.3781 
1402.4000    0.1322 7975.5000   49.7402 17852.3984    0.1322   21.4601   16.3026   21.4601    1.0000    0.3302 2157.0000   21.6022  -12.4298 
1402.5000    0.1256 7959.1787   48.3194 17717.1816    0.1256   21.4787   16.5816   21.4787    1.0000    0.3419 2174.0000   21.8450  -12.4937 
1402.6000    0.1177 7848.7344   47.6858 17398.1816    0.1177   21.4490   16.8594   21.4490    1.0000    0.3532 2162.0000   22.0827  -11.9384 
