~VERSION INFORMATION
 VERS.                 2.0:   CWLS LOG ASCII STANDARD - VERSION 2.0
 WRAP.                  NO:   SINGLE LINE PER DEPTH STEP
 CREA.                 09/07/2026 15:32:17
#CREATED USING IP VERSION 4.5.2019.2902 BY RADU VLADUTIU ON 09/07/2026 15:32:17
~WELL INFORMATION
#MNEM.UNIT       DATA                          DESCRIPTION MNEMONIC
#---------      ---------------------------   --------------------------
 STRT    .M         1340.0000                 : START DEPTH
 STOP    .M         2182.0000                 : STOP DEPTH
 STEP    .M         0.1000                    : STEP VALUE
 NULL    .      -999.0000                     : NULL VALUE
 DATE    .      09/07/2026                    : LAS file Creation Date
 WELL   .      187-Deleni               : Well Name
 COMP   .      S.N.G.N. Romgaz - Medias : Company
 FLD    .      Deleni                   : Field
 STATE  .      Romania                  : State
 UWI    .                               : Unique Well Identifier (UWI)
 LOC    .                               : Location
 EPDAT  .      0.0000                   : Elevation of Permanent Datum
 RWS    .      -999                     : Def_Rw
 WST    .      -999                     : Def_Rwt
 CNTY   .      Sibiu                    : County
 PROV   .                               : Province
 SRVC   .      PROSPECTIUNI             : Contractor
 GDAT   .      WGS 84                   : Geodatum
 LONG   .      0                        : Longitude
 LATI   .      0                        : Latitude
 COORDIN.                               : Grid System
 XCOORD .                               : X or East-West Coordinate
 YCOORD .                               : Y or North-South Coordinate
~CURVE INFORMATION
#MNEM              UNIT       API CODE   Curve Type Comments
#----------  --------------- ----------  ---------- -----------
 DEPTH      .M                         : Depth       
 BVWRAS     .Dec                       : BVWtdt      
 LS         .CPS                       :             Far Average Capture Rates
 GR         .GAPI                      : GammaRay    Gamma Ray
 SS         .CPS                       :             Near Average Capture Rates
 PHIE       .Dec                       : Phi         
 SigRec     .cu                        :             
 SigRecHyd  .cu                        :             
 SigRecWat  .cu                        :             
 SwRAS      .Dec                       : SwTDT       
 VCL        .Dec                       : Vcl         
 CCL        .                          : CollarLoc.  Casing Collar Locator
 SGFC       .CU                        :             Reservoir Sigma
 PS         .MV                        : SP          
~A  DEPTH   BVWRAS      LS        GR        SS       PHIE     SigRec  SigRecHy~ SigRecWa~   SwRAS      VCL       CCL       SGFC       PS    
# ...
1733.3000    0.0393 6605.4956   71.9036 15723.7500    0.0393   23.9746   20.9455   23.9746    1.0000    0.4010 2179.0000   25.1647   -3.1186 
1733.4000    0.0416 6546.7896   69.6356 15782.5879    0.0416   23.9798   20.7731   23.9798    1.0000    0.3935 2182.0000   24.9869   -3.5962 
1733.5000    0.0456 6536.0098   66.7087 15853.5264    0.0456   23.9753   20.4628   23.9753    1.0000    0.3799 2159.0000   24.6659   -3.6953 
1733.6000    0.0354 6548.0356   66.5291 16005.3193    0.0354   23.9617   21.2373   23.9617    1.0000    0.4138 2148.0000   25.4655   -3.7104 
1733.7000    0.0290 6528.5732   69.5868 15731.8232    0.0290   23.9504   21.7145   23.9504    1.0000    0.4347 2196.0000   25.9580   -3.7152 
1733.8000    0.0169 6419.1909   72.1416 15587.8721    0.0169   24.0800   22.7788   24.0800    1.0000    0.4816 2175.0000   27.0662   -3.7152 
1733.9000    0.0029 6305.0303   72.2673 15165.7119    0.0029   25.4779   25.2523   25.4779    1.0000    0.5937 2175.0000   29.7123   -3.7148 
1734.0000    0.0034 6286.3374   71.8071 14974.8105    0.0034   25.3348   25.0729   25.3348    1.0000    0.5855 2214.0000   29.5177   -3.7231 
1734.1000    0.0028 6284.6069   71.9828 14857.3311    0.0028   25.5267   25.3121   25.5267    1.0000    0.5965 2164.0000   30.7932   -3.8465 
1734.2000    0.0017 6226.8203   73.5347 14660.5430    0.0017   25.9886   25.8550   25.9886    1.0000    0.6215 2203.0000   30.9489   -3.9921 
1734.3000    0.0020 6201.7505   73.9476 14634.7617    0.0020   25.8723   25.7219   25.8723    1.0000    0.6154 2151.0000   30.2230   -4.3115 
1734.4000    0.0018 6228.4922   73.5218 14543.5195    0.0018   25.9342   25.7930   25.9342    1.0000    0.6187 2132.0000   30.3004   -4.5172 
1734.5000    0.0023 6241.2988   72.6885 14496.7168    0.0023   25.7286   25.5543   25.7286    1.0000    0.6076 2163.0000   30.0405   -4.6942 
1734.6000    0.0027 6297.5264   72.1179 14529.8496    0.0027   25.5656   25.3595   25.5656    1.0000    0.5987 2189.0000   30.2985   -5.0361 
1734.7000    0.0030 6293.3862   71.6984 14643.9365    0.0030   25.4457   25.2124   25.4457    1.0000    0.5919 2174.0000   29.7878   -5.2034 
1734.8000    0.0037 6340.3916   71.0075 14596.9014    0.0037   25.2547   24.9698   25.2547    1.0000    0.5808 2171.0000   29.6356   -5.3304 
1734.9000    0.0088 6378.2520   70.7502 14884.9834    0.0088   24.4884   23.8076   24.4884    1.0000    0.5278 2202.0000   28.1557   -5.3380 
1735.0000    0.0103 6399.9380   69.7512 15031.5107    0.0103   24.3777   23.5883   24.3777    1.0000    0.5179 2199.0000   27.9220   -5.3514 
1735.1000    0.0126 6411.3579   67.2903 15158.1699    0.0126   24.2412   23.2747   24.2412    1.0000    0.5038 2173.0000   27.5891   -5.3706 
1735.2000    0.0218 6398.6016   63.5700 15545.2031    0.0218   23.9892   22.3092   23.9892    1.0000    0.4608 2165.0000   27.4095   -5.1512 
1735.3000    0.0187 6413.5835   64.3501 15535.1563    0.0187   24.0372   22.5935   24.0372    1.0000    0.4734 2168.0000   27.6252   -4.9554 
1735.4000    0.0140 6423.1250   66.0088 15588.5928    0.0140   24.1754   23.0964   24.1754    1.0000    0.4958 2140.0000   27.4006   -4.7730 
1735.5000    0.0118 6398.6704   66.4987 15439.1563    0.0118   24.2798   23.3698   24.2798    1.0000    0.5080 2181.0000   28.0947   -4.3979 
1735.6000    0.0165 6377.1567   64.9747 15361.9961    0.0165   24.0909   22.8202   24.0909    1.0000    0.4835 2166.0000   28.1856   -4.2426 
1735.7000    0.0214 6396.5659   63.6788 15272.3262    0.0214   23.9946   22.3489   23.9946    1.0000    0.4626 2175.0000   27.5092   -4.1371 
1735.8000    0.0219 6383.9453   63.5501 15285.3477    0.0219   23.9882   22.3019   23.9882    1.0000    0.4605 2180.0000   27.8665   -4.0507 
1735.9000    0.0192 6370.9966   64.2309 15282.0586    0.0192   24.0285   22.5501   24.0285    1.0000    0.4715 2169.0000   27.9426   -3.9681 
1736.0000    0.0163 6297.5059   65.0408 15279.0557    0.0163   24.0974   22.8441   24.0974    1.0000    0.4845 2190.0000   29.1190   -4.1582 
1736.1000    0.0141 6305.1714   65.7098 15219.5840    0.0141   24.1718   23.0859   24.1718    1.0000    0.4953 2182.0000   29.3069   -4.2811 
1736.2000    0.0119 6302.1567   66.4833 15007.2617    0.0119   24.2775   23.3642   24.2775    1.0000    0.5078 2216.0000   29.4620   -4.3811 
1736.3000    0.0100 6381.8330   67.1999 14993.4502    0.0100   24.3934   23.6210   24.3934    1.0000    0.5194 2163.0000   29.5320   -4.4926 
1736.4000    0.0086 6577.3472   68.4702 15257.1895    0.0086   24.5062   23.8409   24.5062    1.0000    0.5293 2174.0000   28.1913   -4.6569 
1736.5000    0.0373 7268.9585   71.5368 16770.0332    0.0373   23.9682   21.0942   23.9682    0.9813    0.4075 2174.0000   25.3180   -4.8308 
1736.6000    0.0524 7724.2114   72.2815 17991.6895    0.0524   23.7157   19.6806   23.7157    0.9483    0.3449 2194.0000   23.8408   -4.8546 
1736.7000    0.0525 8199.2490   71.8581 19283.9746    0.0579   22.2191   18.1785   22.6369    0.9063    0.2762 2193.0000   22.2191   -4.9137 
1736.8000    0.0514 9092.7490   65.9552 21255.5273    0.0616   21.1296   17.1693   21.9121    0.8647    0.2301 2157.0000   21.1296   -4.9851 
1736.9000    0.0507 9441.3574   60.6433 21635.5684    0.0642   20.3711   16.4667   21.4075    0.8153    0.1979 2286.0000   20.3711   -5.4462 
1737.0000    0.0507 9731.2217   55.3072 21889.4121    0.0641   20.3995   16.4930   21.4264    0.7827    0.1991 2519.0000   20.3995   -5.7754 
1737.1000    0.0501 9968.3301   49.9732 21501.4961    0.0665   19.6881   15.8341   20.9531    0.7572    0.1690 2166.0000   19.6881   -6.0654 
1737.2000    0.0499 9998.0596   49.9303 21252.9297    0.0671   19.5115   15.6705   20.8356    0.7433    0.1615 2192.0000   19.5115   -6.8418 
1737.3000    0.0492 9972.2246   50.4951 21278.3086    0.0696   18.7818   14.9946   20.3502    0.7260    0.1306 2178.0000   18.7818   -7.5885 
1737.4000    0.0495 10018.5078   52.1405 21307.2910    0.0686   19.0607   15.2529   20.5357    0.7161    0.1424 2178.0000   19.0607   -8.3120 
1737.5000    0.0492 10021.6191   53.3861 21312.5547    0.0697   18.7501   14.9652   20.3291    0.7063    0.1292 2193.0000   18.7501   -8.3980 
1737.6000    0.0491 10000.9424   54.6479 21314.7773    0.0698   18.7034   14.9220   20.2980    0.7038    0.1273 2181.0000   18.7034   -8.4277 
1737.7000    0.0489 10031.3584   55.6939 21383.4453    0.0705   18.5157   14.7481   20.1732    0.6973    0.1193 2210.0000   18.5157   -8.4698 
1737.8000    0.0489 10182.1309   57.0334 21293.3320    0.0704   18.5179   14.7501   20.1746    0.6899    0.1194 2178.0000   18.5179   -7.9882 
1737.9000    0.0488 10364.3564   56.4169 21381.2598    0.0709   18.3901   14.6318   20.0896    0.6758    0.1140 2170.0000   18.3901   -7.8731 
1738.0000    0.0484 10576.2637   54.3451 21580.5645    0.0724   17.9481   14.2224   19.7956    0.6614    0.0953 2186.0000   17.9481   -7.8463 
1738.1000    0.0476 11033.3848   48.4550 22050.0547    0.0752   17.1108   13.4468   19.2385    0.6476    0.0598 2179.0000   17.1108   -8.0274 
1738.2000    0.0474 11207.2324   46.4978 22191.2031    0.0760   16.8688   13.2226   19.0775    0.6335    0.0495 2178.0000   16.8688   -8.5151 
1738.3000    0.0474 11306.2344   45.5696 22262.9219    0.0758   16.9421   13.2905   19.1263    0.6221    0.0526 2159.0000   16.9421   -9.0532 
1738.4000    0.0472 11476.5957   44.2765 22297.2285    0.0764   16.7499   13.1125   18.9985    0.6188    0.0445 2164.0000   16.7499   -9.9033 
1738.5000    0.0471 11571.1074   42.9289 22489.3926    0.0770   16.5895   12.9639   18.8917    0.6227    0.0377 2157.0000   16.5895  -10.5080 
1738.6000    0.0472 11608.5518   41.6491 22889.6680    0.0766   16.7032   13.0692   18.9674    0.6251    0.0425 2201.0000   16.7032  -11.0553 
1738.7000    0.0478 11813.6367   40.6065 23977.8926    0.0744   17.3421   13.6610   19.3924    0.6284    0.0696 2182.0000   17.3421  -11.7414 
1738.8000    0.0477 11921.4893   39.9927 24555.0020    0.0748   17.2294   13.5566   19.3174    0.6429    0.0648 2186.0000   17.2294  -12.9073 
1738.9000    0.0476 12130.8936   38.9142 24961.2656    0.0751   17.1567   13.4893   19.2691    0.6526    0.0617 2160.0000   17.1567  -14.1584 
