~VERSION INFORMATION
 VERS.                 2.0:   CWLS LOG ASCII STANDARD - VERSION 2.0
 WRAP.                  NO:   SINGLE LINE PER DEPTH STEP
 CREA.                 09/07/2026 15:32:17
#CREATED USING IP VERSION 4.5.2019.2902 BY RADU VLADUTIU ON 09/07/2026 15:32:17
~WELL INFORMATION
#MNEM.UNIT       DATA                          DESCRIPTION MNEMONIC
#---------      ---------------------------   --------------------------
 STRT    .M         1340.0000                 : START DEPTH
 STOP    .M         2182.0000                 : STOP DEPTH
 STEP    .M         0.1000                    : STEP VALUE
 NULL    .      -999.0000                     : NULL VALUE
 DATE    .      09/07/2026                    : LAS file Creation Date
 WELL   .      187-Deleni               : Well Name
 COMP   .      S.N.G.N. Romgaz - Medias : Company
 FLD    .      Deleni                   : Field
 STATE  .      Romania                  : State
 UWI    .                               : Unique Well Identifier (UWI)
 LOC    .                               : Location
 EPDAT  .      0.0000                   : Elevation of Permanent Datum
 RWS    .      -999                     : Def_Rw
 WST    .      -999                     : Def_Rwt
 CNTY   .      Sibiu                    : County
 PROV   .                               : Province
 SRVC   .      PROSPECTIUNI             : Contractor
 GDAT   .      WGS 84                   : Geodatum
 LONG   .      0                        : Longitude
 LATI   .      0                        : Latitude
 COORDIN.                               : Grid System
 XCOORD .                               : X or East-West Coordinate
 YCOORD .                               : Y or North-South Coordinate
~CURVE INFORMATION
#MNEM              UNIT       API CODE   Curve Type Comments
#----------  --------------- ----------  ---------- -----------
 DEPTH      .M                         : Depth       
 BVWRAS     .Dec                       : BVWtdt      
 LS         .CPS                       :             Far Average Capture Rates
 GR         .GAPI                      : GammaRay    Gamma Ray
 SS         .CPS                       :             Near Average Capture Rates
 PHIE       .Dec                       : Phi         
 SigRec     .cu                        :             
 SigRecHyd  .cu                        :             
 SigRecWat  .cu                        :             
 SwRAS      .Dec                       : SwTDT       
 VCL        .Dec                       : Vcl         
 CCL        .                          : CollarLoc.  Casing Collar Locator
 SGFC       .CU                        :             Reservoir Sigma
 PS         .MV                        : SP          
~A  DEPTH   BVWRAS      LS        GR        SS       PHIE     SigRec  SigRecHy~ SigRecWa~   SwRAS      VCL       CCL       SGFC       PS    
1340.0000 -999.0000 5684.0615   80.3222 13069.0313 -999.0000 -999.0000 -999.0000 -999.0000 -999.0000    0.8118 2195.0000   31.6676 -999.0000 
1340.1000 -999.0000 5927.8696   77.7180 13917.0273 -999.0000 -999.0000 -999.0000 -999.0000 -999.0000    0.6743 2203.0000   28.7939 -999.0000 
1340.2000 -999.0000 6049.8579   77.3790 14351.6738 -999.0000 -999.0000 -999.0000 -999.0000 -999.0000    0.6238 2213.0000   27.7372 -999.0000 
1340.3000 -999.0000 6180.5054   76.3121 14732.0078 -999.0000 -999.0000 -999.0000 -999.0000 -999.0000    0.5872 2186.0000   26.9716 -999.0000 
1340.4000 -999.0000 6198.3872   70.6498 14838.8857 -999.0000 -999.0000 -999.0000 -999.0000 -999.0000    0.5519 2190.0000   26.2348 -999.0000 
1340.5000 -999.0000 6162.5610   67.8828 14606.9170 -999.0000 -999.0000 -999.0000 -999.0000    1.0000    0.5567 2209.0000   26.3355 -999.0000 
1340.6000 -999.0000 6111.4434   66.2548 14177.7900 -999.0000 -999.0000 -999.0000 -999.0000    1.0000    0.5530 2176.0000   26.2587 -999.0000 
1340.7000    0.0029 6033.2129   65.9785 13838.6777    0.0029   23.1503   23.0353   23.1503    1.0000    0.6157 2190.0000   27.5683  -15.8327 
1340.8000    0.0017 5852.4458   68.4638 13271.2568    0.0017   23.7146   23.6501   23.7146    1.0000    0.6434 2172.0000   28.1481  -15.8354 
1340.9000    0.0014 5793.7559   69.5345 13322.9717    0.0014   23.8740   23.8194   23.8740    1.0000    0.6511 2178.0000   28.3081  -15.8381 
1341.0000    0.0023 5815.2495   69.5329 13400.8486    0.0023   23.4009   23.3119   23.4009    1.0000    0.6282 2163.0000   27.8289  -15.8456 
1341.1000    0.0018 5809.3223   68.7594 13670.0654    0.0018   23.6125   23.5409   23.6125    1.0000    0.6385 2083.0000   28.0450  -15.8685 
1341.2000    0.0013 5828.1313   69.4011 13629.2910    0.0013   23.9613   23.9114   23.9613    1.0000    0.6553 2119.0000   28.3951  -15.8917 
1341.3000    0.0012 5826.0439   70.3710 13715.4678    0.0012   24.0603   24.0153   24.0603    1.0000    0.6600 2201.0000   28.4934  -16.8514 
1341.4000    0.0007 5834.8120   70.7834 13448.3428    0.0007   24.5696   24.5436   24.5696    1.0000    0.6839 2180.0000   28.9936  -17.3865 
1341.5000    0.0004 5836.2402   70.1195 13389.1699    0.0004   25.1088   25.0944   25.1088    1.0000    0.7089 2185.0000   29.5159  -17.9066 
1341.6000    0.0002 5828.8408   69.8016 13401.5264    0.0002   25.4753   25.4658   25.4753    1.0000    0.7258 2152.0000   29.8683  -18.9867 
1341.7000    0.0005 5978.1597   72.5997 13649.4189    0.0005   24.8048   24.7846   24.8048    1.0000    0.6948 2214.0000   29.2221  -19.5279 
1341.8000    0.0009 6056.7554   74.4795 14005.0879    0.0009   24.3039   24.2692   24.3039    1.0000    0.6715 2194.0000   28.7337  -20.0528 
1341.9000    0.0019 6112.4526   75.0714 14323.0313    0.0019   23.5877   23.5143   23.5877    1.0000    0.6373 2184.0000   28.0198  -21.1253 
1342.0000    0.0060 6167.6074   70.2979 14409.8076    0.0060   22.4616   22.2283   22.4616    1.0000    0.5795 2185.0000   26.8118  -21.6575 
1342.1000    0.0101 6114.7988   66.2785 14305.4951    0.0101   21.9743   21.5819   21.9743    1.0000    0.5508 2190.0000   26.2113  -22.1950 
1342.2000    0.0108 5998.9321   63.1625 14080.0205    0.0108   21.9093   21.4873   21.9093    1.0000    0.5466 2162.0000   26.1239  -22.3526 
1342.3000    0.0050 5828.8760   61.5488 13701.4365    0.0050   22.6255   22.4287   22.6255    1.0000    0.5885 2212.0000   26.9990  -22.5034 
1342.4000    0.0059 5491.8560   60.2100 12776.4512    0.0059   22.4673   22.2355   22.4673    1.0000    0.5798 2171.0000   28.9541  -22.6075 
1342.5000    0.0060 5345.4878   60.2062 12557.7803    0.0060   22.4661   22.2340   22.4661    1.0000    0.5798 2156.0000   30.3010  -21.8259 
1342.6000    0.0033 5204.7026   61.9828 12419.3369    0.0033   23.0351   22.9057   23.0351    1.0000    0.6099 2200.0000   31.6900  -21.0364 
1342.7000    0.0001 5192.6357   70.6311 12347.8613    0.0001   26.1460   26.1417   26.1460    1.0000    0.7565 2203.0000   32.7185  -18.6390 
1342.8000    0.0001 5295.0444   74.7533 12551.2461    0.0001   27.6827   27.6788   27.6827    1.0000    0.8263 2174.0000   32.4943  -17.5492 
1342.9000    0.0001 5414.1582   77.2468 12945.5723    0.0001   27.9823   27.9784   27.9823    1.0000    0.8399 2146.0000   32.2548  -16.4373 
1343.0000    0.0007 5814.5830   74.7274 13851.8525    0.0007   24.5557   24.5292   24.5557    1.0000    0.6833 2160.0000   28.9800  -15.9341 
1343.1000    0.0027 6009.3643   70.5090 14314.5420    0.0027   23.2521   23.1484   23.2521    1.0000    0.6208 2155.0000   27.6748  -15.9324 
1343.2000    0.0079 6193.6338   66.6001 14703.8809    0.0079   22.1932   21.8838   22.1932    1.0000    0.5642 2191.0000   26.4910  -15.9358 
1343.3000    0.0100 6391.8232   62.6300 15016.4648    0.0100   21.9799   21.5898   21.9799    1.0000    0.5511 2203.0000   26.2186  -16.5756 
1343.4000    0.0094 6490.6968   61.9716 14913.6074    0.0094   22.0320   21.6637   22.0320    1.0000    0.5544 2160.0000   26.2869  -17.0407 
1343.5000    0.0141 6557.3340   62.0957 14804.6221    0.0141   21.6798   21.1286   21.6798    1.0000    0.5308 2208.0000   25.7942  -17.4947 
1343.6000    0.0133 6438.9336   65.0971 14474.8691    0.0133   21.7311   21.2129   21.7311    1.0000    0.5345 2159.0000   25.8714  -18.3958 
1343.7000    0.0129 6324.8311   67.2677 14219.6592    0.0129   21.7588   21.2572   21.7588    1.0000    0.5365 2192.0000   25.9121  -18.8146 
1343.8000    0.0143 6222.0474   69.1353 14061.4902    0.0143   21.6702   21.1126   21.6702    1.0000    0.5301 2160.0000   25.7795  -19.2203 
1343.9000    0.0113 6107.6953   70.3929 13946.1025    0.0113   21.8714   21.4310   21.8714    1.0000    0.5441 2159.0000   26.0720  -19.2851 
1344.0000    0.0018 5837.8457   71.0690 13508.8955    0.0018   23.6201   23.5491   23.6201    1.0000    0.6389 2191.0000   28.0527  -18.9600 
1344.1000    0.0011 5647.2339   70.9490 13237.0273    0.0011   24.0686   24.0241   24.0686    1.0000    0.6604 2160.0000   28.5017  -18.6317 
1344.2000    0.0007 5551.2520   70.5732 12948.7129    0.0007   24.4738   24.4449   24.4738    1.0000    0.6794 2159.0000   28.9001  -17.7794 
1344.3000    0.0004 5468.6421   67.6167 12593.1719    0.0004   25.0324   25.0167   25.0324    1.0000    0.7054 2172.0000   29.7734  -17.3451 
1344.4000    0.0010 5454.2622   65.2921 12524.9580    0.0010   24.1871   24.1478   24.1871    1.0000    0.6660 2165.0000   30.0275  -16.9020 
1344.5000    0.0019 5454.3682   63.5798 12532.5225    0.0019   23.5802   23.5062   23.5802    1.0000    0.6369 2164.0000   29.9460  -16.7454 
1344.6000    0.0018 5541.6099   63.6550 13014.6777    0.0018   23.6064   23.5344   23.6064    1.0000    0.6382 2182.0000   29.3313  -17.1967 
1344.7000    0.0021 5687.0571   63.8496 13395.2656    0.0021   23.4660   23.3827   23.4660    1.0000    0.6314 2157.0000   27.8957  -17.6588 
1344.8000    0.0022 5720.3389   63.1830 13497.1172    0.0022   23.4425   23.3572   23.4425    1.0000    0.6302 2194.0000   28.4418  -20.5401 
1344.9000    0.0044 5803.0459   61.1350 13520.0293    0.0044   22.7576   22.5858   22.7576    1.0000    0.5955 2174.0000   27.2213  -21.7540 
1345.0000    0.0046 5852.0425   61.0170 13448.6807    0.0046   22.7198   22.5412   22.7198    1.0000    0.5935 2187.0000   28.4200  -22.9270 
1345.1000    0.0030 5942.0371   62.2617 13432.5381    0.0030   23.1284   23.0108   23.1284    1.0000    0.6146 2171.0000   28.0334  -23.1978 
1345.2000    0.0017 6294.3447   68.6882 13849.2461    0.0017   23.7132   23.6486   23.7132    1.0000    0.6434 2177.0000   28.1467  -22.4787 
1345.3000    0.0067 6513.6812   71.0366 14504.0488    0.0067   22.3532   22.0920   22.3532    1.0000    0.5734 2178.0000   26.6847  -21.7642 
1345.4000    0.0258 6726.2539   70.2956 15177.8477    0.0258   21.2500   20.2455   21.2500    1.0000    0.4925 2170.0000   24.9939  -20.2589 
1345.5000    0.0499 6905.7007   66.1426 15828.6982    0.0499   21.0319   19.0853   21.0319    1.0000    0.4436 2177.0000   23.9720  -18.7759 
1345.6000    0.0787 7164.9644   53.7749 16638.8125    0.0787   21.1506   18.0807   21.1506    1.0000    0.4026 2181.0000   23.1134  -15.8382 
