~VERSION INFORMATION
 VERS.                 2.0:   CWLS LOG ASCII STANDARD - VERSION 2.0
 WRAP.                  NO:   SINGLE LINE PER DEPTH STEP
 CREA.                 09/07/2026 15:32:17
#CREATED USING IP VERSION 4.5.2019.2902 BY RADU VLADUTIU ON 09/07/2026 15:32:17
~WELL INFORMATION
#MNEM.UNIT       DATA                          DESCRIPTION MNEMONIC
#---------      ---------------------------   --------------------------
 STRT    .M         1340.0000                 : START DEPTH
 STOP    .M         2182.0000                 : STOP DEPTH
 STEP    .M         0.1000                    : STEP VALUE
 NULL    .      -999.0000                     : NULL VALUE
 DATE    .      09/07/2026                    : LAS file Creation Date
 WELL   .      187-Deleni               : Well Name
 COMP   .      S.N.G.N. Romgaz - Medias : Company
 FLD    .      Deleni                   : Field
 STATE  .      Romania                  : State
 UWI    .                               : Unique Well Identifier (UWI)
 LOC    .                               : Location
 EPDAT  .      0.0000                   : Elevation of Permanent Datum
 RWS    .      -999                     : Def_Rw
 WST    .      -999                     : Def_Rwt
 CNTY   .      Sibiu                    : County
 PROV   .                               : Province
 SRVC   .      PROSPECTIUNI             : Contractor
 GDAT   .      WGS 84                   : Geodatum
 LONG   .      0                        : Longitude
 LATI   .      0                        : Latitude
 COORDIN.                               : Grid System
 XCOORD .                               : X or East-West Coordinate
 YCOORD .                               : Y or North-South Coordinate
~CURVE INFORMATION
#MNEM              UNIT       API CODE   Curve Type Comments
#----------  --------------- ----------  ---------- -----------
 DEPTH      .M                         : Depth       
 BVWRAS     .Dec                       : BVWtdt      
 LS         .CPS                       :             Far Average Capture Rates
 GR         .GAPI                      : GammaRay    Gamma Ray
 SS         .CPS                       :             Near Average Capture Rates
 PHIE       .Dec                       : Phi         
 SigRec     .cu                        :             
 SigRecHyd  .cu                        :             
 SigRecWat  .cu                        :             
 SwRAS      .Dec                       : SwTDT       
 VCL        .Dec                       : Vcl         
 CCL        .                          : CollarLoc.  Casing Collar Locator
 SGFC       .CU                        :             Reservoir Sigma
 PS         .MV                        : SP          
~A  DEPTH   BVWRAS      LS        GR        SS       PHIE     SigRec  SigRecHy~ SigRecWa~   SwRAS      VCL       CCL       SGFC       PS    
# ...
2012.6000    0.0029 7025.7632   68.9106 16829.4551    0.0029   26.2433   26.0238   26.2433    1.0000    0.6016 2179.0000   30.1155    2.2500 
2012.7000    0.0031 7178.9995   68.9478 17185.1074    0.0031   26.1654   25.9281   26.1654    1.0000    0.5974 2175.0000   29.9784    2.2562 
2012.8000    0.0048 7173.4810   71.1545 17101.3672    0.0048   25.7320   25.3625   25.7320    1.0000    0.5726 2183.0000   29.3858    2.2222 
2012.9000    0.0042 7064.5425   70.6985 16652.0742    0.0042   25.8665   25.5452   25.8665    1.0000    0.5806 2174.0000   29.5768    2.2078 
2013.0000    0.0033 6893.8862   68.4240 16155.1484    0.0033   26.1115   25.8609   26.1115    1.0000    0.5945 2187.0000   30.0056    2.2328 
2013.1000    0.0076 6707.3599   65.0811 15058.2197    0.0076   25.3180   24.7354   25.3180    1.0000    0.5453 2172.0000   31.1933    2.3496 
2013.2000    0.0055 6565.6567   66.4075 14829.2383    0.0055   25.6061   25.1837   25.6061    1.0000    0.5648 2174.0000   31.3557    2.5131 
2013.3000    0.0034 6493.9126   68.2107 14721.7119    0.0034   26.0548   25.7895   26.0548    1.0000    0.5913 2187.0000   31.3064    2.7009 
2013.4000    0.0057 6541.3516   66.2293 14955.9131    0.0057   25.5651   25.1236   25.5651    1.0000    0.5622 2181.0000   29.5974    2.8378 
2013.5000    0.0130 6591.2598   62.6699 15071.7881    0.0130   24.9111   23.9133   24.9111    1.0000    0.5099 2171.0000   29.4624    2.8377 
2013.6000    0.0248 6616.5083   59.2802 15154.1729    0.0248   24.6464   22.7386   24.6464    1.0000    0.4600 2179.0000   27.7233    2.8383 
2013.7000    0.0398 6464.2461   56.1317 15011.3564    0.0398   24.6964   21.6290   24.6964    1.0000    0.4137 2190.0000   28.2142    2.8324 
2013.8000    0.0404 6346.3911   56.0206 14753.8887    0.0404   24.7011   21.5897   24.7011    1.0000    0.4121 2161.0000   28.7163    2.8152 
2013.9000    0.0374 6174.8110   56.6071 14470.9971    0.0374   24.6775   21.7973   24.6775    1.0000    0.4207 2176.0000   30.7252    2.7242 
2014.0000    0.0295 6063.1133   58.2290 14194.6689    0.0295   24.6383   22.3697   24.6383    1.0000    0.4445 2177.0000   31.9163    2.5723 
2014.1000    0.0095 5852.3887   64.0892 13819.6074    0.0095   25.1308   24.3985   25.1308    1.0000    0.5307 2201.0000   34.4328    2.4956 
2014.2000    0.0053 5843.2471   66.5132 13867.7285    0.0053   25.6307   25.2193   25.6307    1.0000    0.5664 2183.0000   35.2073    2.0740 
2014.3000    0.0039 5883.0991   67.7448 13837.1689    0.0039   25.9334   25.6333   25.9334    1.0000    0.5845 2173.0000   34.6025    1.4149 
2014.4000    0.0044 6198.9004   67.2536 14071.5928    0.0044   25.8093   25.4684   25.8093    1.0000    0.5773 2178.0000   32.5392    1.1612 
2014.5000    0.0062 6383.8359   65.8829 14416.6064    0.0062   25.4874   25.0067   25.4874    1.0000    0.5571 2190.0000   31.3512    0.8517 
2014.6000    0.0097 6538.1807   64.0148 14793.0557    0.0097   25.1178   24.3731   25.1178    1.0000    0.5296 2171.0000   30.0106    0.5474 
2014.7000    0.0183 6834.3052   60.9376 15309.9326    0.0183   24.7286   23.3159   24.7286    1.0000    0.4844 2177.0000   27.5272    0.3693 
2014.8000    0.0202 6817.5933   60.4385 15436.6816    0.0202   24.6944   23.1426   24.6944    1.0000    0.4770 2179.0000   27.3693    0.2326 
2014.9000    0.0215 6786.0190   60.0878 15307.1367    0.0215   24.6753   23.0206   24.6753    1.0000    0.4719 2182.0000   28.1825    0.1557 
2015.0000    0.0301 6552.8379   58.0849 14839.9941    0.0301   24.6395   22.3189   24.6395    1.0000    0.4424 2179.0000   29.9789    0.0855 
2015.1000    0.0351 6421.4023   57.0588 14510.3848    0.0351   24.6618   21.9570   24.6618    1.0000    0.4273 2181.0000   31.5910    0.0518 
2015.2000    0.0385 6260.6152   56.3863 14262.8613    0.0385   24.6861   21.7191   24.6861    1.0000    0.4174 2182.0000   34.6657    0.0565 
2015.3000    0.0332 6028.5078   57.4403 14072.7754    0.0332   24.6510   22.0917   24.6510    1.0000    0.4329 2173.0000   35.9121    0.0354 
2015.4000    0.0195 6079.8384   60.6106 13979.8154    0.0195   24.7053   23.2024   24.7053    1.0000    0.4796 2166.0000   36.3513   -0.0398 
2015.5000    0.0092 6170.3545   64.2478 14052.8750    0.0092   25.1590   24.4525   25.1590    1.0000    0.5331 2185.0000   35.5717   -0.1397 
2015.6000    0.0063 6342.0371   65.8416 14282.2422    0.0063   25.4783   24.9927   25.4783    1.0000    0.5565 2170.0000   33.5293   -0.3848 
2015.7000    0.0166 6661.1006   61.4509 15009.8281    0.0166   24.7724   23.4936   24.7724    1.0000    0.4919 2175.0000   30.0024   -0.6960 
2015.8000    0.0283 6866.5283   58.4883 15390.2549    0.0283   24.6374   22.4608   24.6374    1.0000    0.4484 2187.0000   28.4097   -0.8207 
2015.9000    0.0384 7026.1191   56.4170 15727.4385    0.0384   24.6849   21.7300   24.6849    1.0000    0.4179 2170.0000   27.4650   -1.0175 
2016.0000    0.0513 7178.3032   53.8475 15872.6758    0.0513   24.7686   20.8218   24.7686    1.0000    0.3801 2171.0000   25.6559   -1.2428 
2016.1000    0.0547 7184.5229   53.0565 15801.7764    0.0547   24.7546   20.5447   24.7546    1.0000    0.3685 2185.0000   25.6353   -1.3733 
2016.2000    0.0535 7144.0195   53.3340 15580.1738    0.0535   24.7637   20.6417   24.7637    1.0000    0.3726 2171.0000   25.3456   -1.6568 
2016.3000    0.0399 7087.8770   56.1275 15150.2275    0.0399   24.6966   21.6275   24.6966    1.0000    0.4136 2173.0000   26.9920   -1.9431 
2016.4000    0.0393 7071.5879   56.2418 15228.2012    0.0393   24.6919   21.6680   24.6919    1.0000    0.4153 2174.0000   26.2469   -1.9575 
2016.5000    0.0431 7113.7798   55.4950 15269.3359    0.0431   24.7231   21.4036   24.7231    1.0000    0.4043 2178.0000   26.6293   -1.8903 
2016.6000    0.0356 7182.2690   57.2269 15563.9609    0.0356   24.6645   21.9268   24.6645    1.0000    0.4261 2175.0000   25.8833   -1.7037 
2016.7000    0.0379 7206.3677   59.3858 15766.9082    0.0379   24.6815   21.7602   24.6815    1.0000    0.4192 2174.0000   25.7177   -1.5020 
2016.8000    0.0408 7161.4614   60.5110 15651.6201    0.0408   24.7039   21.5659   24.7039    1.0000    0.4111 2174.0000   25.5248   -1.3153 
2016.9000    0.0349 6896.7861   60.1863 14991.0059    0.0349   24.6601   21.9761   24.6601    1.0000    0.4281 2183.0000   25.9323   -1.1598 
2017.0000    0.0303 6710.6157   60.6580 14484.1074    0.0303   24.6398   22.3103   24.6398    1.0000    0.4421 2177.0000   26.2653   -1.0191 
2017.1000    0.0170 6493.1064   61.3234 14054.7891    0.0170   24.7607   23.4495   24.7607    1.0000    0.4900 2179.0000   28.4085   -0.8138 
2017.2000    0.0173 6261.5098   61.2551 13591.4463    0.0173   24.7547   23.4259   24.7547    1.0000    0.4890 2170.0000   30.3500   -0.5609 
2017.3000    0.0208 5887.4556   60.2741 13132.2246    0.0208   24.6850   23.0855   24.6850    1.0000    0.4746 2179.0000   34.7340   -0.3534 
2017.4000    0.0199 5708.8120   60.4983 12849.9951    0.0199   24.6981   23.1634   24.6981    1.0000    0.4779 2178.0000   35.4566   -0.1280 
2017.5000    0.0194 5567.7427   60.6466 12648.3633    0.0194   24.7077   23.2149   24.7077    1.0000    0.4801 2180.0000   35.6642    0.0810 
2017.6000    0.0189 5373.5693   60.7690 12219.5566    0.0189   24.7161   23.2574   24.7161    1.0000    0.4819 2170.0000   35.7660    0.2400 
2017.7000    0.0155 5274.7261   61.7892 12098.7354    0.0155   24.8061   23.6104   24.8061    1.0000    0.4969 2178.0000   36.3408    0.4161 
2017.8000    0.0113 5250.9497   63.3229 12167.0645    0.0113   25.0047   24.1370   25.0047    1.0000    0.5195 2186.0000   36.2291    0.5685 
2017.9000    0.0050 5307.8501   66.7861 12805.6191    0.0050   25.6953   25.3112   25.6953    1.0000    0.5704 2167.0000   35.6544    0.6650 
2018.0000    0.0033 5371.4629   68.4140 13232.5996    0.0033   26.1088   25.8576   26.1088    1.0000    0.5943 2181.0000   35.1840    0.7513 
2018.1000    0.0024 5481.8442   69.5989 13735.6357    0.0024   26.4352   26.2537   26.4352    1.0000    0.6117 2174.0000   34.6610    0.8252 
2018.2000    0.0025 5825.8833   69.3999 14718.1348    0.0025   26.3791   26.1873   26.3791    1.0000    0.6088 2166.0000   32.2394    0.9771 
