~Version Information
VERS .            2.00                          : CWLS Log ASCII Standard - Version 2.00
WRAP .            NO                            : One line per depth step
#
~Well Information
#MNEM.UNIT        DATA                          : DESCRIPTION
#----.----        ----                          : -----------
STRT .M            240.0                        : Start
STOP .M           1227.7                        : Stop
STEP .M              0.1                        : Step increment
NULL .            -999.250                      : Null value
COMP .            S.N.G.N. ROMGAZ S.A.          : Company
WELL .            209 NADES                     : Well
FLD  .            NADES                         : Field
PROV .            MURES                         : Province
CTRY .            Romania                       : State / Country
LOC  .            X = 529925.187 m              : Location
LOC2 .            Y = 477271.675 m              : Location 2
SRVC .            Weatherford                   : Service company
UWI  .                                          : Unique Well ID
LATI .            46 16'07.03" N                : Latitude
LONG .            24 42'12.69" E                : Longitude
UTME .                                          : Universal Transverse Mercator Easting
UTMN .                                          : Universal Transverse Mercator Northing
X    .                                          : X
Y    .                                          : Y
DATE .            04-Sep-2024                   : Logging Date
#
~Curve Information
#MNEM.UNIT        API CODES                     : CURVE DESCRIPTION
#----.----        ---------                     : -----------------
DEPT .M           00 001 00 00                  : Logged depth
CGXT .DEGC        30 660 01 00                  : MCG External Temperature
SMTU .LB          30 635 00 00                  : DST Uphole Tension
GRGC .GAPI        30 310 01 00                  : MCG Gamma Ray
CCLG .----        30 150 00 00                  : Casing Collar Locator
NPRL .PERC        42 890 01 00                  : Limestone Neutron Por.
NPRL .V/V         42 890 01 00                  : Limestone Neutron Por.
CLDC .IN          45 280 01 00                  : Density Caliper
DCOR .G/C3        42 356 01 00                  : Density Correction
DEN  .G/C3        42 350 01 00                  : Compensated Density
PDPE .B/E         45 358 01 00                  : PE
NPOR .PERC        42 890 04 00                  : Base Neutron Porosity
NPOR .V/V         42 890 04 00                  : Base Neutron Porosity
NPRS .PERC        42 890 03 00                  : Sandstone Neutron Por.
NPRS .V/V         42 890 03 00                  : Sandstone Neutron Por.
NPRD .PERC        42 890 02 00                  : Dolomite Neutron Por.
NPRD .V/V         42 890 02 00                  : Dolomite Neutron Por.
DPOR .PERC        45 890 13 00                  : Base Density Porosity
DPOR .V/V         45 890 13 00                  : Base Density Porosity
DPRL .PERC        45 890 10 00                  : Limestone Density Por.
DPRL .V/V         45 890 10 00                  : Limestone Density Por.
DPRS .PERC        45 890 12 00                  : Sandstone Density Por.
DPRS .V/V         45 890 12 00                  : Sandstone Density Por.
DPRD .PERC        45 890 11 00                  : Dolomite Density Por.
DPRD .V/V         45 890 11 00                  : Dolomite Density Por.
HDEN .G/C3        42 350 01 00                  : Vectar Processed Density
BIT  .IN          70 282 00 00                  : Bit size
#
~Parameter Information
#MNEM.UNIT        VALUE                         : DESCRIPTION
#----.----        -----                         : -----------
RNID .                                          : Run ID
SON  .            24220368                      : Job Number
DREF .            KB                            : Depth reference
EREF .M            484.710                      : Elevation of depth reference
GL   .M            480.210                      : Ground elevation
KB   .M            484.710                      : Kelly Bushing
DF   .M            484.710                      : Drill Floor
DDRF .            KB                            : Drilling Depth Reference
DERF .M            484.710                      : Elevation of Drilling Depth Reference
RUN  .            2A+2B                         : Run number
TDD  .M           1225.000                      : TD (driller)
TDL  .M           1226.000                      : TD (logger)
BS   .IN             8.500                      : Bit size
TIMC .                                          : Time circulation ended
TIML .                                          : Time logger at bottom
UNIT .            13347                         : Equipment ID
BASE .            PLO                           : Equipment base location
ENG  .            MALEA CRISTIAN                : Recording engineer
WIT  .            VASILE FARCAS                 : Witnessed by
CSGT .            SURFACE                       : Casing type
CSGS .IN            16.000                      : Casing size
CSGW .LB/FT          0.000                      : Casing weight
CSGD .M            250.000                      : Casing bottom (driller)
CSGL .M            249.500                      : Casing bottom (logger)
CSUP .M              0.000                      : Casing Stick Up GL
MUD  .            INHIBITIV                     : Mud type
MUDS .            FLOWLINE                      : Mud sample source
MUDD .G/C3           1.100                      : Mud density
MUDV .SEC/L         50.000                      : Mud viscosity
PH   .               9.500                      : Mud pH
FL   .ML/30MIN       4.100                      : Mud fluid loss rate
RM   .OHMM           0.150                      : Mud resistivity
RMT  .DEGC          25.000                      : Mud sample temperature
RMF  .OHMM           0.120                      : Mud filtrate resistivity
RMFT .DEGC          25.000                      : Mud filtrate sample temperature
RMC  .OHMM           0.180                      : Mud cake resistivity
RMCT .DEGC          25.000                      : Mud cake sample temperature
RMBT .OHMM           0.110                      : Mud Resistivity at BHT
BHT  .DEGC          39.000                      : Bottom Hole Temperature
TMAX .DEGC          39.000                      : Max recorded temperature
#
~Other Information
------------------------------------------------------------------------------------------------
Clients intervals and scales logged
Acquisition software: Weatherford Well Manager, version 24.03.1279
Cable used: CAMESA  size 15/32", type 7J46RXZ with  cable head and 8k weakpoint set
Depth wheel calibration factor used 0.6096
Depth Control Procedure for Multiple runs in the well followed.
Run2A: CBHC, MTAK, MBE, MBE, SHA, MCG, MBN, MTC-Y, MSS, MTC-X, SKJ, MUG, MLE, MLG, MTI, MGS,HFS 
Run2B: CBHC, MTAK, SHA, MCG, SKJ, MMR, MDN, MPD, HFS
Run2C: CBHC, MTAK, SHA, MCG, MISD, SKJ, MISE, SKJ, MISD, MSS, MISD, HFS logged in combination.
 Rm, Rmf, Rmc measured on samples from Mud Engineer given on 04.09.2024
Caliper measurements and averages from TD to casing:
   Total hole volume =  35.32 cubic meters
   Annular volume = 20.52 cubic meters, based on future casing size of 5.5 inches
   Average hole diameter = 8.49 inches (215.77 mm), based on XY caliper
------------------------------------------------------------------------------------------------
#
#          DEPT           CGXT           SMTU           GRGC           CCLG           NPRL           NPRL           CLDC           DCOR            DEN           PDPE           NPOR           NPOR           NPRS           NPRS           NPRD           NPRD           DPOR           DPOR           DPRL           DPRL           DPRS           DPRS           DPRD           DPRD           HDEN            BIT
#
~ASCII Log Data
          240.0      29.306263     628.750000      53.441406      97.050613      38.959930       0.389599       8.785531      -0.356350       2.128809      14.112087      46.190994       0.461910      43.798576       0.437986      35.519485       0.355195      33.987766       0.339878      33.987766       0.339878      31.587320       0.315873      39.635872       0.396359       2.129881      12.250000
          240.1      29.409864     628.750000      54.138208     -58.550827      39.642391       0.396424       8.785521      -0.357960       2.124239      14.212626      46.905481       0.469055      44.366219       0.443662      36.151459       0.361515      34.255045       0.342550      34.255045       0.342550      31.864320       0.318643      39.880281       0.398803       2.125336      12.250000
          240.2      29.329735     629.375000      54.961292    -148.510422      39.877529       0.398775       8.785507      -0.357803       2.123001      14.366591      47.153269       0.471533      44.557474       0.445575      36.369804       0.363698      34.327435       0.343274      34.327435       0.343274      31.939342       0.319393      39.946478       0.399465       2.124217      12.250000
          240.3      29.293656     630.000000      56.332439      26.037949      39.487701       0.394877       8.785486      -0.356886       2.121116      14.639149      46.750643       0.467506      44.221748       0.442217      36.010637       0.360106      34.437637       0.344376      34.437637       0.344376      32.053553       0.320536      40.047253       0.400473       2.122341      12.250000
          240.4      29.333997     630.000000      57.770014      25.181992      38.566629       0.385666       8.785466      -0.354744       2.121226      14.961570      45.793270       0.457933      43.442379       0.434424      35.159912       0.351599      34.431202       0.344312      34.431202       0.344312      32.046885       0.320469      40.041368       0.400414       2.121446      12.250000
          240.5      29.375172     629.375000      58.854523     -33.358841      37.518373       0.375184       8.785452      -0.351746       2.124108      15.188547      44.699673       0.446997      42.563284       0.425633      34.190434       0.341904      34.262686       0.342627      34.262686       0.342627      31.872239       0.318722      39.887268       0.398873       2.123146      12.250000
          240.6      29.354517     628.125000      59.361546      82.224518      36.831787       0.368318       8.785435      -0.349146       2.127736      15.268775      43.980583       0.439806      41.992380       0.419924      33.554602       0.335546      34.050543       0.340505      34.050543       0.340505      31.652380       0.316524      39.693275       0.396933       2.126221      12.250000
          240.7      29.322417     628.125000      59.278522     163.105141      36.922453       0.369225       8.785418      -0.348176       2.129106      15.220263      44.070004       0.440700      42.077007       0.420770      33.636837       0.336368      33.970407       0.339704      33.970407       0.339704      31.569330       0.315693      39.619997       0.396200       2.127643      12.250000
          240.8      29.321508     629.375000      58.591099      43.967232      37.999413       0.379994       8.785410      -0.347934       2.131649      15.092513      45.195492       0.451955      42.984858       0.429849      34.633177       0.346332      33.821667       0.338217      33.821667       0.338217      31.415182       0.314152      39.483984       0.394840       2.130687      12.250000
          240.9      29.313878     631.249969      57.367050    -146.993294      39.932901       0.399329       8.785412      -0.347709       2.136759      14.913925      47.237335       0.472373      44.592575       0.445926      36.428274       0.364283      33.522877       0.335229      33.522877       0.335229      31.105527       0.311055      39.210760       0.392108       2.136553      12.250000
          241.0      29.348898     630.624969      56.210510    -115.684196      42.238676       0.422387       8.785414      -0.347782       2.140863      14.759396      49.690889       0.496909      46.489552       0.464896      38.574644       0.385746      33.282890       0.332829      33.282890       0.332829      30.856812       0.308568      38.991306       0.389913       2.141902      12.250000
          241.1      29.279319     621.875000      55.147657     -14.365128      44.099209       0.440992       8.785409      -0.347864       2.142559      14.696434      51.680479       0.516805      48.008566       0.480086      40.309570       0.403096      33.183666       0.331837      33.183666       0.331837      30.753982       0.307540      38.900574       0.389006       2.144102      12.250000
          241.2      29.231080     623.749969      54.217155      96.763153      44.874289       0.448743       8.785398      -0.347094       2.143451      14.716962      52.516878       0.525169      48.633394       0.486334      41.034603       0.410346      33.131514       0.331315      33.131514       0.331315      30.699933       0.306999      38.852884       0.388529       2.144909      12.250000
          241.3      29.311702     633.124939      53.601011     125.023026      44.324183       0.443242       8.785375      -0.345284       2.145118      14.690078      51.943308       0.519433      48.169983       0.481700      40.525984       0.405260      33.034021       0.330340      33.034021       0.330340      30.598895       0.305989      38.763731       0.387637       2.145301      12.250000
          241.4      29.307231     633.749939      53.478939      38.907883      42.629091       0.426291       8.785340      -0.343519       2.145377      14.596840      50.146294       0.501463      46.771008       0.467710      38.949982       0.389500      33.018908       0.330189      33.018908       0.330189      30.583232       0.305832      38.749910       0.387499       2.144969      12.250000
          241.5      29.292970     633.124939      53.142036     -71.432343      40.356314       0.403563       8.785304      -0.343552       2.139803      14.513103      47.725660       0.477257      44.905771       0.449058      36.833601       0.368336      33.344851       0.333449      33.344851       0.333449      30.921027       0.309210      39.047966       0.390480       2.139026      12.250000
          241.6      29.277606     632.499939      52.205267    -130.128845      38.276007       0.382760       8.785272      -0.345441       2.129105      14.486982      45.508049       0.455080      43.201202       0.432012      34.895864       0.348959      33.970470       0.339705      33.970470       0.339705      31.569396       0.315694      39.620054       0.396201       2.128353      12.250000
          241.7      29.302851     632.499939      51.040405     -90.850815      37.125942       0.371259       8.785245      -0.348320       2.116197      14.519624      44.282478       0.442825      42.259850       0.422598      33.824741       0.338247      34.725323       0.347253      34.725323       0.347253      32.351699       0.323517      40.310320       0.403103       2.116176      12.250000
          241.8      29.353354     632.499939      49.798273     -35.313049      36.939871       0.369399       8.785258      -0.351101       2.103722      14.630604      44.079729       0.440797      42.113258       0.421133      33.650200       0.336502      35.454826       0.354548      35.454826       0.354548      33.107731       0.331077      40.977407       0.409774       2.104437      12.250000
          241.9      29.353816     632.499939      48.904139     137.388855      37.147734       0.371477       8.785342      -0.352157       2.096335      14.831668      44.293762       0.442938      42.291079       0.422911      33.841690       0.338417      35.886866       0.358869      35.886866       0.358869      33.555481       0.335555      41.372482       0.413725       2.097108      12.250000
