~Version Information
VERS .            2.00                          : CWLS Log ASCII Standard - Version 2.00
WRAP .            NO                            : One line per depth step
#
~Well Information
#MNEM.UNIT        DATA                          : DESCRIPTION
#----.----        ----                          : -----------
STRT .M            240.0                        : Start
STOP .M           1227.7                        : Stop
STEP .M              0.1                        : Step increment
NULL .            -999.250                      : Null value
COMP .            S.N.G.N. ROMGAZ S.A.          : Company
WELL .            209 NADES                     : Well
FLD  .            NADES                         : Field
PROV .            MURES                         : Province
CTRY .            Romania                       : State / Country
LOC  .            X = 529925.187 m              : Location
LOC2 .            Y = 477271.675 m              : Location 2
SRVC .            Weatherford                   : Service company
UWI  .                                          : Unique Well ID
LATI .            46 16'07.03" N                : Latitude
LONG .            24 42'12.69" E                : Longitude
UTME .                                          : Universal Transverse Mercator Easting
UTMN .                                          : Universal Transverse Mercator Northing
X    .                                          : X
Y    .                                          : Y
DATE .            04-Sep-2024                   : Logging Date
#
~Curve Information
#MNEM.UNIT        API CODES                     : CURVE DESCRIPTION
#----.----        ---------                     : -----------------
DEPT .M           00 001 00 00                  : Logged depth
CGXT .DEGC        30 660 01 00                  : MCG External Temperature
SMTU .LB          30 635 00 00                  : DST Uphole Tension
GRGC .GAPI        30 310 01 00                  : MCG Gamma Ray
CCLG .----        30 150 00 00                  : Casing Collar Locator
NPRL .PERC        42 890 01 00                  : Limestone Neutron Por.
NPRL .V/V         42 890 01 00                  : Limestone Neutron Por.
CLDC .IN          45 280 01 00                  : Density Caliper
DCOR .G/C3        42 356 01 00                  : Density Correction
DEN  .G/C3        42 350 01 00                  : Compensated Density
PDPE .B/E         45 358 01 00                  : PE
NPOR .PERC        42 890 04 00                  : Base Neutron Porosity
NPOR .V/V         42 890 04 00                  : Base Neutron Porosity
NPRS .PERC        42 890 03 00                  : Sandstone Neutron Por.
NPRS .V/V         42 890 03 00                  : Sandstone Neutron Por.
NPRD .PERC        42 890 02 00                  : Dolomite Neutron Por.
NPRD .V/V         42 890 02 00                  : Dolomite Neutron Por.
DPOR .PERC        45 890 13 00                  : Base Density Porosity
DPOR .V/V         45 890 13 00                  : Base Density Porosity
DPRL .PERC        45 890 10 00                  : Limestone Density Por.
DPRL .V/V         45 890 10 00                  : Limestone Density Por.
DPRS .PERC        45 890 12 00                  : Sandstone Density Por.
DPRS .V/V         45 890 12 00                  : Sandstone Density Por.
DPRD .PERC        45 890 11 00                  : Dolomite Density Por.
DPRD .V/V         45 890 11 00                  : Dolomite Density Por.
HDEN .G/C3        42 350 01 00                  : Vectar Processed Density
BIT  .IN          70 282 00 00                  : Bit size
#
~Parameter Information
#MNEM.UNIT        VALUE                         : DESCRIPTION
#----.----        -----                         : -----------
RNID .                                          : Run ID
SON  .            24220368                      : Job Number
DREF .            KB                            : Depth reference
EREF .M            484.710                      : Elevation of depth reference
GL   .M            480.210                      : Ground elevation
KB   .M            484.710                      : Kelly Bushing
DF   .M            484.710                      : Drill Floor
DDRF .            KB                            : Drilling Depth Reference
DERF .M            484.710                      : Elevation of Drilling Depth Reference
RUN  .            2A+2B                         : Run number
TDD  .M           1225.000                      : TD (driller)
TDL  .M           1226.000                      : TD (logger)
BS   .IN             8.500                      : Bit size
TIMC .                                          : Time circulation ended
TIML .                                          : Time logger at bottom
UNIT .            13347                         : Equipment ID
BASE .            PLO                           : Equipment base location
ENG  .            MALEA CRISTIAN                : Recording engineer
WIT  .            VASILE FARCAS                 : Witnessed by
CSGT .            SURFACE                       : Casing type
CSGS .IN            16.000                      : Casing size
CSGW .LB/FT          0.000                      : Casing weight
CSGD .M            250.000                      : Casing bottom (driller)
CSGL .M            249.500                      : Casing bottom (logger)
CSUP .M              0.000                      : Casing Stick Up GL
MUD  .            INHIBITIV                     : Mud type
MUDS .            FLOWLINE                      : Mud sample source
MUDD .G/C3           1.100                      : Mud density
MUDV .SEC/L         50.000                      : Mud viscosity
PH   .               9.500                      : Mud pH
FL   .ML/30MIN       4.100                      : Mud fluid loss rate
RM   .OHMM           0.150                      : Mud resistivity
RMT  .DEGC          25.000                      : Mud sample temperature
RMF  .OHMM           0.120                      : Mud filtrate resistivity
RMFT .DEGC          25.000                      : Mud filtrate sample temperature
RMC  .OHMM           0.180                      : Mud cake resistivity
RMCT .DEGC          25.000                      : Mud cake sample temperature
RMBT .OHMM           0.110                      : Mud Resistivity at BHT
BHT  .DEGC          39.000                      : Bottom Hole Temperature
TMAX .DEGC          39.000                      : Max recorded temperature
#
~Other Information
------------------------------------------------------------------------------------------------
Clients intervals and scales logged
Acquisition software: Weatherford Well Manager, version 24.03.1279
Cable used: CAMESA  size 15/32", type 7J46RXZ with  cable head and 8k weakpoint set
Depth wheel calibration factor used 0.6096
Depth Control Procedure for Multiple runs in the well followed.
Run2A: CBHC, MTAK, MBE, MBE, SHA, MCG, MBN, MTC-Y, MSS, MTC-X, SKJ, MUG, MLE, MLG, MTI, MGS,HFS 
Run2B: CBHC, MTAK, SHA, MCG, SKJ, MMR, MDN, MPD, HFS
Run2C: CBHC, MTAK, SHA, MCG, MISD, SKJ, MISE, SKJ, MISD, MSS, MISD, HFS logged in combination.
 Rm, Rmf, Rmc measured on samples from Mud Engineer given on 04.09.2024
Caliper measurements and averages from TD to casing:
   Total hole volume =  35.32 cubic meters
   Annular volume = 20.52 cubic meters, based on future casing size of 5.5 inches
   Average hole diameter = 8.49 inches (215.77 mm), based on XY caliper
------------------------------------------------------------------------------------------------
#
#          DEPT           CGXT           SMTU           GRGC           CCLG           NPRL           NPRL           CLDC           DCOR            DEN           PDPE           NPOR           NPOR           NPRS           NPRS           NPRD           NPRD           DPOR           DPOR           DPRL           DPRL           DPRS           DPRS           DPRD           DPRD           HDEN            BIT
#
~ASCII Log Data
# ...
          832.0      35.512226    1175.625000     111.324463       2.930877      31.696787       0.316968       8.404238       0.009701       2.428694       3.218203      29.933055       0.299331      37.586977       0.375870      28.829543       0.288295      16.450635       0.164506      16.450635       0.164506      13.412477       0.134125      23.599245       0.235992       2.429639       8.500000
          832.1      35.497963    1176.875000     108.885712       0.602807      31.131418       0.311314       8.402911       0.009765       2.431510       3.201596      29.397208       0.293972      37.074205       0.370742      28.310706       0.283107      16.285980       0.162860      16.285980       0.162860      13.241834       0.132418      23.448677       0.234487       2.432397       8.500000
          832.2      35.477621    1178.125000     107.761189       0.359171      30.502850       0.305028       8.402548       0.010646       2.437783       3.212403      28.801963       0.288020      36.503674       0.365037      27.733879       0.277339      15.919130       0.159191      15.919130       0.159191      12.861643       0.128616      23.113214       0.231132       2.438697       8.500000
          832.3      35.481615    1177.500000     109.242649      -0.183110      30.124401       0.301244       8.402596       0.012129       2.447291       3.246061      28.443640       0.284436      36.159569       0.361596      27.386595       0.273866      15.363120       0.153631      15.363120       0.153631      12.285415       0.122854      22.604777       0.226048       2.447701       8.500000
          832.4      35.496935    1186.875000     113.605270      -0.525837      30.157663       0.301577       8.402608       0.013458       2.455464       3.289702      28.474867       0.284749      36.188906       0.361889      27.417130       0.274171      14.885146       0.148851      14.885146       0.148851      11.790061       0.117901      22.167700       0.221677       2.455358       8.500000
          832.5      35.505297    1187.500000     119.245010      -0.553995      30.499669       0.304997       8.402514       0.014016       2.457990       3.332106      28.798221       0.287982      36.499352       0.364994      27.730964       0.277310      14.737417       0.147374      14.737417       0.147374      11.636960       0.116370      22.032611       0.220326       2.457602       8.500000
          832.6      35.506966    1177.500000     123.035069       0.354187      30.994876       0.309949       8.402454       0.013640       2.453917       3.367864      29.266716       0.292667      36.950233       0.369502      28.185360       0.281854      14.975634       0.149756      14.975634       0.149756      11.883838       0.118838      22.250445       0.222504       2.453550       8.500000
          832.7      35.508171    1175.625000     122.928074       1.079450      31.527180       0.315272       8.402452       0.012599       2.446231       3.386805      29.770702       0.297707      37.435289       0.374353      28.673796       0.286738      15.425101       0.154251      15.425101       0.154251      12.349650       0.123497      22.661456       0.226615       2.445937       8.500000
          832.8      35.490734    1173.125000     119.548744       0.356624      31.891518       0.318915       8.403019       0.011413       2.438438       3.387106      30.116278       0.301163      37.767010       0.377670      29.008113       0.290081      15.880843       0.158808      15.880843       0.158808      12.821965       0.128220      23.078204       0.230782       2.438512       8.500000
          832.9      35.490229    1171.250000     115.628727       0.447414      31.952100       0.319521       8.404965       0.010633       2.433181       3.376303      30.174972       0.301750      37.821804       0.378218      29.063710       0.290637      16.188222       0.161882      16.188222       0.161882      13.140521       0.131405      23.359283       0.233593       2.433622       8.500000
          833.0      35.509706    1169.375000     114.116119       1.093137      31.893672       0.318937       8.408009       0.010369       2.430226       3.357137      30.121314       0.301213      37.767204       0.377672      29.010142       0.290101      16.361040       0.163610      16.361040       0.163610      13.319623       0.133196      23.517315       0.235173       2.430491       8.500000
          833.1      35.507664    1169.375000     116.376560       0.363531      32.120191       0.321202       8.410912       0.010358       2.428498       3.344018      30.336756       0.303368      37.963055       0.379631      29.218476       0.292185      16.462117       0.164621      16.462117       0.164621      13.424376       0.134244      23.609743       0.236097       2.428407       8.500000
          833.2      35.504713    1170.000000     121.604321       0.490132      32.940916       0.329409       8.412859       0.010435       2.427727       3.342826      31.112819       0.311128      38.676668       0.386767      29.973538       0.299735      16.507201       0.165072      16.507201       0.165072      13.471099       0.134711      23.650970       0.236510       2.427600       8.500000
          833.3      35.502806    1170.625000     127.049725      -0.187500      34.270668       0.342707       8.413020       0.010603       2.428259       3.341388      32.368484       0.323685      39.832071       0.398321      31.197141       0.311971      16.476089       0.164761      16.476089       0.164761      13.438855       0.134389      23.622519       0.236225       2.428224       8.500000
          833.4      35.496025    1171.250000     130.299118      -2.203947      35.858450       0.358584       8.410055       0.011001       2.431319       3.331545      33.866665       0.338667      41.212416       0.412124      32.658175       0.326582      16.297149       0.162971      16.297149       0.162971      13.253408       0.132534      23.458890       0.234589       2.431345       8.500000
          833.5      35.501183    1171.875000     130.681824      -1.456526      37.235096       0.372351       8.404731       0.011747       2.437637       3.329273      35.164534       0.351645      42.411123       0.424111      33.924711       0.339247      15.927655       0.159277      15.927655       0.159277      12.870479       0.128705      23.121011       0.231210       2.437546       8.500000
          833.6      35.515533    1172.500000     128.810143      -0.333104      38.031967       0.380320       8.399456       0.012481       2.443860       3.348901      35.914278       0.359143      43.106653       0.431067      34.657612       0.346576      15.563760       0.155638      15.563760       0.155638      12.493351       0.124934      22.788252       0.227883       2.443429       8.500000
          833.7      35.498440    1173.750000     126.242817      -0.594395      38.023613       0.380236       8.396085       0.012616       2.444558       3.368003      35.903509       0.359035      43.104515       0.431045      34.649326       0.346493      15.522909       0.155229      15.522909       0.155229      12.451015       0.124510      22.750896       0.227509       2.444282       8.500000
          833.8      35.484550    1175.625000     124.941154      -0.556018      37.430567       0.374306       8.394122       0.012227       2.440312       3.379315      35.341223       0.353412      42.600189       0.426002      34.102482       0.341025      15.771227       0.157712      15.771227       0.157712      12.708362       0.127084      22.977966       0.229780       2.440842       8.500000
          833.9      35.514565    1176.250000     124.729160       1.105877      36.559105       0.365591       8.392365       0.011728       2.433686       3.389537      34.516869       0.345169      41.855858       0.418559      33.299341       0.332993      16.158712       0.161587      16.158712       0.161587      13.109938       0.131099      23.332298       0.233323       2.435104       8.500000
