~Version Information
VERS .            2.00                          : CWLS Log ASCII Standard - Version 2.00
WRAP .            NO                            : One line per depth step
#
~Well Information
#MNEM.UNIT        DATA                          : DESCRIPTION
#----.----        ----                          : -----------
STRT .M            240.0                        : Start
STOP .M           1227.7                        : Stop
STEP .M              0.1                        : Step increment
NULL .            -999.250                      : Null value
COMP .            S.N.G.N. ROMGAZ S.A.          : Company
WELL .            209 NADES                     : Well
FLD  .            NADES                         : Field
PROV .            MURES                         : Province
CTRY .            Romania                       : State / Country
LOC  .            X = 529925.187 m              : Location
LOC2 .            Y = 477271.675 m              : Location 2
SRVC .            Weatherford                   : Service company
UWI  .                                          : Unique Well ID
LATI .            46 16'07.03" N                : Latitude
LONG .            24 42'12.69" E                : Longitude
UTME .                                          : Universal Transverse Mercator Easting
UTMN .                                          : Universal Transverse Mercator Northing
X    .                                          : X
Y    .                                          : Y
DATE .            04-Sep-2024                   : Logging Date
#
~Curve Information
#MNEM.UNIT        API CODES                     : CURVE DESCRIPTION
#----.----        ---------                     : -----------------
DEPT .M           00 001 00 00                  : Logged depth
CGXT .DEGC        30 660 01 00                  : MCG External Temperature
SMTU .LB          30 635 00 00                  : DST Uphole Tension
GRGC .GAPI        30 310 01 00                  : MCG Gamma Ray
CCLG .----        30 150 00 00                  : Casing Collar Locator
NPRL .PERC        42 890 01 00                  : Limestone Neutron Por.
NPRL .V/V         42 890 01 00                  : Limestone Neutron Por.
CLDC .IN          45 280 01 00                  : Density Caliper
DCOR .G/C3        42 356 01 00                  : Density Correction
DEN  .G/C3        42 350 01 00                  : Compensated Density
PDPE .B/E         45 358 01 00                  : PE
NPOR .PERC        42 890 04 00                  : Base Neutron Porosity
NPOR .V/V         42 890 04 00                  : Base Neutron Porosity
NPRS .PERC        42 890 03 00                  : Sandstone Neutron Por.
NPRS .V/V         42 890 03 00                  : Sandstone Neutron Por.
NPRD .PERC        42 890 02 00                  : Dolomite Neutron Por.
NPRD .V/V         42 890 02 00                  : Dolomite Neutron Por.
DPOR .PERC        45 890 13 00                  : Base Density Porosity
DPOR .V/V         45 890 13 00                  : Base Density Porosity
DPRL .PERC        45 890 10 00                  : Limestone Density Por.
DPRL .V/V         45 890 10 00                  : Limestone Density Por.
DPRS .PERC        45 890 12 00                  : Sandstone Density Por.
DPRS .V/V         45 890 12 00                  : Sandstone Density Por.
DPRD .PERC        45 890 11 00                  : Dolomite Density Por.
DPRD .V/V         45 890 11 00                  : Dolomite Density Por.
HDEN .G/C3        42 350 01 00                  : Vectar Processed Density
BIT  .IN          70 282 00 00                  : Bit size
#
~Parameter Information
#MNEM.UNIT        VALUE                         : DESCRIPTION
#----.----        -----                         : -----------
RNID .                                          : Run ID
SON  .            24220368                      : Job Number
DREF .            KB                            : Depth reference
EREF .M            484.710                      : Elevation of depth reference
GL   .M            480.210                      : Ground elevation
KB   .M            484.710                      : Kelly Bushing
DF   .M            484.710                      : Drill Floor
DDRF .            KB                            : Drilling Depth Reference
DERF .M            484.710                      : Elevation of Drilling Depth Reference
RUN  .            2A+2B                         : Run number
TDD  .M           1225.000                      : TD (driller)
TDL  .M           1226.000                      : TD (logger)
BS   .IN             8.500                      : Bit size
TIMC .                                          : Time circulation ended
TIML .                                          : Time logger at bottom
UNIT .            13347                         : Equipment ID
BASE .            PLO                           : Equipment base location
ENG  .            MALEA CRISTIAN                : Recording engineer
WIT  .            VASILE FARCAS                 : Witnessed by
CSGT .            SURFACE                       : Casing type
CSGS .IN            16.000                      : Casing size
CSGW .LB/FT          0.000                      : Casing weight
CSGD .M            250.000                      : Casing bottom (driller)
CSGL .M            249.500                      : Casing bottom (logger)
CSUP .M              0.000                      : Casing Stick Up GL
MUD  .            INHIBITIV                     : Mud type
MUDS .            FLOWLINE                      : Mud sample source
MUDD .G/C3           1.100                      : Mud density
MUDV .SEC/L         50.000                      : Mud viscosity
PH   .               9.500                      : Mud pH
FL   .ML/30MIN       4.100                      : Mud fluid loss rate
RM   .OHMM           0.150                      : Mud resistivity
RMT  .DEGC          25.000                      : Mud sample temperature
RMF  .OHMM           0.120                      : Mud filtrate resistivity
RMFT .DEGC          25.000                      : Mud filtrate sample temperature
RMC  .OHMM           0.180                      : Mud cake resistivity
RMCT .DEGC          25.000                      : Mud cake sample temperature
RMBT .OHMM           0.110                      : Mud Resistivity at BHT
BHT  .DEGC          39.000                      : Bottom Hole Temperature
TMAX .DEGC          39.000                      : Max recorded temperature
#
~Other Information
------------------------------------------------------------------------------------------------
Clients intervals and scales logged
Acquisition software: Weatherford Well Manager, version 24.03.1279
Cable used: CAMESA  size 15/32", type 7J46RXZ with  cable head and 8k weakpoint set
Depth wheel calibration factor used 0.6096
Depth Control Procedure for Multiple runs in the well followed.
Run2A: CBHC, MTAK, MBE, MBE, SHA, MCG, MBN, MTC-Y, MSS, MTC-X, SKJ, MUG, MLE, MLG, MTI, MGS,HFS 
Run2B: CBHC, MTAK, SHA, MCG, SKJ, MMR, MDN, MPD, HFS
Run2C: CBHC, MTAK, SHA, MCG, MISD, SKJ, MISE, SKJ, MISD, MSS, MISD, HFS logged in combination.
 Rm, Rmf, Rmc measured on samples from Mud Engineer given on 04.09.2024
Caliper measurements and averages from TD to casing:
   Total hole volume =  35.32 cubic meters
   Annular volume = 20.52 cubic meters, based on future casing size of 5.5 inches
   Average hole diameter = 8.49 inches (215.77 mm), based on XY caliper
------------------------------------------------------------------------------------------------
#
#          DEPT           CGXT           SMTU           GRGC           CCLG           NPRL           NPRL           CLDC           DCOR            DEN           PDPE           NPOR           NPOR           NPRS           NPRS           NPRD           NPRD           DPOR           DPOR           DPRL           DPRL           DPRS           DPRS           DPRD           DPRD           HDEN            BIT
#
~ASCII Log Data
# ...
          898.0      36.180014    1238.750000      96.673882       0.197914      25.043607       0.250436       8.392690       0.009016       2.345857       2.939255      23.604082       0.236041      31.350531       0.313505      22.721486       0.227215      21.294931       0.212949      21.294931       0.212949      18.432929       0.184329      28.029055       0.280291       2.345648       8.500000
          898.1      36.170475    1238.750000     100.172028       0.227871      25.783083       0.257831       8.393156       0.009734       2.357467       2.978395      24.304054       0.243041      32.061491       0.320615      23.400735       0.234007      20.615954       0.206160      20.615954       0.206160      17.729261       0.177293      27.408173       0.274082       2.357545       8.500000
          898.2      36.174335    1238.750000     103.034176       0.741029      26.454297       0.264543       8.393325       0.010968       2.370829       3.023566      24.939268       0.249393      32.706358       0.327064      24.017249       0.240172      19.834548       0.198345      19.834548       0.198345      16.919440       0.169194      26.693624       0.266936       2.371850       8.500000
          898.3      36.181206    1238.750000     105.330391       0.158864      26.818817       0.268188       8.393366       0.012552       2.382405       3.076077      25.284180       0.252842      33.056408       0.330564      24.352044       0.243520      19.157578       0.191576      19.157578       0.191576      16.217854       0.162179      26.074577       0.260746       2.384070       8.500000
          898.4      36.191042    1238.125000     106.778572       0.523996      26.742578       0.267426       8.393394       0.014154       2.389542       3.119512      25.212025       0.252120      32.982306       0.329823      24.281960       0.242820      18.740234       0.187402      18.740234       0.187402      15.785335       0.157853      25.692942       0.256929       2.390499       8.500000
          898.5      36.199135    1238.125000     106.707901       0.577807      26.217713       0.262177       8.393422       0.015289       2.391789       3.140888      24.715434       0.247154      32.476467       0.324765      23.799775       0.237998      18.608805       0.186088      18.608805       0.186088      15.649125       0.156491      25.572757       0.255728       2.390832       8.500000
          898.6      36.200296    1238.750000     105.011848      -1.833377      25.473557       0.254736       8.393636       0.015653       2.390639       3.150053      24.011306       0.240113      31.760756       0.317608      23.116214       0.231162      18.676064       0.186761      18.676064       0.186761      15.718830       0.157188      25.634261       0.256343       2.388680       8.500000
          898.7      36.172174    1238.750000     103.230228      -0.636065      24.860399       0.248604       8.393821       0.015079       2.387855       3.165395      23.430919       0.234309      31.172571       0.311726      22.553067       0.225531      18.838886       0.188389      18.838886       0.188389      15.887572       0.158876      25.783152       0.257832       2.386366       8.500000
          898.8      36.170713    1238.750000     102.459419       1.520953      24.686936       0.246869       8.393106       0.013742       2.384637       3.181007      23.266335       0.232663      31.008289       0.310083      22.393854       0.223939      19.027098       0.190271      19.027098       0.190271      16.082627       0.160826      25.955259       0.259553       2.384250       8.500000
          898.9      36.198656    1238.750000     102.596428       1.128609      25.019684       0.250197       8.391402       0.012267       2.382433       3.173506      23.580555       0.235806      31.331549       0.313315      22.699650       0.226996      19.155976       0.191560      19.155976       0.191560      16.216192       0.162162      26.073112       0.260731       2.382815       8.500000
          899.0      36.196436    1238.750000     103.301788       0.146810      25.785691       0.257857       8.389604       0.011137       2.381236       3.136403      24.304567       0.243046      32.069024       0.320690      23.403339       0.234033      19.225982       0.192260      19.225982       0.192260      16.288744       0.162887      26.137128       0.261371       2.382143       8.500000
          899.1      36.173010    1238.750000     104.056931      -0.301754      26.725418       0.267254       8.388685       0.010387       2.379145       3.077710      25.192904       0.251929      32.969149       0.329691      24.266435       0.242664      19.348258       0.193483      19.348258       0.193483      16.415467       0.164155      26.248942       0.262489       2.380051       8.500000
          899.2      36.158659    1238.125000     104.060543       0.174342      27.692485       0.276925       8.388575       0.009729       2.374841       3.011935      26.107159       0.261072      33.888235       0.338882      25.154392       0.251544      19.599957       0.196000      19.599957       0.196000      16.676319       0.166763      26.479106       0.264791       2.375111       8.500000
          899.3      36.173277    1238.750000     102.605911      -0.611842      28.616651       0.286167       8.388600       0.009251       2.370141       2.948970      26.980824       0.269808      34.759521       0.347595      26.002745       0.260027      19.874786       0.198748      19.874786       0.198748      16.961143       0.169611      26.730420       0.267304       2.370188       8.500000
          899.4      36.191488    1240.000000     100.869499      -1.213816      29.407945       0.294079       8.388634       0.009159       2.368055       2.923368      27.728684       0.277287      35.500782       0.355008      26.728995       0.267290      19.996805       0.199968      19.996805       0.199968      17.087598       0.170876      26.841998       0.268420       2.368218       8.500000
          899.5      36.189730    1240.000000      99.608707      -0.749615      29.815702       0.298157       8.388653       0.009758       2.371863       2.937209      28.113750       0.281137      35.880159       0.358802      27.103172       0.271032      19.774107       0.197741      19.774107       0.197741      16.856802       0.168568      26.638354       0.266384       2.371751       8.500000
          899.6      36.218237    1239.375000      98.971848       0.809595      29.690900       0.296909       8.388802       0.010840       2.380444       2.965813      27.995435       0.279954      35.759886       0.357599      26.988559       0.269886      19.272299       0.192723      19.272299       0.192723      16.336746       0.163367      26.179482       0.261795       2.380401       8.500000
          899.7      36.254183    1239.375000      99.119823       1.839243      29.107388       0.291074       8.389384       0.011888       2.389816       2.975265      27.443802       0.274438      35.209869       0.352099      26.452950       0.264530      18.724194       0.187242      18.724194       0.187242      15.768710       0.157687      25.678273       0.256783       2.389831       8.500000
          899.8      36.274033    1239.375000     100.043819       1.401742      28.214484       0.282145       8.390385       0.012937       2.399759       2.964682      26.600014       0.266000      34.369610       0.343696      25.633357       0.256334      18.142738       0.181427      18.142738       0.181427      15.166111       0.151661      25.146568       0.251466       2.398857       8.500000
          899.9      36.221903    1239.375000     100.330097       1.140635      27.165122       0.271651       8.391367       0.013777       2.409872       2.951420      25.608490       0.256085      33.380585       0.333806      24.670086       0.246701      17.551356       0.175514      17.551356       0.175514      14.553223       0.145532      24.605785       0.246058       2.407982       8.500000
