~Version Information
VERS .            2.00                          : CWLS Log ASCII Standard - Version 2.00
WRAP .            NO                            : One line per depth step
#
~Well Information
#MNEM.UNIT        DATA                          : DESCRIPTION
#----.----        ----                          : -----------
STRT .M            240.0                        : Start
STOP .M           1228.5                        : Stop
STEP .M              0.1                        : Step increment
NULL .            -999.250                      : Null value
COMP .            S.N.G.N. ROMGAZ S.A.          : Company
WELL .            209 NADES                     : Well
FLD  .            NADES                         : Field
PROV .            MURES                         : Province
CTRY .            Romania                       : State / Country
LOC  .            X = 529925.187 m              : Location
LOC2 .            Y = 477271.675 m              : Location 2
SRVC .            Weatherford                   : Service company
UWI  .                                          : Unique Well ID
LATI .            46 16'07.03" N                : Latitude
LONG .            24 42'12.69" E                : Longitude
UTME .                                          : Universal Transverse Mercator Easting
UTMN .                                          : Universal Transverse Mercator Northing
X    .                                          : X
Y    .                                          : Y
DATE .            04-Sep-2024                   : Logging Date
#
~Curve Information
#MNEM.UNIT        API CODES                     : CURVE DESCRIPTION
#----.----        ---------                     : -----------------
DEPT .M           00 001 00 00                  : Logged depth
CGXT .DEGC        30 660 01 00                  : MCG External Temperature
SMTU .LB          30 635 00 00                  : DST Uphole Tension
GRGC .GAPI        30 310 01 00                  : MCG Gamma Ray
CCLG .----        30 150 00 00                  : Casing Collar Locator
TR21 .US          60 520 30 00                  : 3' Transit Time
TR11 .US          60 520 04 00                  : 4' Transit Time
TR22 .US          60 520 50 00                  : 5' Transit Time
TR12 .US          60 520 60 00                  : 6' Transit Time
DT35 .US/F        60 520 32 00                  : 3-5' Compensated Sonic
BIT  .IN          70 282 00 00                  : Bit size
#
~Parameter Information
#MNEM.UNIT        VALUE                         : DESCRIPTION
#----.----        -----                         : -----------
RNID .                                          : Run ID
SON  .            24220368                      : Job Number
DREF .            KB                            : Depth reference
EREF .M            484.710                      : Elevation of depth reference
GL   .M            480.210                      : Ground elevation
KB   .M            484.710                      : Kelly Bushing
DF   .M            484.710                      : Drill Floor
DDRF .            KB                            : Drilling Depth Reference
DERF .M            484.710                      : Elevation of Drilling Depth Reference
RUN  .            2A+2B                         : Run number
TDD  .M           1225.000                      : TD (driller)
TDL  .M           1226.000                      : TD (logger)
BS   .IN             8.500                      : Bit size
TIMC .                                          : Time circulation ended
TIML .                                          : Time logger at bottom
UNIT .            13347                         : Equipment ID
BASE .            PLO                           : Equipment base location
ENG  .            MALEA CRISTIAN                : Recording engineer
WIT  .            VASILE FARCAS                 : Witnessed by
CSGT .            SURFACE                       : Casing type
CSGS .IN            16.000                      : Casing size
CSGW .LB/FT          0.000                      : Casing weight
CSGD .M            250.000                      : Casing bottom (driller)
CSGL .M            249.500                      : Casing bottom (logger)
CSUP .M              0.000                      : Casing Stick Up GL
MUD  .            INHIBITIV                     : Mud type
MUDS .            FLOWLINE                      : Mud sample source
MUDD .G/C3           1.100                      : Mud density
MUDV .SEC/L         50.000                      : Mud viscosity
PH   .               9.500                      : Mud pH
FL   .ML/30MIN       4.100                      : Mud fluid loss rate
RM   .OHMM           0.150                      : Mud resistivity
RMT  .DEGC          25.000                      : Mud sample temperature
RMF  .OHMM           0.120                      : Mud filtrate resistivity
RMFT .DEGC          25.000                      : Mud filtrate sample temperature
RMC  .OHMM           0.180                      : Mud cake resistivity
RMCT .DEGC          25.000                      : Mud cake sample temperature
RMBT .OHMM           0.110                      : Mud Resistivity at BHT
BHT  .DEGC          39.000                      : Bottom Hole Temperature
TMAX .DEGC          39.000                      : Max recorded temperature
#
~Other Information
------------------------------------------------------------------------------------------------
Clients intervals and scales logged
Acquisition software: Weatherford Well Manager, version 24.03.1279
Cable used: CAMESA  size 15/32", type 7J46RXZ with  cable head and 8k weakpoint set
Depth wheel calibration factor used 0.6096
Depth Control Procedure for Multiple runs in the well followed.
Run2A: CBHC, MTAK, MBE, MBE, SHA, MCG, MBN, MTC-Y, MSS, MTC-X, SKJ, MUG, MLE, MLG, MTI, MGS,HFS 
Run2B: CBHC, MTAK, SHA, MCG, SKJ, MMR, MDN, MPD, HFS
Run2C: CBHC, MTAK, SHA, MCG, MISD, SKJ, MISE, SKJ, MISD, MSS, MISD, HFS logged in combination.
 Rm, Rmf, Rmc measured on samples from Mud Engineer given on 04.09.2024
Caliper measurements and averages from TD to casing:
   Total hole volume =  35.32 cubic meters
   Annular volume = 20.52 cubic meters, based on future casing size of 5.5 inches
   Average hole diameter = 8.49 inches (215.77 mm), based on XY caliper
------------------------------------------------------------------------------------------------
#
#          DEPT           CGXT           SMTU           GRGC           CCLG           TR21           TR11           TR22           TR12           DT35            BIT
#
~ASCII Log Data
# ...
          367.4      30.934910    1145.000000      65.545929       7.735715     452.778748     568.795532     652.141418     783.244995     113.306679       8.500000
          367.5      31.160353    1145.000000      64.329155     -10.750000     458.915039     568.469116     685.750854     769.162903     111.945839       8.500000
          367.6      30.851547    1141.250000      65.515884      -6.855556     459.750885     571.156738     683.000854     812.750854     111.193459       8.500000
          367.7      31.016157    1141.250000      68.385216       1.696694     455.750885     574.988342     687.750854     799.933777     111.242203       8.500000
          367.8      31.097197    1141.250000      74.111343       0.530908     457.750885     572.750854     691.750854     800.947144     112.093452       8.500000
          367.9      31.108284    1141.250000      79.007088       3.978873     460.767822     572.759583     690.750854     805.750854     113.386993       8.500000
          368.0      31.052490    1140.000000      81.133896       9.316901     465.750885     574.967224     689.750854     806.993652     114.679115       8.500000
          368.1      31.159786    1138.750000      78.817871       2.484155     470.750885     579.750854     689.750854     804.127625     115.668137       8.500000
          368.2      31.037437    1137.500000      73.210281      -7.042253     473.750885     583.021118     692.209351     801.752441     116.308434       8.500000
          368.3      30.885702    1136.250000      65.116608       0.741197     471.750885     587.750854     695.936951     802.750854     116.701866       8.500000
          368.4      30.978991    1133.750000      58.055241       5.591549     469.750885     587.815308     699.791809     806.962891     116.802979       8.500000
          368.5      31.045336    1131.250000      54.185780       0.985916     471.750885     583.750854     702.750854     809.479248     116.618561       8.500000
          368.6      30.953478    1128.750000      54.514507      -5.577263     469.750885     583.750854     697.750854     817.034302     116.184113       8.500000
          368.7      30.923525    1126.250000      55.894665      -3.901409     469.750885     585.985901     699.750854     820.855225     115.569038       8.500000
          368.8      30.812204    1140.000000      58.031689       3.124603     468.750885     583.750854     705.750854     820.753723     114.894501       8.500000
          368.9      31.094515    1148.750000      60.057049      -4.978482     465.750885     585.750854     706.820740     824.750854     114.465530       8.500000
          369.0      31.003372    1152.500000      63.243973       0.692097     466.750885     586.750854     709.750854     830.750854     114.508522       8.500000
          369.1      31.014460    1151.250000      65.924675       6.034921     469.750885     588.750854     711.750854     833.096619     115.143410       8.500000
          369.2      31.120146    1150.000000      69.629593      -6.295272     471.873901     591.750854     714.004639     834.877563     116.279839       8.500000
          369.3      30.970736    1150.000000      73.022125       5.978773     475.750885     594.750854     716.750854     835.750854     117.845802       8.500000
          369.4      30.965698    1150.000000      75.860466       9.422032     481.750885     597.750854     718.750854     836.753235     119.611870       8.500000
          369.5      31.167982    1151.250000      77.560791      -3.763693     485.750885     600.750854     720.750854     840.086487     121.329918       8.500000
          369.6      30.854080    1151.250000      78.070267       0.795775     487.750885     605.750854     724.750854     842.828979     122.728142       8.500000
          369.7      30.966949    1150.000000      80.463402      -6.541667     491.750885     608.750854     730.750854     843.750854     123.724831       8.500000
          369.8      30.979826    1147.500000      83.664406      -8.485915     492.750885     612.750854     732.750854     847.117249     124.321373       8.500000
          369.9      30.901201    1147.500000      87.475304       9.213811     492.750885     617.750854     735.750854     853.837646     124.602638       8.500000
          370.0      31.090521    1146.250000      88.823433       3.808783     494.750885     617.831726     740.775208     857.801636     124.685593       8.500000
          370.1      31.136091    1147.500000      89.280930      -9.769366     493.750885     617.750854     742.914917     860.803223     124.714027       8.500000
          370.2      30.820669    1147.500000      88.616966       0.202183     493.750885     619.750854     742.750854     865.750854     124.801514       8.500000
          370.3      31.029867    1148.750000      88.481651       2.424296     493.750885     620.750854     743.750854     867.808960     124.947311       8.500000
          370.4      31.150934    1150.000000      87.823357      -2.410516     494.750885     619.750854     744.750854     866.750854     125.095985       8.500000
          370.5      31.019823    1150.000000      87.142387       1.290982     494.750885     618.750854     743.837830     868.750854     125.210808       8.500000
          370.6      31.096333    1148.750000      85.044075       4.519269     494.750885     619.750854     743.750854     869.935974     125.289047       8.500000
          370.7      31.024981    1150.000000      82.042336       1.159722     495.750885     619.750854     745.750854     869.750854     125.320992       8.500000
          370.8      30.992552    1150.000000      78.456070      -7.094467     493.750885     619.938721     745.876709     868.750854     125.306023       8.500000
          370.9      30.904837    1150.000000      77.931038       2.840278     493.750885     622.750854     745.750854     867.750854     125.343910       8.500000
          371.0      30.991867    1151.250000      78.914177       6.017002     496.750885     621.750854     744.750854     867.750854     125.459717       8.500000
          371.1      31.073353    1150.000000      81.900337      -3.486111     495.750885     621.750854     742.844788     866.750854     125.647636       8.500000
          371.2      30.948025    1150.000000      82.789665      -7.845071     494.874207     620.750854     742.750854     866.750854     125.767937       8.500000
          371.3      31.023073    1148.750000      84.266510      -6.100646     494.750885     618.750854     742.750854     865.750854     125.771851       8.500000
          371.4      31.015085    1147.500000      85.098473       8.472712     493.750885     617.750854     740.750854     866.750854     125.527199       8.500000
          371.5      31.231943    1146.250000      86.921280       1.350646     492.750885     616.750854     740.750854     865.888367     125.053452       8.500000
          371.6      31.153408    1143.750000      89.125366      -8.076389     491.750885     616.750854     740.750854     864.031067     124.409523       8.500000
          371.7      30.954044    1141.250000      93.272583       2.298611     490.750885     616.015442     739.750854     865.750854     123.832626       8.500000
          371.8      31.150457    1141.250000      97.198318       4.527779     489.750885     615.750854     740.750854     864.785583     123.410088       8.500000
          371.9      31.107122    1138.750000      99.021812       4.975794     487.750885     614.750854     740.750854     864.033997     123.243195       8.500000
          372.0      31.020538    1137.500000      98.799210       6.416666     487.750885     614.750854     738.750854     863.750854     123.308273       8.500000
          372.1      31.041105    1136.250000      97.754852       0.114386     489.778748     613.750854     738.750854     864.750854     123.562889       8.500000
          372.2      31.000689    1135.000000      97.261375      -3.706964     490.750885     613.750854     737.750854     864.056519     123.858986       8.500000
