~Version Information
VERS .            2.00                          : CWLS Log ASCII Standard - Version 2.00
WRAP .            NO                            : One line per depth step
#
~Well Information
#MNEM.UNIT        DATA                          : DESCRIPTION
#----.----        ----                          : -----------
STRT .M            240.0                        : Start
STOP .M           1228.5                        : Stop
STEP .M              0.1                        : Step increment
NULL .            -999.250                      : Null value
COMP .            S.N.G.N. ROMGAZ S.A.          : Company
WELL .            209 NADES                     : Well
FLD  .            NADES                         : Field
PROV .            MURES                         : Province
CTRY .            Romania                       : State / Country
LOC  .            X = 529925.187 m              : Location
LOC2 .            Y = 477271.675 m              : Location 2
SRVC .            Weatherford                   : Service company
UWI  .                                          : Unique Well ID
LATI .            46 16'07.03" N                : Latitude
LONG .            24 42'12.69" E                : Longitude
UTME .                                          : Universal Transverse Mercator Easting
UTMN .                                          : Universal Transverse Mercator Northing
X    .                                          : X
Y    .                                          : Y
DATE .            04-Sep-2024                   : Logging Date
#
~Curve Information
#MNEM.UNIT        API CODES                     : CURVE DESCRIPTION
#----.----        ---------                     : -----------------
DEPT .M           00 001 00 00                  : Logged depth
CGXT .DEGC        30 660 01 00                  : MCG External Temperature
SMTU .LB          30 635 00 00                  : DST Uphole Tension
GRGC .GAPI        30 310 01 00                  : MCG Gamma Ray
CCLG .----        30 150 00 00                  : Casing Collar Locator
TR21 .US          60 520 30 00                  : 3' Transit Time
TR11 .US          60 520 04 00                  : 4' Transit Time
TR22 .US          60 520 50 00                  : 5' Transit Time
TR12 .US          60 520 60 00                  : 6' Transit Time
DT35 .US/F        60 520 32 00                  : 3-5' Compensated Sonic
BIT  .IN          70 282 00 00                  : Bit size
#
~Parameter Information
#MNEM.UNIT        VALUE                         : DESCRIPTION
#----.----        -----                         : -----------
RNID .                                          : Run ID
SON  .            24220368                      : Job Number
DREF .            KB                            : Depth reference
EREF .M            484.710                      : Elevation of depth reference
GL   .M            480.210                      : Ground elevation
KB   .M            484.710                      : Kelly Bushing
DF   .M            484.710                      : Drill Floor
DDRF .            KB                            : Drilling Depth Reference
DERF .M            484.710                      : Elevation of Drilling Depth Reference
RUN  .            2A+2B                         : Run number
TDD  .M           1225.000                      : TD (driller)
TDL  .M           1226.000                      : TD (logger)
BS   .IN             8.500                      : Bit size
TIMC .                                          : Time circulation ended
TIML .                                          : Time logger at bottom
UNIT .            13347                         : Equipment ID
BASE .            PLO                           : Equipment base location
ENG  .            MALEA CRISTIAN                : Recording engineer
WIT  .            VASILE FARCAS                 : Witnessed by
CSGT .            SURFACE                       : Casing type
CSGS .IN            16.000                      : Casing size
CSGW .LB/FT          0.000                      : Casing weight
CSGD .M            250.000                      : Casing bottom (driller)
CSGL .M            249.500                      : Casing bottom (logger)
CSUP .M              0.000                      : Casing Stick Up GL
MUD  .            INHIBITIV                     : Mud type
MUDS .            FLOWLINE                      : Mud sample source
MUDD .G/C3           1.100                      : Mud density
MUDV .SEC/L         50.000                      : Mud viscosity
PH   .               9.500                      : Mud pH
FL   .ML/30MIN       4.100                      : Mud fluid loss rate
RM   .OHMM           0.150                      : Mud resistivity
RMT  .DEGC          25.000                      : Mud sample temperature
RMF  .OHMM           0.120                      : Mud filtrate resistivity
RMFT .DEGC          25.000                      : Mud filtrate sample temperature
RMC  .OHMM           0.180                      : Mud cake resistivity
RMCT .DEGC          25.000                      : Mud cake sample temperature
RMBT .OHMM           0.110                      : Mud Resistivity at BHT
BHT  .DEGC          39.000                      : Bottom Hole Temperature
TMAX .DEGC          39.000                      : Max recorded temperature
#
~Other Information
------------------------------------------------------------------------------------------------
Clients intervals and scales logged
Acquisition software: Weatherford Well Manager, version 24.03.1279
Cable used: CAMESA  size 15/32", type 7J46RXZ with  cable head and 8k weakpoint set
Depth wheel calibration factor used 0.6096
Depth Control Procedure for Multiple runs in the well followed.
Run2A: CBHC, MTAK, MBE, MBE, SHA, MCG, MBN, MTC-Y, MSS, MTC-X, SKJ, MUG, MLE, MLG, MTI, MGS,HFS 
Run2B: CBHC, MTAK, SHA, MCG, SKJ, MMR, MDN, MPD, HFS
Run2C: CBHC, MTAK, SHA, MCG, MISD, SKJ, MISE, SKJ, MISD, MSS, MISD, HFS logged in combination.
 Rm, Rmf, Rmc measured on samples from Mud Engineer given on 04.09.2024
Caliper measurements and averages from TD to casing:
   Total hole volume =  35.32 cubic meters
   Annular volume = 20.52 cubic meters, based on future casing size of 5.5 inches
   Average hole diameter = 8.49 inches (215.77 mm), based on XY caliper
------------------------------------------------------------------------------------------------
#
#          DEPT           CGXT           SMTU           GRGC           CCLG           TR21           TR11           TR22           TR12           DT35            BIT
#
~ASCII Log Data
# ...
          945.6      36.891197    1714.999878     103.498299      -0.913333     449.750885     548.879883     655.750854     758.421143     107.801811       8.500000
          945.7      36.913700    1716.249878     102.058426       0.209460     450.750885     550.880798     653.898315     760.305176     107.704544       8.500000
          945.8      36.868340    1716.249878     100.740517      -0.100000     446.750885     551.750854     654.960266     759.469604     107.792213       8.500000
          945.9      36.833260    1714.999878      99.117950      -1.641892     444.750885     555.750854     656.086548     759.085938     108.037498       8.500000
          946.0      36.951553    1716.249878     100.278664       0.399087     446.911591     549.750854     660.750854     761.895691     108.292152       8.500000
          946.1      36.922134    1716.249878     102.078247       1.040540     444.750885     549.750854     658.237488     763.750854     108.394913       8.500000
          946.2      36.882584    1716.249878     104.065262      -0.465754     443.750885     551.750854     656.750854     767.003296     108.177879       8.500000
          946.3      36.896263    1717.499878     103.720680      -3.560811     443.764496     550.750854     658.846313     760.770264     107.741974       8.500000
          946.4      36.893879    1718.749878     101.431473      -1.636987     439.750885     550.977478     654.870422     758.750854     107.090401       8.500000
          946.5      36.942760    1717.499878      97.130890       2.513514     439.750885     549.768494     653.750854     757.758240     106.480339       8.500000
          946.6      36.875610    1714.999878      91.023819       0.472603     434.750885     543.366272     650.905334     752.021606     105.891914       8.500000
          946.7      36.805420    1714.999878      86.397285       1.671696     429.172913     541.002625     641.302124     750.043640     105.448257       8.500000
          946.8      36.883152    1713.749878      83.299286       3.231951     426.816193     535.034119     637.217529     753.851685     104.847321       8.500000
          946.9      36.951702    1713.749878      82.671394      -1.212146     420.823608     526.250854     637.750854     750.750854     103.941093       8.500000
          947.0      36.878025    1714.999878      81.870995      -2.466216     418.750885     522.617310     635.117676     748.885315     102.632721       8.500000
          947.1      36.911228    1713.749878      81.007027       2.243153     415.750885     523.871643     633.750854     745.967896     101.154953       8.500000
          947.2      36.915756    1713.749878      78.982719       3.270270     419.750885     526.785889     630.107056     741.637939      99.902672       8.500000
          947.3      36.884613    1714.999878      78.055031      -3.810811     421.750885     526.750854     632.750854     738.469360      99.257790       8.500000
          947.4      36.918438    1713.749878      78.859428      -2.118197     423.750885     525.750854     631.750854     734.766968      99.445999       8.500000
          947.5      36.954922    1714.999878      82.427864      -0.277027     421.750885     526.750854     629.881287     733.234741     100.452103       8.500000
          947.6      36.896355    1714.999878      87.652565       0.559075     421.750885     527.750854     627.996094     725.796631     101.893829       8.500000
          947.7      36.873077    1713.749878      94.946686       2.297297     425.750885     524.750854     623.750854     723.807922     103.302460       8.500000
          947.8      36.902584    1713.749878     102.153885       0.059122     428.953705     523.378357     620.097534     719.852783     104.178795       8.500000
          947.9      36.898621    1713.749878     109.147346      -2.317568     433.810242     521.269714     616.750854     717.552185     104.413185       8.500000
          948.0      36.863510    1713.749878     112.977470       2.385135     429.750885     525.354004     616.331543     712.171936     103.982948       8.500000
          948.1      36.900288    1713.749878     115.436882       1.652444     426.750885     526.213318     617.314209     712.169739     102.995338       8.500000
          948.2      36.848309    1713.749878     114.015083      -2.934839     421.750885     522.774597     622.009827     715.795532     101.568047       8.500000
          948.3      36.897816    1714.999878     111.142853       1.286746     419.750885     518.750854     622.996643     721.777649      99.922691       8.500000
          948.4      36.920078    1716.249878     105.877617       1.015920     416.779114     516.998413     621.958618     727.974670      98.394821       8.500000
          948.5      36.882732    1717.499878     100.511543      -2.851351     413.756104     517.974670     622.750854     728.750854      97.173149       8.500000
          948.6      36.948544    1717.499878      94.490166       1.381341     412.798676     519.750854     623.941650     728.961853      96.520927       8.500000
          948.7      36.933701    1717.499878      88.685150      -0.527027     410.819733     518.895569     627.750854     728.757080      96.506401       8.500000
          948.8      36.881065    1718.749878      85.364243      -0.874584     416.863556     518.066650     625.750854     729.902405      97.252487       8.500000
          948.9      36.965023    1718.749878      86.107086       2.162162     418.750885     518.834106     624.750854     732.750854      98.564285       8.500000
          949.0      36.828789    1718.749878      89.539154      -1.972972     419.772919     523.750854     624.750854     730.867432     100.208458       8.500000
          949.1      36.905445    1717.499878      94.278221       1.979730     424.750885     524.035889     628.942444     731.109924     101.887566       8.500000
          949.2      36.888485    1716.249878      99.307396       0.304054     428.750885     525.033386     631.755310     731.023743     103.355835       8.500000
          949.3      36.807091    1716.249878     104.345001      -1.581081     430.911865     529.750854     632.750854     735.898499     104.469307       8.500000
          949.4      36.925446    1716.249878     107.285751       3.543502     432.750885     535.255432     636.750854     737.969299     105.143898       8.500000
          949.5      36.876026    1716.249878     110.728981       1.641892     436.750885     537.750854     642.021973     738.466614     105.474785       8.500000
          949.6      36.909348    1717.499878     115.421356      -1.874584     437.802307     539.750854     644.750854     743.457764     105.569412       8.500000
          949.7      36.947113    1717.499878     121.715210      -2.720659     439.750885     543.750854     646.101501     747.275696     105.625313       8.500000
          949.8      36.924221    1718.749878     123.777069      -0.728156     440.750885     544.750854     649.045288     748.231079     105.705284       8.500000
          949.9      36.967381    1719.999878     124.404778       1.369308     438.853394     546.750854     648.871460     749.062012     105.869148       8.500000
          950.0      36.935188    1721.249878     123.840599      -0.732877     439.750885     545.750854     649.750854     752.049866     106.028915       8.500000
          950.1      37.008331    1719.999878     122.462303       0.253980     439.750885     543.091492     648.886597     753.750854     106.126419       8.500000
          950.2      36.900497    1718.749878     119.410019       1.472603     439.750885     542.861572     648.750854     755.750854     106.051987       8.500000
          950.3      36.962162    1718.749878     118.168373      -1.179656     438.750885     542.880676     649.032776     755.855408     105.783218       8.500000
          950.4      36.959213    1718.749878     117.251686      -2.234542     437.750885     544.750854     650.750854     755.810425     105.342735       8.500000
