~Version Information
VERS .            2.00                          : CWLS Log ASCII Standard - Version 2.00
WRAP .            NO                            : One line per depth step
#
~Well Information
#MNEM.UNIT        DATA                          : DESCRIPTION
#----.----        ----                          : -----------
STRT .M            240.0                        : Start
STOP .M           1229.6                        : Stop
STEP .M              0.1                        : Step increment
NULL .            -999.250                      : Null value
COMP .            S.N.G.N. ROMGAZ S.A.          : Company
WELL .            209 NADES                     : Well
FLD  .            NADES                         : Field
PROV .            MURES                         : Province
CTRY .            Romania                       : State / Country
LOC  .            X = 529925.187 m              : Location
LOC2 .            Y = 477271.675 m              : Location 2
SRVC .            Weatherford                   : Service company
UWI  .                                          : Unique Well ID
LATI .            46 16'07.03" N                : Latitude
LONG .            24 42'12.69" E                : Longitude
UTME .                                          : Universal Transverse Mercator Easting
UTMN .                                          : Universal Transverse Mercator Northing
X    .                                          : X
Y    .                                          : Y
DATE .            04-Sep-2024                   : Logging Date
#
~Curve Information
#MNEM.UNIT        API CODES                     : CURVE DESCRIPTION
#----.----        ---------                     : -----------------
DEPT .M           00 001 00 00                  : Logged depth
CGXT .DEGC        30 660 01 00                  : MCG External Temperature
SMTU .LB          30 635 00 00                  : DST Uphole Tension
CCLG .----        30 150 00 00                  : Casing Collar Locator
DSLL .OHMM        11 220 09 00                  : Shallow Laterolog
DDLL .OHMM        11 220 10 00                  : Deep Laterolog
DGLL .OHMM        11 211 00 00                  : Groningen Laterolog
SPDL .MV          30 010 00 00                  : Spontaneous Potential
GRGM .GAPI        30 310 01 00                  : MGS Gamma Ray
MRRS .OHMM        15 252 00 00                  : MicroRes Resistance (S)
MATC .IN          15 280 01 00                  : MMR Caliper
BIT  .IN          70 282 00 00                  : Bit size
#
~Parameter Information
#MNEM.UNIT        VALUE                         : DESCRIPTION
#----.----        -----                         : -----------
RNID .                                          : Run ID
SON  .            24220368                      : Job Number
DREF .            KB                            : Depth reference
EREF .M            484.710                      : Elevation of depth reference
GL   .M            480.210                      : Ground elevation
KB   .M            484.710                      : Kelly Bushing
DF   .M            484.710                      : Drill Floor
DDRF .            KB                            : Drilling Depth Reference
DERF .M            484.710                      : Elevation of Drilling Depth Reference
RUN  .            2A+2B                         : Run number
TDD  .M           1225.000                      : TD (driller)
TDL  .M           1226.000                      : TD (logger)
BS   .IN             8.500                      : Bit size
TIMC .                                          : Time circulation ended
TIML .                                          : Time logger at bottom
UNIT .            13347                         : Equipment ID
BASE .            PLO                           : Equipment base location
ENG  .            MALEA CRISTIAN                : Recording engineer
WIT  .            VASILE FARCAS                 : Witnessed by
CSGT .            SURFACE                       : Casing type
CSGS .IN            16.000                      : Casing size
CSGW .LB/FT          0.000                      : Casing weight
CSGD .M            250.000                      : Casing bottom (driller)
CSGL .M            249.500                      : Casing bottom (logger)
CSUP .M              0.000                      : Casing Stick Up GL
MUD  .            INHIBITIV                     : Mud type
MUDS .            FLOWLINE                      : Mud sample source
MUDD .G/C3           1.100                      : Mud density
MUDV .SEC/L         50.000                      : Mud viscosity
PH   .               9.500                      : Mud pH
FL   .ML/30MIN       4.100                      : Mud fluid loss rate
RM   .OHMM           0.150                      : Mud resistivity
RMT  .DEGC          25.000                      : Mud sample temperature
RMF  .OHMM           0.120                      : Mud filtrate resistivity
RMFT .DEGC          25.000                      : Mud filtrate sample temperature
RMC  .OHMM           0.180                      : Mud cake resistivity
RMCT .DEGC          25.000                      : Mud cake sample temperature
RMBT .OHMM           0.110                      : Mud Resistivity at BHT
BHT  .DEGC          39.000                      : Bottom Hole Temperature
TMAX .DEGC          39.000                      : Max recorded temperature
#
~Other Information
------------------------------------------------------------------------------------------------
Clients intervals and scales logged
Acquisition software: Weatherford Well Manager, version 24.03.1279
Cable used: CAMESA  size 15/32", type 7J46RXZ with  cable head and 8k weakpoint set
Depth wheel calibration factor used 0.6096
Depth Control Procedure for Multiple runs in the well followed.
Run2A: CBHC, MTAK, MBE, MBE, SHA, MCG, MBN, MTC-Y, MSS, MTC-X, SKJ, MUG, MLE, MLG, MTI, MGS,HFS 
Run2B: CBHC, MTAK, SHA, MCG, SKJ, MMR, MDN, MPD, HFS
Run2C: CBHC, MTAK, SHA, MCG, MISD, SKJ, MISE, SKJ, MISD, MSS, MISD, HFS logged in combination.
 Rm, Rmf, Rmc measured on samples from Mud Engineer given on 04.09.2024
Caliper measurements and averages from TD to casing:
   Total hole volume =  35.32 cubic meters
   Annular volume = 20.52 cubic meters, based on future casing size of 5.5 inches
   Average hole diameter = 8.49 inches (215.77 mm), based on XY caliper
------------------------------------------------------------------------------------------------
#
#          DEPT           CGXT           SMTU           CCLG           DSLL           DDLL           DGLL           SPDL           GRGM           MRRS           MATC            BIT
#
~ASCII Log Data
# ...
          825.0      35.753696    1605.299878       2.555293       2.565380       2.477881       2.499300    -106.629554     113.724942       2.452281       8.552641       8.500000
          825.1      35.726099    1605.949878      -0.353248       2.567893       2.483813       2.505732    -106.617376     114.933489       2.442676       8.561356       8.500000
          825.2      35.720997    1605.599878      -1.669932       2.580620       2.501509       2.523492    -106.605015     117.689672       2.434954       8.567191       8.500000
          825.3      35.716924    1607.799878       1.370026       2.600583       2.523848       2.545251    -106.633912     119.975163       2.442442       8.570796       8.500000
          825.4      35.721811    1608.749878       2.437369       2.621543       2.544119       2.563765    -106.636573     121.481803       2.477255       8.573954       8.500000
          825.5      35.701227    1608.749878      -1.001888       2.638925       2.559877       2.577427    -106.582167     122.544112       2.482126       8.579280       8.500000
          825.6      35.729432    1609.349878      -2.296982       2.648261       2.563775       2.580611    -106.534499     123.974706       2.441536       8.584346       8.500000
          825.7      35.762082    1610.949878      -1.141929       2.640710       2.546641       2.563905    -106.524359     124.818293       2.372470       8.585671       8.500000
          825.8      35.782702    1609.699878       0.613976       2.608876       2.508534       2.526452    -106.498978     125.463571       2.305266       8.583823       8.500000
          825.9      35.726583    1608.749878       0.493403       2.558820       2.456591       2.475522    -106.448034     125.801641       2.241644       8.575746       8.500000
          826.0      35.700844    1608.449878      -1.785676       2.504195       2.400703       2.420617    -106.394989     124.975770       2.125183       8.564843       8.500000
          826.1      35.775065    1607.199878      -0.361515       2.453116       2.350684       2.370713    -106.347013     122.610181       1.951761       8.544742       8.500000
          826.2      35.728319    1606.249878       2.210710       2.414920       2.316644       2.336233    -106.302967     119.536754       1.804059       8.507019       8.500000
          826.3      35.734983    1606.249878      -0.597368       2.404293       2.308855       2.328169    -106.315587     117.497984       1.735518       8.473678       8.500000
          826.4      35.746630    1606.849878      -2.266936       2.424266       2.327066       2.346141    -106.364047     115.869963       1.762815       8.477684       8.500000
          826.5      35.748045    1608.749878      -0.242948       2.461335       2.358757       2.377403    -106.406089     115.285515       1.869902       8.515699       8.500000
          826.6      35.716082    1609.049878       1.162976       2.502067       2.392703       2.411066    -106.483337     114.736736       2.037040       8.551337       8.500000
          826.7      35.751160    1609.999878       0.873866       2.538731       2.421368       2.439676    -106.587702     116.140357       2.151004       8.553438       8.500000
          826.8      35.738981    1610.299878      -1.294595       2.563137       2.437139       2.455398    -106.617624     117.507772       2.174408       8.528704       8.500000
          826.9      35.695823    1611.549878      -0.513084       2.570607       2.438947       2.457282    -106.609901     120.333620       2.104799       8.509913       8.500000
          827.0      35.744480    1612.199878       1.702270       2.565114       2.432166       2.450936    -106.620751     122.327823       2.060524       8.519239       8.500000
          827.1      35.730670    1611.249878       0.908666       2.552012       2.420139       2.439598    -106.650979     124.113893       2.046164       8.552311       8.500000
          827.2      35.743184    1611.849878      -1.779634       2.532335       2.404066       2.424273    -106.707612     123.794984       2.093967       8.578022       8.500000
          827.3      35.743254    1613.749878      -1.666800       2.510426       2.386860       2.407773    -106.767893     123.118003       2.158442       8.577095       8.500000
          827.4      35.749782    1613.749878       0.450193       2.492752       2.371578       2.392980    -106.790272     120.431646       2.206145       8.566849       8.500000
          827.5      35.751568    1613.149878      -0.055142       2.481437       2.362187       2.384147    -106.780818     118.416655       2.216389       8.557967       8.500000
          827.6      35.721370    1610.649878       3.075287       2.480956       2.366551       2.389860    -106.741611     116.988704       2.256293       8.551296       8.500000
          827.7      35.774611    1608.449878       1.359729       2.499714       2.390996       2.416539    -106.649377     117.740358       2.320879       8.539131       8.500000
          827.8      35.734627    1607.199878      -3.789730       2.536578       2.431573       2.459580    -106.540523     118.755781       2.360664       8.525855       8.500000
          827.9      35.752368    1606.249878      -0.838108       2.582441       2.479571       2.509418    -106.464453     120.172478       2.401903       8.516469       8.500000
          828.0      35.725444    1606.249878       1.053632       2.635640       2.534368       2.564715    -106.420560     120.259856       2.417214       8.512963       8.500000
          828.1      35.754141    1606.549878       1.653214       2.702217       2.601882       2.631332    -106.356910     118.248142       2.358332       8.507993       8.500000
          828.2      35.781705    1607.199878       1.925016       2.788613       2.688359       2.716046    -106.337962     113.442233       2.271060       8.498878       8.500000
          828.3      35.743835    1606.249878      -1.302854       2.900284       2.802406       2.828449    -106.408813     108.873361       2.263917       8.489303       8.500000
          828.4      35.786398    1606.849878      -2.195038       3.041726       2.952610       2.978403    -106.534136     105.173194       2.377851       8.482917       8.500000
          828.5      35.797693    1608.749878      -0.617124       3.205496       3.128520       3.155620    -106.694075     103.132108       2.543010       8.481602       8.500000
          828.6      35.753107    1609.049878       0.408010       3.366068       3.296493       3.325146    -106.902639     101.862699       2.735434       8.481593       8.500000
          828.7      35.711445    1610.299878       2.157034       3.494034       3.422814       3.452208    -107.104344     101.985017       2.885609       8.481631       8.500000
          828.8      35.716258    1611.849878       1.843714       3.562459       3.481012       3.510387    -107.259406     103.147584       2.930489       8.481683       8.500000
          828.9      35.692393    1613.749878      -0.451259       3.553371       3.456188       3.485121    -107.407162     104.251559       2.783397       8.481749       8.500000
          829.0      35.676630    1613.749878      -0.639659       3.477466       3.365365       3.393802    -107.548400     105.536735       2.609522       8.481890       8.500000
          829.1      35.764204    1613.749878      -2.050444       3.366291       3.245828       3.274210    -107.646519     107.386983       2.444504       8.482350       8.500000
          829.2      35.795198    1613.149878      -1.771159       3.244316       3.124027       3.152748    -107.707756     110.305508       2.314323       8.482759       8.500000
          829.3      35.745361    1610.949878       1.150622       3.132587       3.019959       3.049027    -107.786307     110.886529       2.189393       8.482574       8.500000
          829.4      35.783910    1609.699878       0.859278       3.049233       2.947502       2.976834    -107.863521     108.865464       2.093480       8.482099       8.500000
