~Version Information
VERS .            2.00                          : CWLS Log ASCII Standard - Version 2.00
WRAP .            NO                            : One line per depth step
#
~Well Information
#MNEM.UNIT        DATA                          : DESCRIPTION
#----.----        ----                          : -----------
STRT .M            240.0                        : Start
STOP .M           1229.6                        : Stop
STEP .M              0.1                        : Step increment
NULL .            -999.250                      : Null value
COMP .            S.N.G.N. ROMGAZ S.A.          : Company
WELL .            209 NADES                     : Well
FLD  .            NADES                         : Field
PROV .            MURES                         : Province
CTRY .            Romania                       : State / Country
LOC  .            X = 529925.187 m              : Location
LOC2 .            Y = 477271.675 m              : Location 2
SRVC .            Weatherford                   : Service company
UWI  .                                          : Unique Well ID
LATI .            46 16'07.03" N                : Latitude
LONG .            24 42'12.69" E                : Longitude
UTME .                                          : Universal Transverse Mercator Easting
UTMN .                                          : Universal Transverse Mercator Northing
X    .                                          : X
Y    .                                          : Y
DATE .            04-Sep-2024                   : Logging Date
#
~Curve Information
#MNEM.UNIT        API CODES                     : CURVE DESCRIPTION
#----.----        ---------                     : -----------------
DEPT .M           00 001 00 00                  : Logged depth
CGXT .DEGC        30 660 01 00                  : MCG External Temperature
SMTU .LB          30 635 00 00                  : DST Uphole Tension
CCLG .----        30 150 00 00                  : Casing Collar Locator
DSLL .OHMM        11 220 09 00                  : Shallow Laterolog
DDLL .OHMM        11 220 10 00                  : Deep Laterolog
DGLL .OHMM        11 211 00 00                  : Groningen Laterolog
SPDL .MV          30 010 00 00                  : Spontaneous Potential
GRGM .GAPI        30 310 01 00                  : MGS Gamma Ray
MRRS .OHMM        15 252 00 00                  : MicroRes Resistance (S)
MATC .IN          15 280 01 00                  : MMR Caliper
BIT  .IN          70 282 00 00                  : Bit size
#
~Parameter Information
#MNEM.UNIT        VALUE                         : DESCRIPTION
#----.----        -----                         : -----------
RNID .                                          : Run ID
SON  .            24220368                      : Job Number
DREF .            KB                            : Depth reference
EREF .M            484.710                      : Elevation of depth reference
GL   .M            480.210                      : Ground elevation
KB   .M            484.710                      : Kelly Bushing
DF   .M            484.710                      : Drill Floor
DDRF .            KB                            : Drilling Depth Reference
DERF .M            484.710                      : Elevation of Drilling Depth Reference
RUN  .            2A+2B                         : Run number
TDD  .M           1225.000                      : TD (driller)
TDL  .M           1226.000                      : TD (logger)
BS   .IN             8.500                      : Bit size
TIMC .                                          : Time circulation ended
TIML .                                          : Time logger at bottom
UNIT .            13347                         : Equipment ID
BASE .            PLO                           : Equipment base location
ENG  .            MALEA CRISTIAN                : Recording engineer
WIT  .            VASILE FARCAS                 : Witnessed by
CSGT .            SURFACE                       : Casing type
CSGS .IN            16.000                      : Casing size
CSGW .LB/FT          0.000                      : Casing weight
CSGD .M            250.000                      : Casing bottom (driller)
CSGL .M            249.500                      : Casing bottom (logger)
CSUP .M              0.000                      : Casing Stick Up GL
MUD  .            INHIBITIV                     : Mud type
MUDS .            FLOWLINE                      : Mud sample source
MUDD .G/C3           1.100                      : Mud density
MUDV .SEC/L         50.000                      : Mud viscosity
PH   .               9.500                      : Mud pH
FL   .ML/30MIN       4.100                      : Mud fluid loss rate
RM   .OHMM           0.150                      : Mud resistivity
RMT  .DEGC          25.000                      : Mud sample temperature
RMF  .OHMM           0.120                      : Mud filtrate resistivity
RMFT .DEGC          25.000                      : Mud filtrate sample temperature
RMC  .OHMM           0.180                      : Mud cake resistivity
RMCT .DEGC          25.000                      : Mud cake sample temperature
RMBT .OHMM           0.110                      : Mud Resistivity at BHT
BHT  .DEGC          39.000                      : Bottom Hole Temperature
TMAX .DEGC          39.000                      : Max recorded temperature
#
~Other Information
------------------------------------------------------------------------------------------------
Clients intervals and scales logged
Acquisition software: Weatherford Well Manager, version 24.03.1279
Cable used: CAMESA  size 15/32", type 7J46RXZ with  cable head and 8k weakpoint set
Depth wheel calibration factor used 0.6096
Depth Control Procedure for Multiple runs in the well followed.
Run2A: CBHC, MTAK, MBE, MBE, SHA, MCG, MBN, MTC-Y, MSS, MTC-X, SKJ, MUG, MLE, MLG, MTI, MGS,HFS 
Run2B: CBHC, MTAK, SHA, MCG, SKJ, MMR, MDN, MPD, HFS
Run2C: CBHC, MTAK, SHA, MCG, MISD, SKJ, MISE, SKJ, MISD, MSS, MISD, HFS logged in combination.
 Rm, Rmf, Rmc measured on samples from Mud Engineer given on 04.09.2024
Caliper measurements and averages from TD to casing:
   Total hole volume =  35.32 cubic meters
   Annular volume = 20.52 cubic meters, based on future casing size of 5.5 inches
   Average hole diameter = 8.49 inches (215.77 mm), based on XY caliper
------------------------------------------------------------------------------------------------
#
#          DEPT           CGXT           SMTU           CCLG           DSLL           DDLL           DGLL           SPDL           GRGM           MRRS           MATC            BIT
#
~ASCII Log Data
# ...
         1216.5    -999.250000    1937.199878    -999.250000       4.650147       4.283252       4.313934    -999.250000      78.917178       2.837161       8.479600       8.500000
         1216.6    -999.250000    1936.849878    -999.250000       4.568380       4.221171       4.251780    -999.250000      80.458834       2.653236       8.488732       8.500000
         1216.7    -999.250000    1938.749878    -999.250000       4.481529       4.164383       4.195195    -999.250000      83.997773       2.520441       8.488519       8.500000
         1216.8    -999.250000    1939.649878    -999.250000       4.424256       4.151661       4.183527    -999.250000      86.472006       2.466068       8.479373       8.500000
         1216.9    -999.250000    1942.199878    -999.250000       4.437119       4.217715       4.251179    -999.250000      86.647982       2.492035       8.468810       8.500000
         1217.0    -999.250000    1940.649878    -999.250000       4.542175       4.374636       4.410164    -999.250000      84.072840       2.539368       8.466710       8.500000
         1217.1    -999.250000    1942.949878    -999.250000       4.729897       4.611125       4.648475    -999.250000      81.029522       2.580019       8.471140       8.500000
         1217.2    -999.250000    1959.549878    -999.250000       4.977579       4.907337       4.944812    -999.250000      78.144949       2.597600       8.475353       8.500000
         1217.3    -999.250000    1963.399878    -999.250000       5.267123       5.246263       5.282439    -999.250000      76.785844       2.577906       8.472436       8.500000
         1217.4    -999.250000    1942.799878    -999.250000       5.606515       5.636697       5.671799    -999.250000      76.176459       2.519528       8.465697       8.500000
         1217.5    -999.250000    1944.349878    -999.250000       6.033317       6.127446       6.162552    -999.250000      76.369267       2.453223       8.460290       8.500000
         1217.6    -999.250000    1945.649878    -999.250000       6.602885       6.795595       6.833120    -999.250000      76.377641       2.376383       8.459429       8.500000
         1217.7    -999.250000    1942.849878    -999.250000       7.396875       7.722958       7.767509    -999.250000      75.551181       2.291955       8.458992       8.500000
         1217.8    -999.250000    1939.699878    -999.250000       8.515655       8.992414       9.048009    -999.250000      73.107377       2.198637       8.458963       8.500000
         1217.9    -999.250000    1939.049878    -999.250000      10.024275      10.679461      10.747943    -999.250000      69.643183       2.111862       8.458910       8.500000
         1218.0    -999.250000    1939.099878    -999.250000      11.877407      12.701691      12.783672    -999.250000      66.073023       2.031238       8.458911       8.500000
         1218.1    -999.250000    1936.549878    -999.250000      13.862105      14.723377      14.816328    -999.250000      62.564038       1.992436       8.458902       8.500000
         1218.2    -999.250000    1937.499878    -999.250000      15.652361      16.386304      16.486139    -999.250000      59.383326       2.009133       8.458951       8.500000
         1218.3    -999.250000    1937.499878    -999.250000      16.852056      17.301691      17.406314    -999.250000      57.351880       2.059480       8.458942       8.500000
         1218.4    -999.250000    1937.499878    -999.250000      17.026825      16.982038      17.088673    -999.250000      56.858614       2.117665       8.458895       8.500000
         1218.5    -999.250000    1937.499878    -999.250000      16.046001      15.444793      15.550212    -999.250000      57.380589       2.185292       8.458819       8.500000
         1218.6    -999.250000    1937.799878    -999.250000      14.271867      13.321651      13.423881    -999.250000      58.828678       2.268025       8.458815       8.500000
         1218.7    -999.250000    1938.449878    -999.250000      12.196774      11.109127      11.204377    -999.250000      61.249979       2.312060       8.458875       8.500000
         1218.8    -999.250000    1937.499878    -999.250000      10.182522       9.078302       9.161548    -999.250000      64.915686       2.357663       8.459267       8.500000
         1218.9    -999.250000    1937.199878    -999.250000       8.470463       7.433314       7.502286    -999.250000      68.565964       2.419041       8.460672       8.500000
         1219.0    -999.250000    1936.249878    -999.250000       7.147425       6.210094       6.266254    -999.250000      72.411403       2.515126       8.463700       8.500000
         1219.1    -999.250000    1936.849878    -999.250000       6.167660       5.309233       5.355738    -999.250000      76.569447       2.573028       8.468662       8.500000
         1219.2    -999.250000    1939.349878    -999.250000       5.438075       4.630827       4.670474    -999.250000      82.025915       2.622020       8.473797       8.500000
         1219.3    -999.250000    1941.249878    -999.250000       4.888360       4.122956       4.157740    -999.250000      87.260289       2.655318       8.479787       8.500000
         1219.4    -999.250000    1940.949878    -999.250000       4.484256       3.756828       3.788138    -999.250000      92.514102       2.670237       8.486812       8.500000
         1219.5    -999.250000    1939.999878    -999.250000       4.195549       3.501499       3.530266    -999.250000      97.431824       2.646355       8.491496       8.500000
         1219.6    -999.250000    1939.699878    -999.250000       3.993266       3.327213       3.354074    -999.250000     102.442643       2.636916       8.489314       8.500000
         1219.7    -999.250000    1938.749878    -999.250000       3.863332       3.217172       3.242289    -999.250000     106.248134       2.656147       8.482133       8.500000
         1219.8    -999.250000    1938.749878    -999.250000       3.793512       3.160888       3.184181    -999.250000     108.740201       2.733643       8.474819       8.500000
         1219.9    -999.250000    1938.749878    -999.250000       3.764129       3.140813       3.162578    -999.250000     109.363705       2.916665       8.467879       8.500000
         1220.0    -999.250000    1938.749878    -999.250000       3.757893       3.136600       3.157122    -999.250000     107.595012       3.112073       8.459494       8.500000
         1220.1    -999.250000    1938.149878    -999.250000       3.761527       3.136369       3.155566    -999.250000     104.212313       3.252243       8.452289       8.500000
         1220.2    -999.250000    1935.949878    -999.250000       3.765019       3.136852       3.155037    -999.250000     100.698051       3.240176       8.446980       8.500000
         1220.3    -999.250000    1934.999878    -999.250000       3.766193       3.137407       3.155364    -999.250000      97.830623       3.136644       8.440221       8.500000
         1220.4    -999.250000    1939.499878    -999.250000       3.766702       3.137740       3.155901    -999.250000      96.253502       2.916458       8.429218       8.500000
         1220.5    -999.250000    1953.449878    -999.250000       3.767027       3.137757       3.156057    -999.250000      96.988519       2.693823       8.418190       8.500000
         1220.6    -999.250000    1951.599878    -999.250000       3.767160       3.137595       3.155923    -999.250000      99.522917       2.527932       8.410934       8.500000
         1220.7    -999.250000    1949.049878    -999.250000       3.767117       3.137485       3.155826    -999.250000     102.484902       2.468524       8.407601       8.500000
         1220.8    -999.250000    1949.699878    -999.250000       3.767052       3.137738       3.156113    -999.250000     103.973198       2.439014       8.406167       8.500000
         1220.9    -999.250000    1948.749878    -999.250000       3.767031       3.138691       3.157146    -999.250000     104.393046       2.426160       8.405520       8.500000
