~Version Information
VERS .            2.00                          : CWLS Log ASCII Standard - Version 2.00
WRAP .            NO                            : One line per depth step
#
~Well Information
#MNEM.UNIT        DATA                          : DESCRIPTION
#----.----        ----                          : -----------
STRT .M            240.0                        : Start
STOP .M           1229.6                        : Stop
STEP .M              0.1                        : Step increment
NULL .            -999.250                      : Null value
COMP .            S.N.G.N. ROMGAZ S.A.          : Company
WELL .            209 NADES                     : Well
FLD  .            NADES                         : Field
PROV .            MURES                         : Province
CTRY .            Romania                       : State / Country
LOC  .            X = 529925.187 m              : Location
LOC2 .            Y = 477271.675 m              : Location 2
SRVC .            Weatherford                   : Service company
UWI  .                                          : Unique Well ID
LATI .            46 16'07.03" N                : Latitude
LONG .            24 42'12.69" E                : Longitude
UTME .                                          : Universal Transverse Mercator Easting
UTMN .                                          : Universal Transverse Mercator Northing
X    .                                          : X
Y    .                                          : Y
DATE .            04-Sep-2024                   : Logging Date
#
~Curve Information
#MNEM.UNIT        API CODES                     : CURVE DESCRIPTION
#----.----        ---------                     : -----------------
DEPT .M           00 001 00 00                  : Logged depth
CGXT .DEGC        30 660 01 00                  : MCG External Temperature
SMTU .LB          30 635 00 00                  : DST Uphole Tension
CCLG .----        30 150 00 00                  : Casing Collar Locator
DSLL .OHMM        11 220 09 00                  : Shallow Laterolog
DDLL .OHMM        11 220 10 00                  : Deep Laterolog
DGLL .OHMM        11 211 00 00                  : Groningen Laterolog
SPDL .MV          30 010 00 00                  : Spontaneous Potential
GRGM .GAPI        30 310 01 00                  : MGS Gamma Ray
MRRS .OHMM        15 252 00 00                  : MicroRes Resistance (S)
MATC .IN          15 280 01 00                  : MMR Caliper
BIT  .IN          70 282 00 00                  : Bit size
#
~Parameter Information
#MNEM.UNIT        VALUE                         : DESCRIPTION
#----.----        -----                         : -----------
RNID .                                          : Run ID
SON  .            24220368                      : Job Number
DREF .            KB                            : Depth reference
EREF .M            484.710                      : Elevation of depth reference
GL   .M            480.210                      : Ground elevation
KB   .M            484.710                      : Kelly Bushing
DF   .M            484.710                      : Drill Floor
DDRF .            KB                            : Drilling Depth Reference
DERF .M            484.710                      : Elevation of Drilling Depth Reference
RUN  .            2A+2B                         : Run number
TDD  .M           1225.000                      : TD (driller)
TDL  .M           1226.000                      : TD (logger)
BS   .IN             8.500                      : Bit size
TIMC .                                          : Time circulation ended
TIML .                                          : Time logger at bottom
UNIT .            13347                         : Equipment ID
BASE .            PLO                           : Equipment base location
ENG  .            MALEA CRISTIAN                : Recording engineer
WIT  .            VASILE FARCAS                 : Witnessed by
CSGT .            SURFACE                       : Casing type
CSGS .IN            16.000                      : Casing size
CSGW .LB/FT          0.000                      : Casing weight
CSGD .M            250.000                      : Casing bottom (driller)
CSGL .M            249.500                      : Casing bottom (logger)
CSUP .M              0.000                      : Casing Stick Up GL
MUD  .            INHIBITIV                     : Mud type
MUDS .            FLOWLINE                      : Mud sample source
MUDD .G/C3           1.100                      : Mud density
MUDV .SEC/L         50.000                      : Mud viscosity
PH   .               9.500                      : Mud pH
FL   .ML/30MIN       4.100                      : Mud fluid loss rate
RM   .OHMM           0.150                      : Mud resistivity
RMT  .DEGC          25.000                      : Mud sample temperature
RMF  .OHMM           0.120                      : Mud filtrate resistivity
RMFT .DEGC          25.000                      : Mud filtrate sample temperature
RMC  .OHMM           0.180                      : Mud cake resistivity
RMCT .DEGC          25.000                      : Mud cake sample temperature
RMBT .OHMM           0.110                      : Mud Resistivity at BHT
BHT  .DEGC          39.000                      : Bottom Hole Temperature
TMAX .DEGC          39.000                      : Max recorded temperature
#
~Other Information
------------------------------------------------------------------------------------------------
Clients intervals and scales logged
Acquisition software: Weatherford Well Manager, version 24.03.1279
Cable used: CAMESA  size 15/32", type 7J46RXZ with  cable head and 8k weakpoint set
Depth wheel calibration factor used 0.6096
Depth Control Procedure for Multiple runs in the well followed.
Run2A: CBHC, MTAK, MBE, MBE, SHA, MCG, MBN, MTC-Y, MSS, MTC-X, SKJ, MUG, MLE, MLG, MTI, MGS,HFS 
Run2B: CBHC, MTAK, SHA, MCG, SKJ, MMR, MDN, MPD, HFS
Run2C: CBHC, MTAK, SHA, MCG, MISD, SKJ, MISE, SKJ, MISD, MSS, MISD, HFS logged in combination.
 Rm, Rmf, Rmc measured on samples from Mud Engineer given on 04.09.2024
Caliper measurements and averages from TD to casing:
   Total hole volume =  35.32 cubic meters
   Annular volume = 20.52 cubic meters, based on future casing size of 5.5 inches
   Average hole diameter = 8.49 inches (215.77 mm), based on XY caliper
------------------------------------------------------------------------------------------------
#
#          DEPT           CGXT           SMTU           CCLG           DSLL           DDLL           DGLL           SPDL           GRGM           MRRS           MATC            BIT
#
~ASCII Log Data
# ...
          892.5      36.386810    1667.799878      -2.471577       2.794800       2.824664       2.844361    -104.504466      91.795713       1.582332       8.475820       8.500000
          892.6      36.370038    1668.449878       0.375758       2.712508       2.745759       2.764676    -104.428329      92.022054       1.538044       8.475637       8.500000
          892.7      36.433421    1667.799878       0.434244       2.624142       2.655634       2.673950    -104.367314      94.015234       1.506605       8.474936       8.500000
          892.8      36.395409    1668.449878      -1.532130       2.541016       2.567861       2.585818    -104.295042      96.833866       1.460102       8.473720       8.500000
          892.9      36.400425    1666.899878       0.754948       2.471425       2.498261       2.516052    -104.179924      99.204088       1.426843       8.472701       8.500000
          893.0      36.385629    1668.299878       4.966476       2.425926       2.456012       2.473821    -104.025821     100.344801       1.399407       8.472248       8.500000
          893.1      36.417510    1677.849878       1.109096       2.400608       2.433677       2.451611    -103.909126     101.059435       1.360011       8.472266       8.500000
          893.2      36.393326    1672.299878      -1.951276       2.383700       2.418675       2.436584    -103.832220     102.189738       1.329741       8.472232       8.500000
          893.3      36.320973    1669.449878      -1.611964       2.367780       2.400052       2.417577    -103.740506     103.173561       1.311310       8.472155       8.500000
          893.4      36.385014    1684.499878      -2.569080       2.349043       2.373091       2.389901    -103.659144     101.452675       1.301686       8.472075       8.500000
          893.5      36.364787    1673.499878       1.920721       2.329304       2.344821       2.361026    -103.619691      97.508629       1.251909       8.472044       8.500000
          893.6      36.389093    1668.149878       3.411465       2.311298       2.325117       2.341533    -103.552145      92.806025       1.202340       8.472006       8.500000
          893.7      36.392009    1665.949878      -0.800757       2.294150       2.317763       2.335337    -103.446734      87.347900       1.157023       8.472021       8.500000
          893.8      36.320974    1664.999878      -1.555452       2.281914       2.323033       2.342320    -103.412150      82.970912       1.144570       8.472221       8.500000
          893.9      36.322982    1664.999878      -1.620043       2.280882       2.341514       2.362922    -103.488528      80.273881       1.153458       8.472658       8.500000
          894.0      36.308720    1665.299878      -0.302400       2.291032       2.372693       2.396249    -103.596224      80.247537       1.184216       8.473117       8.500000
          894.1      36.397771    1666.249878       0.628800       2.312315       2.417039       2.441686    -103.756315      80.036308       1.222550       8.473386       8.500000
          894.2      36.422210    1665.949878       0.721290       2.346599       2.476540       2.500639    -104.022597      80.992470       1.263092       8.473397       8.500000
          894.3      36.376262    1664.999878       1.036930       2.397044       2.557499       2.580177    -104.320699      82.476324       1.313018       8.473509       8.500000
          894.4      36.383478    1665.299878       0.619560       2.472699       2.672137       2.693488    -104.593781      85.800956       1.367448       8.474163       8.500000
          894.5      36.319840    1666.249878      -0.406973       2.581097       2.825500       2.845859    -104.875458      90.798528       1.448866       8.475810       8.500000
          894.6      36.353390    1666.249878      -1.656540       2.717871       3.003677       3.023519    -105.138282      97.743070       1.584157       8.478029       8.500000
          894.7      36.344369    1666.249878       0.615676       2.869496       3.183279       3.203661    -105.337478     104.868420       1.779633       8.479848       8.500000
          894.8      36.372349    1666.549878       0.808378       3.018819       3.343888       3.365774    -105.538317     109.843258       1.977411       8.480701       8.500000
          894.9      36.365678    1666.899878      -0.767914       3.146009       3.462847       3.485834    -105.731917     112.453732       2.107416       8.480612       8.500000
          895.0      36.373575    1664.999878      -1.500955       3.232167       3.521860       3.544985    -105.881044     113.303762       2.171802       8.479709       8.500000
          895.1      36.397012    1664.699878       0.564349       3.272467       3.527716       3.550651    -106.036230     112.458042       2.172486       8.478640       8.500000
          895.2      36.351456    1664.049878       3.245820       3.285627       3.506724       3.529227    -106.198326     111.266490       2.096098       8.478860       8.500000
          895.3      36.397596    1665.599878       1.861456       3.296382       3.481007       3.502724    -106.337557     111.055105       1.977278       8.482218       8.500000
          895.4      36.382096    1668.099878      -1.455153       3.317219       3.467343       3.488424    -106.451038     112.313340       1.872490       8.486796       8.500000
          895.5      36.334453    1669.999878      -1.965124       3.361455       3.482883       3.503773    -106.569988     113.088159       1.813009       8.488062       8.500000
          895.6      36.371109    1670.599878      -1.425867       3.443345       3.531247       3.552498    -106.732832     112.907138       1.797758       8.486787       8.500000
          895.7      36.401578    1672.499878      -0.289506       3.555106       3.598618       3.620958    -106.907147     110.962111       1.842820       8.484540       8.500000
          895.8      36.389515    1672.199878       1.677424       3.675908       3.670989       3.694517    -107.005677     107.760950       1.924140       8.484515       8.500000
          895.9      36.375049    1670.949878      -0.941047       3.791556       3.736489       3.760689    -107.073368     103.297123       1.993596       8.484581       8.500000
          896.0      36.359790    1669.999878       1.685509       3.888704       3.778357       3.802997    -107.161249      99.410815       1.983904       8.484621       8.500000
          896.1      36.349457    1669.399878       2.230337       3.955093       3.789962       3.815005    -107.166750      97.414741       1.933062       8.484504       8.500000
          896.2      36.353624    1667.199878      -1.867319       3.993485       3.785758       3.810861    -107.100141      98.398238       1.842569       8.483100       8.500000
          896.3      36.382603    1666.249878       0.688800       4.017740       3.780974       3.806004    -107.060880     101.372162       1.814153       8.479468       8.500000
          896.4      36.390322    1666.549878      -0.998108       4.036699       3.777593       3.803470    -107.011021     105.008307       1.895865       8.477513       8.500000
          896.5      36.413559    1667.199878      -2.255632       4.051734       3.775259       3.803376    -106.915867     106.771018       2.022907       8.476984       8.500000
          896.6      36.379041    1666.249878       0.572053       4.066483       3.779713       3.810725    -106.811783     107.684745       2.089163       8.476392       8.500000
          896.7      36.390225    1666.549878       1.383518       4.091276       3.793865       3.827410    -106.698404     108.277989       2.117418       8.473936       8.500000
          896.8      36.387030    1667.499878       0.609449       4.128936       3.814498       3.850059    -106.567446     108.898444       2.138612       8.474310       8.500000
          896.9      36.387615    1668.099878      -1.192470       4.175053       3.848001       3.885306    -106.428530     108.973047       2.098982       8.478375       8.500000
