~Version Information
VERS .            2.00                          : CWLS Log ASCII Standard - Version 2.00
WRAP .            NO                            : One line per depth step
#
~Well Information
#MNEM.UNIT        DATA                          : DESCRIPTION
#----.----        ----                          : -----------
STRT .M            240.0                        : Start
STOP .M           1229.6                        : Stop
STEP .M              0.1                        : Step increment
NULL .            -999.250                      : Null value
COMP .            S.N.G.N. ROMGAZ S.A.          : Company
WELL .            209 NADES                     : Well
FLD  .            NADES                         : Field
PROV .            MURES                         : Province
CTRY .            Romania                       : State / Country
LOC  .            X = 529925.187 m              : Location
LOC2 .            Y = 477271.675 m              : Location 2
SRVC .            Weatherford                   : Service company
UWI  .                                          : Unique Well ID
LATI .            46 16'07.03" N                : Latitude
LONG .            24 42'12.69" E                : Longitude
UTME .                                          : Universal Transverse Mercator Easting
UTMN .                                          : Universal Transverse Mercator Northing
X    .                                          : X
Y    .                                          : Y
DATE .            04-Sep-2024                   : Logging Date
#
~Curve Information
#MNEM.UNIT        API CODES                     : CURVE DESCRIPTION
#----.----        ---------                     : -----------------
DEPT .M           00 001 00 00                  : Logged depth
CGXT .DEGC        30 660 01 00                  : MCG External Temperature
SMTU .LB          30 635 00 00                  : DST Uphole Tension
CCLG .----        30 150 00 00                  : Casing Collar Locator
DSLL .OHMM        11 220 09 00                  : Shallow Laterolog
DDLL .OHMM        11 220 10 00                  : Deep Laterolog
DGLL .OHMM        11 211 00 00                  : Groningen Laterolog
SPDL .MV          30 010 00 00                  : Spontaneous Potential
GRGM .GAPI        30 310 01 00                  : MGS Gamma Ray
MRRS .OHMM        15 252 00 00                  : MicroRes Resistance (S)
MATC .IN          15 280 01 00                  : MMR Caliper
BIT  .IN          70 282 00 00                  : Bit size
#
~Parameter Information
#MNEM.UNIT        VALUE                         : DESCRIPTION
#----.----        -----                         : -----------
RNID .                                          : Run ID
SON  .            24220368                      : Job Number
DREF .            KB                            : Depth reference
EREF .M            484.710                      : Elevation of depth reference
GL   .M            480.210                      : Ground elevation
KB   .M            484.710                      : Kelly Bushing
DF   .M            484.710                      : Drill Floor
DDRF .            KB                            : Drilling Depth Reference
DERF .M            484.710                      : Elevation of Drilling Depth Reference
RUN  .            2A+2B                         : Run number
TDD  .M           1225.000                      : TD (driller)
TDL  .M           1226.000                      : TD (logger)
BS   .IN             8.500                      : Bit size
TIMC .                                          : Time circulation ended
TIML .                                          : Time logger at bottom
UNIT .            13347                         : Equipment ID
BASE .            PLO                           : Equipment base location
ENG  .            MALEA CRISTIAN                : Recording engineer
WIT  .            VASILE FARCAS                 : Witnessed by
CSGT .            SURFACE                       : Casing type
CSGS .IN            16.000                      : Casing size
CSGW .LB/FT          0.000                      : Casing weight
CSGD .M            250.000                      : Casing bottom (driller)
CSGL .M            249.500                      : Casing bottom (logger)
CSUP .M              0.000                      : Casing Stick Up GL
MUD  .            INHIBITIV                     : Mud type
MUDS .            FLOWLINE                      : Mud sample source
MUDD .G/C3           1.100                      : Mud density
MUDV .SEC/L         50.000                      : Mud viscosity
PH   .               9.500                      : Mud pH
FL   .ML/30MIN       4.100                      : Mud fluid loss rate
RM   .OHMM           0.150                      : Mud resistivity
RMT  .DEGC          25.000                      : Mud sample temperature
RMF  .OHMM           0.120                      : Mud filtrate resistivity
RMFT .DEGC          25.000                      : Mud filtrate sample temperature
RMC  .OHMM           0.180                      : Mud cake resistivity
RMCT .DEGC          25.000                      : Mud cake sample temperature
RMBT .OHMM           0.110                      : Mud Resistivity at BHT
BHT  .DEGC          39.000                      : Bottom Hole Temperature
TMAX .DEGC          39.000                      : Max recorded temperature
#
~Other Information
------------------------------------------------------------------------------------------------
Clients intervals and scales logged
Acquisition software: Weatherford Well Manager, version 24.03.1279
Cable used: CAMESA  size 15/32", type 7J46RXZ with  cable head and 8k weakpoint set
Depth wheel calibration factor used 0.6096
Depth Control Procedure for Multiple runs in the well followed.
Run2A: CBHC, MTAK, MBE, MBE, SHA, MCG, MBN, MTC-Y, MSS, MTC-X, SKJ, MUG, MLE, MLG, MTI, MGS,HFS 
Run2B: CBHC, MTAK, SHA, MCG, SKJ, MMR, MDN, MPD, HFS
Run2C: CBHC, MTAK, SHA, MCG, MISD, SKJ, MISE, SKJ, MISD, MSS, MISD, HFS logged in combination.
 Rm, Rmf, Rmc measured on samples from Mud Engineer given on 04.09.2024
Caliper measurements and averages from TD to casing:
   Total hole volume =  35.32 cubic meters
   Annular volume = 20.52 cubic meters, based on future casing size of 5.5 inches
   Average hole diameter = 8.49 inches (215.77 mm), based on XY caliper
------------------------------------------------------------------------------------------------
#
#          DEPT           CGXT           SMTU           CCLG           DSLL           DDLL           DGLL           SPDL           GRGM           MRRS           MATC            BIT
#
~ASCII Log Data
# ...
          631.5      33.658662    1412.199878       1.601911       5.210635       5.294199       5.289986     -95.733151     103.109684       2.431744       8.445771       8.500000
          631.6      33.609686    1410.649878      -1.225938       5.260804       5.371757       5.366821     -95.072641      99.767980       2.246976       8.430937       8.500000
          631.7      33.578895    1408.749878       1.572269       5.382235       5.527905       5.521128     -94.450580      97.031535       2.104639       8.417675       8.500000
          631.8      33.569034    1408.749878      -0.308019       5.559143       5.729203       5.720145     -93.819943      94.786463       2.033490       8.409407       8.500000
          631.9      33.658226    1408.749878      -4.420208       5.754191       5.934226       5.923035     -93.166016      94.481368       2.010136       8.407441       8.500000
          632.0      33.636554    1409.049878      -0.127360       5.924026       6.112288       6.098941     -92.437371      95.462102       2.033899       8.401429       8.500000
          632.1      33.688431    1410.299878       1.829871       6.034101       6.222438       6.206801     -91.534755      97.506393       2.059420       8.388227       8.500000
          632.2      33.664820    1411.849878       2.442540       6.078474       6.253499       6.235260     -90.457917      98.304885       1.984066       8.371685       8.500000
          632.3      33.665570    1414.049878       1.361784       6.080299       6.245556       6.224324     -89.307720      98.218422       1.778756       8.360766       8.500000
          632.4      33.652942    1414.999878       0.442943       6.069200       6.234620       6.210635     -88.187823      95.623657       1.517480       8.370992       8.500000
          632.5      33.634741    1414.999878      -1.673299       6.057952       6.232369       6.206636     -87.133454      91.137758       1.313598       8.401713       8.500000
          632.6      33.639326    1414.999878      -1.763780       6.038454       6.231728       6.205759     -86.219892      84.733106       1.190624       8.444209       8.500000
          632.7      33.604962    1415.299878       0.800344       5.994657       6.198714       6.173718     -85.496944      78.896220       1.141145       8.479625       8.500000
          632.8      33.683584    1416.549878      -0.427775       5.915383       6.103139       6.079462     -84.916998      74.062318       1.122333       8.502148       8.500000
          632.9      33.674887    1418.099878       0.896846       5.797478       5.956987       5.935090     -84.465580      72.133957       1.116913       8.513392       8.500000
          633.0      33.634777    1419.699878       1.814336       5.651508       5.793332       5.773625     -84.187119      71.966872       1.116073       8.515507       8.500000
          633.1      33.624600    1419.349878      -0.475270       5.502044       5.634119       5.616185     -84.019450      72.782329       1.122603       8.509606       8.500000
          633.2      33.588447    1420.949878      -0.174037       5.369167       5.506095       5.489470     -83.892859      73.173717       1.136492       8.503852       8.500000
          633.3      33.649895    1419.999878      -0.706304       5.265650       5.440215       5.423826     -83.887360      73.758510       1.151167       8.503744       8.500000
          633.4      33.629065    1419.999878      -0.839055       5.199966       5.432398       5.414108     -83.997037      74.793913       1.173382       8.509735       8.500000
          633.5      33.655112    1420.299878      -0.045953       5.170291       5.455620       5.434649     -84.201862      76.083686       1.185022       8.514251       8.500000
          633.6      33.647032    1420.949878       1.399842       5.165542       5.495855       5.473336     -84.514352      78.527098       1.214173       8.515227       8.500000
          633.7      33.678441    1419.999878       1.202240       5.169244       5.530403       5.508029     -84.814519      82.644848       1.281132       8.515003       8.500000
          633.8      33.673795    1420.299878      -2.954977       5.162593       5.512316       5.493034     -84.964874      88.223287       1.428184       8.514670       8.500000
          633.9      33.620373    1421.249878      -1.526697       5.132490       5.426617       5.412567     -84.917272      93.336440       1.592242       8.512745       8.500000
          634.0      33.640721    1421.249878       3.837260       5.073262       5.303595       5.292901     -84.541710      97.521353       1.673058       8.505376       8.500000
          634.1      33.658474    1421.249878       2.658082       4.987325       5.173296       5.163013     -83.877061      97.885617       1.582993       8.495064       8.500000
          634.2      33.634454    1421.249878      -2.208590       4.897145       5.077742       5.066650     -83.132436      96.254769       1.397603       8.486629       8.500000
          634.3      33.621091    1420.949878      -0.876424       4.840139       5.071093       5.058324     -82.349612      93.529568       1.245818       8.483565       8.500000
          634.4      33.640004    1419.999878       1.127494       4.832338       5.151953       5.137025     -81.552309      92.252746       1.201009       8.483421       8.500000
          634.5      33.611579    1419.999878      -1.681110       4.860499       5.267171       5.250520     -80.826508      91.243462       1.265167       8.482596       8.500000
          634.6      33.597268    1419.699878       0.553595       4.905232       5.366370       5.347971     -80.149529      91.490375       1.403885       8.480682       8.500000
          634.7      33.629316    1418.449878       3.039900       4.937667       5.408955       5.388248     -79.467506      90.947789       1.530925       8.478833       8.500000
          634.8      33.656584    1417.499878       0.286679       4.931026       5.380617       5.357542     -78.842358      88.935490       1.549635       8.478618       8.500000
          634.9      33.654435    1417.199878      -2.135517       4.896943       5.308729       5.283837     -78.342538      84.603633       1.443631       8.482939       8.500000
          635.0      33.609169    1416.249878      -3.118993       4.865042       5.233654       5.208070     -78.004193      81.655019       1.304724       8.490358       8.500000
          635.1      33.611196    1416.249878       1.932048       4.847977       5.189433       5.164340     -77.764868      81.633787       1.209083       8.496270       8.500000
          635.2      33.620184    1416.249878       3.626390       4.854323       5.191054       5.166941     -77.533549      83.396801       1.167342       8.498498       8.500000
          635.3      33.596197    1416.249878      -2.183540       4.882893       5.220956       5.197958     -77.186032      85.206041       1.160962       8.497724       8.500000
          635.4      33.575947    1416.549878      -2.296483       4.911104       5.258923       5.237336     -76.592134      85.058045       1.145665       8.497755       8.500000
          635.5      33.587207    1417.799878      -0.452617       4.919753       5.297104       5.276888     -75.837965      82.142126       1.106467       8.498737       8.500000
          635.6      33.626844    1418.449878      -0.932284       4.907681       5.317131       5.297802     -75.119244      77.084394       1.022063       8.499759       8.500000
          635.7      33.673333    1417.499878       0.474543       4.884477       5.306865       5.288217     -74.539078      71.978589       0.942261       8.500456       8.500000
          635.8      33.686091    1417.499878       1.762994       4.856684       5.289961       5.271626     -74.197680      68.595622       0.874591       8.499904       8.500000
          635.9      33.651467    1417.799878       2.669292       4.825453       5.284991       5.266030     -74.165652      67.096413       0.850401       8.497641       8.500000
