~Version Information
VERS .            2.00                          : CWLS Log ASCII Standard - Version 2.00
WRAP .            NO                            : One line per depth step
#
~Well Information
#MNEM.UNIT        DATA                          : DESCRIPTION
#----.----        ----                          : -----------
STRT .M            240.0                        : Start
STOP .M           1229.6                        : Stop
STEP .M              0.1                        : Step increment
NULL .            -999.250                      : Null value
COMP .            S.N.G.N. ROMGAZ S.A.          : Company
WELL .            209 NADES                     : Well
FLD  .            NADES                         : Field
PROV .            MURES                         : Province
CTRY .            Romania                       : State / Country
LOC  .            X = 529925.187 m              : Location
LOC2 .            Y = 477271.675 m              : Location 2
SRVC .            Weatherford                   : Service company
UWI  .                                          : Unique Well ID
LATI .            46 16'07.03" N                : Latitude
LONG .            24 42'12.69" E                : Longitude
UTME .                                          : Universal Transverse Mercator Easting
UTMN .                                          : Universal Transverse Mercator Northing
X    .                                          : X
Y    .                                          : Y
DATE .            04-Sep-2024                   : Logging Date
#
~Curve Information
#MNEM.UNIT        API CODES                     : CURVE DESCRIPTION
#----.----        ---------                     : -----------------
DEPT .M           00 001 00 00                  : Logged depth
CGXT .DEGC        30 660 01 00                  : MCG External Temperature
SMTU .LB          30 635 00 00                  : DST Uphole Tension
CCLG .----        30 150 00 00                  : Casing Collar Locator
DSLL .OHMM        11 220 09 00                  : Shallow Laterolog
DDLL .OHMM        11 220 10 00                  : Deep Laterolog
DGLL .OHMM        11 211 00 00                  : Groningen Laterolog
SPDL .MV          30 010 00 00                  : Spontaneous Potential
GRGM .GAPI        30 310 01 00                  : MGS Gamma Ray
MRRS .OHMM        15 252 00 00                  : MicroRes Resistance (S)
MATC .IN          15 280 01 00                  : MMR Caliper
BIT  .IN          70 282 00 00                  : Bit size
#
~Parameter Information
#MNEM.UNIT        VALUE                         : DESCRIPTION
#----.----        -----                         : -----------
RNID .                                          : Run ID
SON  .            24220368                      : Job Number
DREF .            KB                            : Depth reference
EREF .M            484.710                      : Elevation of depth reference
GL   .M            480.210                      : Ground elevation
KB   .M            484.710                      : Kelly Bushing
DF   .M            484.710                      : Drill Floor
DDRF .            KB                            : Drilling Depth Reference
DERF .M            484.710                      : Elevation of Drilling Depth Reference
RUN  .            2A+2B                         : Run number
TDD  .M           1225.000                      : TD (driller)
TDL  .M           1226.000                      : TD (logger)
BS   .IN             8.500                      : Bit size
TIMC .                                          : Time circulation ended
TIML .                                          : Time logger at bottom
UNIT .            13347                         : Equipment ID
BASE .            PLO                           : Equipment base location
ENG  .            MALEA CRISTIAN                : Recording engineer
WIT  .            VASILE FARCAS                 : Witnessed by
CSGT .            SURFACE                       : Casing type
CSGS .IN            16.000                      : Casing size
CSGW .LB/FT          0.000                      : Casing weight
CSGD .M            250.000                      : Casing bottom (driller)
CSGL .M            249.500                      : Casing bottom (logger)
CSUP .M              0.000                      : Casing Stick Up GL
MUD  .            INHIBITIV                     : Mud type
MUDS .            FLOWLINE                      : Mud sample source
MUDD .G/C3           1.100                      : Mud density
MUDV .SEC/L         50.000                      : Mud viscosity
PH   .               9.500                      : Mud pH
FL   .ML/30MIN       4.100                      : Mud fluid loss rate
RM   .OHMM           0.150                      : Mud resistivity
RMT  .DEGC          25.000                      : Mud sample temperature
RMF  .OHMM           0.120                      : Mud filtrate resistivity
RMFT .DEGC          25.000                      : Mud filtrate sample temperature
RMC  .OHMM           0.180                      : Mud cake resistivity
RMCT .DEGC          25.000                      : Mud cake sample temperature
RMBT .OHMM           0.110                      : Mud Resistivity at BHT
BHT  .DEGC          39.000                      : Bottom Hole Temperature
TMAX .DEGC          39.000                      : Max recorded temperature
#
~Other Information
------------------------------------------------------------------------------------------------
Clients intervals and scales logged
Acquisition software: Weatherford Well Manager, version 24.03.1279
Cable used: CAMESA  size 15/32", type 7J46RXZ with  cable head and 8k weakpoint set
Depth wheel calibration factor used 0.6096
Depth Control Procedure for Multiple runs in the well followed.
Run2A: CBHC, MTAK, MBE, MBE, SHA, MCG, MBN, MTC-Y, MSS, MTC-X, SKJ, MUG, MLE, MLG, MTI, MGS,HFS 
Run2B: CBHC, MTAK, SHA, MCG, SKJ, MMR, MDN, MPD, HFS
Run2C: CBHC, MTAK, SHA, MCG, MISD, SKJ, MISE, SKJ, MISD, MSS, MISD, HFS logged in combination.
 Rm, Rmf, Rmc measured on samples from Mud Engineer given on 04.09.2024
Caliper measurements and averages from TD to casing:
   Total hole volume =  35.32 cubic meters
   Annular volume = 20.52 cubic meters, based on future casing size of 5.5 inches
   Average hole diameter = 8.49 inches (215.77 mm), based on XY caliper
------------------------------------------------------------------------------------------------
#
#          DEPT           CGXT           SMTU           CCLG           DSLL           DDLL           DGLL           SPDL           GRGM           MRRS           MATC            BIT
#
~ASCII Log Data
# ...
          694.5      34.425537    1471.549878      -3.816255       5.153697       4.831514       4.844799    -107.588124     101.231852       1.625790       8.480082       8.500000
          694.6      34.446537    1473.099878      -1.433401       5.167796       4.824844       4.837090    -107.649883      99.688612       1.558195       8.479056       8.500000
          694.7      34.477588    1475.599878       3.771141       5.172716       4.801146       4.813117    -107.791031      98.337536       1.512521       8.475860       8.500000
          694.8      34.443862    1478.099878       0.680982       5.157681       4.755080       4.767513    -107.966924      98.021390       1.527704       8.472041       8.500000
          694.9      34.473394    1480.899878       0.984521       5.111353       4.686355       4.700283    -108.085103      99.491292       1.573476       8.468931       8.500000
          695.0      34.560405    1478.949878       1.583950       5.034716       4.598813       4.614103    -108.169899     101.505166       1.660029       8.468206       8.500000
          695.1      34.480657    1467.649878      -1.904569       4.941131       4.501679       4.517457    -108.200565     104.082770       1.745269       8.469406       8.500000
          695.2      34.480446    1476.099878      -2.584239       4.845725       4.410499       4.426712    -108.136479     106.094818       1.844837       8.473884       8.500000
          695.3      34.546102    1465.849878      -0.931596       4.760439       4.335941       4.352174    -108.048164     108.066320       1.896153       8.480582       8.500000
          695.4      34.515649    1475.799878      -2.191377       4.692946       4.281470       4.296820    -107.996354     108.503650       1.909206       8.486308       8.500000
          695.5      34.451234    1484.149878       2.709315       4.646372       4.249054       4.264268    -107.968255     106.884233       1.897449       8.488534       8.500000
          695.6      34.501417    1472.699878       3.847671       4.616371       4.232083       4.248360    -107.964080     104.175710       1.870149       8.487952       8.500000
          695.7      34.387603    1461.399878      -2.133534       4.592101       4.215332       4.231459    -107.982628     101.598268       1.793691       8.486932       8.500000
          695.8      34.378077    1473.449878      -3.773498       4.565433       4.187393       4.201676    -108.048932      99.182818       1.697451       8.486515       8.500000
          695.9      34.470468    1472.499878       1.772712       4.529574       4.139309       4.153003    -108.104365      97.334418       1.634823       8.487846       8.500000
          696.0      34.459668    1472.199878       1.653764       4.477291       4.068767       4.084358    -108.091843      98.701641       1.625905       8.491329       8.500000
          696.1      34.442698    1471.249878      -2.061850       4.407903       3.983880       4.001458    -108.102945     102.637556       1.685996       8.495323       8.500000
          696.2      34.506906    1471.549878       0.456734       4.324094       3.891888       3.909376    -108.145875     107.480264       1.805805       8.498332       8.500000
          696.3      34.464277    1472.499878       1.048473       4.229295       3.798763       3.814432    -108.170796     111.403824       1.964927       8.499421       8.500000
          696.4      34.518477    1471.899878      -0.440014       4.132260       3.709237       3.722087    -108.215963     115.642453       2.102656       8.499535       8.500000
          696.5      34.505377    1470.299878      -1.641966       4.038533       3.621312       3.630732    -108.320037     120.317151       2.188803       8.498900       8.500000
          696.6      34.459070    1471.249878      -1.266028       3.947497       3.533804       3.540362    -108.405396     122.944052       2.232922       8.497760       8.500000
          696.7      34.403947    1471.249878       1.434521       3.860233       3.446052       3.451816    -108.464533     122.958488       2.228576       8.496469       8.500000
          696.8      34.413999    1471.549878       2.973343       3.740123       3.313158       3.320188    -108.522677     121.813224       2.195230       8.495530       8.500000
          696.9      34.469278    1472.499878       0.081066       3.470544       3.028606       3.036695    -108.572130     119.387421       2.141868       8.495083       8.500000
          697.0      34.532312    1472.499878       1.768027       2.999918       2.575557       2.582901    -108.603539     115.390215       2.098208       8.495017       8.500000
          697.1      34.478089    1472.199878      -0.481340       2.451638       2.079523       2.085429    -108.698040     110.512102       2.052016       8.495015       8.500000
          697.2      34.421962    1471.549878      -5.380933       1.957334       1.647166       1.652037    -108.878874     106.873882       1.974583       8.494993       8.500000
          697.3      34.503850    1472.199878      -1.086250       1.575148       1.322362       1.326552    -109.054150     103.860692       1.789180       8.495074       8.500000
          697.4      34.465588    1471.549878       3.862122       1.335874       1.131656       1.135472    -109.214221     102.601662       1.611552       8.495504       8.500000
          697.5      34.438133    1472.199878       2.860811       1.250820       1.082080       1.085903    -109.360223     102.494820       1.497950       8.496215       8.500000
          697.6      34.493026    1471.249878      -0.579204       1.314132       1.168797       1.173116    -109.402823     104.221679       1.495820       8.496872       8.500000
          697.7      34.441786    1471.549878      -1.907705       1.528183       1.395959       1.401456    -109.340039     105.631656       1.563060       8.497302       8.500000
          697.8      34.482313    1472.499878       0.634382       1.881297       1.752233       1.759638    -109.294690     108.610222       1.753004       8.497808       8.500000
          697.9      34.488007    1472.499878       0.931869       2.334290       2.202718       2.212535    -109.271774     111.591076       2.011174       8.499024       8.500000
          698.0      34.472289    1472.799878       1.018850       2.832257       2.686033       2.697941    -109.300186     114.068389       2.241479       8.501614       8.500000
          698.1      34.526237    1473.449878      -1.260950       3.258961       3.075862       3.088493    -109.366498     116.582237       2.347476       8.504542       8.500000
          698.2      34.498455    1472.499878      -4.839326       3.481950       3.260103       3.272874    -109.422977     119.464351       2.414063       8.506576       8.500000
          698.3      34.470910    1473.399878       0.121462       3.519296       3.287237       3.301115    -109.515433     122.542624       2.464082       8.507159       8.500000
          698.4      34.479768    1476.549878       3.468541       3.497088       3.274464       3.290252    -109.624250     123.216115       2.479551       8.507134       8.500000
          698.5      34.455248    1477.799878      -0.977586       3.465064       3.259322       3.277595    -109.657661     122.752602       2.478870       8.507496       8.500000
          698.6      34.477828    1478.749878      -1.851738       3.431491       3.249605       3.271020    -109.656147     120.400504       2.476711       8.508246       8.500000
          698.7      34.467762    1479.049878       0.116994       3.407659       3.256081       3.280138    -109.673867     117.354785       2.492865       8.509026       8.500000
          698.8      34.403590    1480.299878       2.099361       3.399457       3.283633       3.309016    -109.655038     113.426203       2.521320       8.509031       8.500000
          698.9      34.425182    1474.949878       2.171092       3.406845       3.326316       3.352472    -109.609192     111.958238       2.575638       8.507133       8.500000
