~Version Information
VERS .            2.00                          : CWLS Log ASCII Standard - Version 2.00
WRAP .            NO                            : One line per depth step
#
~Well Information
#MNEM.UNIT        DATA                          : DESCRIPTION
#----.----        ----                          : -----------
STRT .M            240.0                        : Start
STOP .M           1229.6                        : Stop
STEP .M              0.1                        : Step increment
NULL .            -999.250                      : Null value
COMP .            S.N.G.N. ROMGAZ S.A.          : Company
WELL .            209 NADES                     : Well
FLD  .            NADES                         : Field
PROV .            MURES                         : Province
CTRY .            Romania                       : State / Country
LOC  .            X = 529925.187 m              : Location
LOC2 .            Y = 477271.675 m              : Location 2
SRVC .            Weatherford                   : Service company
UWI  .                                          : Unique Well ID
LATI .            46 16'07.03" N                : Latitude
LONG .            24 42'12.69" E                : Longitude
UTME .                                          : Universal Transverse Mercator Easting
UTMN .                                          : Universal Transverse Mercator Northing
X    .                                          : X
Y    .                                          : Y
DATE .            04-Sep-2024                   : Logging Date
#
~Curve Information
#MNEM.UNIT        API CODES                     : CURVE DESCRIPTION
#----.----        ---------                     : -----------------
DEPT .M           00 001 00 00                  : Logged depth
CGXT .DEGC        30 660 01 00                  : MCG External Temperature
SMTU .LB          30 635 00 00                  : DST Uphole Tension
CCLG .----        30 150 00 00                  : Casing Collar Locator
DSLL .OHMM        11 220 09 00                  : Shallow Laterolog
DDLL .OHMM        11 220 10 00                  : Deep Laterolog
DGLL .OHMM        11 211 00 00                  : Groningen Laterolog
SPDL .MV          30 010 00 00                  : Spontaneous Potential
GRGM .GAPI        30 310 01 00                  : MGS Gamma Ray
MRRS .OHMM        15 252 00 00                  : MicroRes Resistance (S)
MATC .IN          15 280 01 00                  : MMR Caliper
BIT  .IN          70 282 00 00                  : Bit size
#
~Parameter Information
#MNEM.UNIT        VALUE                         : DESCRIPTION
#----.----        -----                         : -----------
RNID .                                          : Run ID
SON  .            24220368                      : Job Number
DREF .            KB                            : Depth reference
EREF .M            484.710                      : Elevation of depth reference
GL   .M            480.210                      : Ground elevation
KB   .M            484.710                      : Kelly Bushing
DF   .M            484.710                      : Drill Floor
DDRF .            KB                            : Drilling Depth Reference
DERF .M            484.710                      : Elevation of Drilling Depth Reference
RUN  .            2A+2B                         : Run number
TDD  .M           1225.000                      : TD (driller)
TDL  .M           1226.000                      : TD (logger)
BS   .IN             8.500                      : Bit size
TIMC .                                          : Time circulation ended
TIML .                                          : Time logger at bottom
UNIT .            13347                         : Equipment ID
BASE .            PLO                           : Equipment base location
ENG  .            MALEA CRISTIAN                : Recording engineer
WIT  .            VASILE FARCAS                 : Witnessed by
CSGT .            SURFACE                       : Casing type
CSGS .IN            16.000                      : Casing size
CSGW .LB/FT          0.000                      : Casing weight
CSGD .M            250.000                      : Casing bottom (driller)
CSGL .M            249.500                      : Casing bottom (logger)
CSUP .M              0.000                      : Casing Stick Up GL
MUD  .            INHIBITIV                     : Mud type
MUDS .            FLOWLINE                      : Mud sample source
MUDD .G/C3           1.100                      : Mud density
MUDV .SEC/L         50.000                      : Mud viscosity
PH   .               9.500                      : Mud pH
FL   .ML/30MIN       4.100                      : Mud fluid loss rate
RM   .OHMM           0.150                      : Mud resistivity
RMT  .DEGC          25.000                      : Mud sample temperature
RMF  .OHMM           0.120                      : Mud filtrate resistivity
RMFT .DEGC          25.000                      : Mud filtrate sample temperature
RMC  .OHMM           0.180                      : Mud cake resistivity
RMCT .DEGC          25.000                      : Mud cake sample temperature
RMBT .OHMM           0.110                      : Mud Resistivity at BHT
BHT  .DEGC          39.000                      : Bottom Hole Temperature
TMAX .DEGC          39.000                      : Max recorded temperature
#
~Other Information
------------------------------------------------------------------------------------------------
Clients intervals and scales logged
Acquisition software: Weatherford Well Manager, version 24.03.1279
Cable used: CAMESA  size 15/32", type 7J46RXZ with  cable head and 8k weakpoint set
Depth wheel calibration factor used 0.6096
Depth Control Procedure for Multiple runs in the well followed.
Run2A: CBHC, MTAK, MBE, MBE, SHA, MCG, MBN, MTC-Y, MSS, MTC-X, SKJ, MUG, MLE, MLG, MTI, MGS,HFS 
Run2B: CBHC, MTAK, SHA, MCG, SKJ, MMR, MDN, MPD, HFS
Run2C: CBHC, MTAK, SHA, MCG, MISD, SKJ, MISE, SKJ, MISD, MSS, MISD, HFS logged in combination.
 Rm, Rmf, Rmc measured on samples from Mud Engineer given on 04.09.2024
Caliper measurements and averages from TD to casing:
   Total hole volume =  35.32 cubic meters
   Annular volume = 20.52 cubic meters, based on future casing size of 5.5 inches
   Average hole diameter = 8.49 inches (215.77 mm), based on XY caliper
------------------------------------------------------------------------------------------------
#
#          DEPT           CGXT           SMTU           CCLG           DSLL           DDLL           DGLL           SPDL           GRGM           MRRS           MATC            BIT
#
~ASCII Log Data
# ...
          955.5      36.962368    1722.499878      -0.249707       4.025417       3.790902       3.812117    -112.504519     122.176539       3.249239       8.488284       8.500000
          955.6      36.979097    1722.199878       0.340993       4.039495       3.807819       3.828088    -112.388541     119.692761       3.208036       8.485508       8.500000
          955.7      36.941937    1721.249878       1.464252       4.057227       3.828114       3.846314    -112.301428     116.448187       3.145074       8.483358       8.500000
          955.8      37.007796    1721.549878       0.224150       4.076234       3.851642       3.867644    -112.205482     113.370499       3.094682       8.483184       8.500000
          955.9      36.978402    1722.199878       0.657506       4.098627       3.879943       3.893504    -112.155490     111.037095       3.071199       8.483896       8.500000
          956.0      36.973768    1720.949878       3.077856       4.128239       3.914369       3.926002    -112.189458     108.285943       3.065358       8.484686       8.500000
          956.1      36.970413    1719.999878       1.072181       4.162426       3.951487       3.963038    -112.263162     106.587954       3.057035       8.485258       8.500000
          956.2      36.988410    1720.299878      -2.445809       4.196029       3.988263       4.000847    -112.301431     106.922766       3.046164       8.485169       8.500000
          956.3      36.969744    1721.249878      -0.695276       4.228606       4.024896       4.038353    -112.296143     109.441890       3.037922       8.485059       8.500000
          956.4      37.015868    1721.249878       0.815568       4.259279       4.057645       4.072403    -112.294659     112.160007       3.013402       8.485226       8.500000
          956.5      37.027806    1720.949878      -0.805395       4.283795       4.081468       4.098704    -112.277167     115.122922       2.994993       8.486359       8.500000
          956.6      37.029886    1719.999878      -0.862666       4.301838       4.096792       4.117312    -112.217357     117.360852       2.981298       8.488780       8.500000
          956.7      37.030162    1720.299878      -0.913784       4.316760       4.104526       4.128499    -112.149772     118.466708       2.999249       8.491505       8.500000
          956.8      37.012530    1721.549878      -1.536719       4.329501       4.103256       4.129983    -112.125502     117.096354       3.019508       8.493314       8.500000
          956.9      37.025839    1722.799878       0.793173       4.338914       4.093700       4.121424    -112.101699     116.472844       3.057266       8.493738       8.500000
          957.0      36.997016    1724.349878       0.843569       4.344236       4.079906       4.106695    -112.046461     115.290932       3.089183       8.493108       8.500000
          957.1      36.988811    1726.249878      -1.826968       4.346122       4.067359       4.092337    -111.984086     115.351612       3.116913       8.491688       8.500000
          957.2      36.992566    1726.849878      -0.392451       4.347256       4.061012       4.085056    -111.971939     114.718468       3.115527       8.489849       8.500000
          957.3      36.967822    1728.749878       2.872699       4.353247       4.066626       4.091936    -112.032001     115.796591       3.090954       8.487426       8.500000
          957.4      36.979941    1728.449878       2.929186       4.370278       4.088826       4.116771    -112.088624     115.241595       3.050749       8.485813       8.500000
          957.5      36.939482    1727.799878      -1.729245       4.399258       4.124232       4.154351    -112.115086     114.731077       3.006937       8.485060       8.500000
          957.6      36.998371    1729.049878      -3.345679       4.436407       4.165428       4.197073    -112.091412     112.184149       2.980046       8.486999       8.500000
          957.7      37.025631    1729.999878       0.639482       4.476324       4.206330       4.239161    -112.056410     109.931577       2.949526       8.491332       8.500000
          957.8      37.008774    1730.299878       2.457638       4.509909       4.234712       4.267366    -112.053854     107.238330       2.941178       8.496356       8.500000
          957.9      36.993463    1731.249878      -0.332418       4.524948       4.236057       4.266794    -112.046500     105.672631       2.933696       8.499879       8.500000
          958.0      37.011621    1731.249878      -1.082392       4.515524       4.213053       4.241494    -112.025605     104.875648       2.931678       8.500999       8.500000
          958.1      36.998252    1730.949878      -0.606312       4.488303       4.180305       4.206622    -112.061862     105.557380       2.906231       8.500863       8.500000
          958.2      36.966385    1729.999878       0.847138       4.454773       4.147348       4.170862    -112.114754     107.047547       2.872736       8.500696       8.500000
          958.3      36.993992    1730.299878       0.670081       4.424342       4.124144       4.144257    -112.102789     109.168533       2.831642       8.501103       8.500000
          958.4      37.036912    1730.949878       0.522281       4.409439       4.125064       4.142374    -112.075675     111.513130       2.815445       8.501822       8.500000
          958.5      37.019298    1729.699878       0.613269       4.424576       4.155635       4.171431    -112.103624     113.520525       2.835510       8.503430       8.500000
          958.6      37.012248    1729.049878      -0.274350       4.471892       4.206765       4.222348    -112.139851     115.731464       2.886438       8.506380       8.500000
          958.7      37.041770    1729.999878       2.010540       4.540888       4.266448       4.282689    -112.136106     116.246487       2.948189       8.506774       8.500000
          958.8      37.056922    1729.399878       1.481648       4.622575       4.329532       4.347070    -112.119261     116.313602       2.993389       8.501630       8.500000
          958.9      37.006721    1728.099878      -0.922999       4.710000       4.392448       4.412626    -112.077686     115.351051       2.991434       8.491884       8.500000
          959.0      37.041043    1729.699878       1.104054       4.793292       4.449394       4.473482    -111.991833     114.791703       2.933080       8.483469       8.500000
          959.1      37.041837    1729.049878      -0.215946       4.868934       4.501890       4.529396    -111.902684     113.735010       2.807966       8.479125       8.500000
          959.2      36.980194    1730.299878      -4.372919       4.944315       4.560586       4.590489    -111.815201     113.103512       2.692160       8.477318       8.500000
          959.3      37.043291    1730.949878      -0.396090       5.024775       4.631443       4.664341    -111.670129     111.687517       2.604680       8.477198       8.500000
          959.4      37.030054    1729.699878       1.827514       5.109387       4.712174       4.748860    -111.557460     109.986580       2.571542       8.478798       8.500000
          959.5      36.983923    1729.049878       0.705377       5.199620       4.801905       4.841126    -111.500143     108.749604       2.563973       8.481726       8.500000
          959.6      37.007434    1729.999878       0.266721       5.302725       4.912351       4.952156    -111.411359     108.589079       2.571995       8.483638       8.500000
          959.7      37.055831    1729.099878      -1.014437       5.428300       5.060729       5.100327    -111.293210     108.425795       2.534142       8.483812       8.500000
          959.8      37.070196    1725.949878      -0.918872       5.581917       5.245997       5.284694    -111.199053     107.203937       2.425471       8.482203       8.500000
          959.9      37.078160    1725.299878      -1.801851       5.764759       5.458209       5.495011    -111.102945     105.302354       2.302963       8.481061       8.500000
