~Version Information
VERS .            2.00                          : CWLS Log ASCII Standard - Version 2.00
WRAP .            NO                            : One line per depth step
#
~Well Information
#MNEM.UNIT        DATA                          : DESCRIPTION
#----.----        ----                          : -----------
STRT .M            240.0                        : Start
STOP .M           1228.5                        : Stop
STEP .M              0.1                        : Step increment
NULL .            -999.250                      : Null value
COMP .            S.N.G.N. ROMGAZ S.A.          : Company
WELL .            209 NADES                     : Well
FLD  .            NADES                         : Field
PROV .            MURES                         : Province
CTRY .            Romania                       : State / Country
LOC  .            X = 529925.187 m              : Location
LOC2 .            Y = 477271.675 m              : Location 2
SRVC .            Weatherford                   : Service company
UWI  .                                          : Unique Well ID
LATI .            46 16'07.03" N                : Latitude
LONG .            24 42'12.69" E                : Longitude
UTME .                                          : Universal Transverse Mercator Easting
UTMN .                                          : Universal Transverse Mercator Northing
X    .                                          : X
Y    .                                          : Y
DATE .            04-Sep-2024                   : Logging Date
#
~Curve Information
#MNEM.UNIT        API CODES                     : CURVE DESCRIPTION
#----.----        ---------                     : -----------------
DEPT .M           00 001 00 00                  : Logged depth
CGXT .DEGC        30 660 01 00                  : MCG External Temperature
SMTU .LB          30 635 00 00                  : DST Uphole Tension
GRGC .GAPI        30 310 01 00                  : MCG Gamma Ray
CCLG .----        30 150 00 00                  : Casing Collar Locator
TR21 .US          60 520 30 00                  : 3' Transit Time
TR11 .US          60 520 04 00                  : 4' Transit Time
TR22 .US          60 520 50 00                  : 5' Transit Time
TR12 .US          60 520 60 00                  : 6' Transit Time
DT35 .US/F        60 520 32 00                  : 3-5' Compensated Sonic
BIT  .IN          70 282 00 00                  : Bit size
#
~Parameter Information
#MNEM.UNIT        VALUE                         : DESCRIPTION
#----.----        -----                         : -----------
RNID .                                          : Run ID
SON  .            24220368                      : Job Number
DREF .            KB                            : Depth reference
EREF .M            484.710                      : Elevation of depth reference
GL   .M            480.210                      : Ground elevation
KB   .M            484.710                      : Kelly Bushing
DF   .M            484.710                      : Drill Floor
DDRF .            KB                            : Drilling Depth Reference
DERF .M            484.710                      : Elevation of Drilling Depth Reference
RUN  .            2A+2B                         : Run number
TDD  .M           1225.000                      : TD (driller)
TDL  .M           1226.000                      : TD (logger)
BS   .IN             8.500                      : Bit size
TIMC .                                          : Time circulation ended
TIML .                                          : Time logger at bottom
UNIT .            13347                         : Equipment ID
BASE .            PLO                           : Equipment base location
ENG  .            MALEA CRISTIAN                : Recording engineer
WIT  .            VASILE FARCAS                 : Witnessed by
CSGT .            SURFACE                       : Casing type
CSGS .IN            16.000                      : Casing size
CSGW .LB/FT          0.000                      : Casing weight
CSGD .M            250.000                      : Casing bottom (driller)
CSGL .M            249.500                      : Casing bottom (logger)
CSUP .M              0.000                      : Casing Stick Up GL
MUD  .            INHIBITIV                     : Mud type
MUDS .            FLOWLINE                      : Mud sample source
MUDD .G/C3           1.100                      : Mud density
MUDV .SEC/L         50.000                      : Mud viscosity
PH   .               9.500                      : Mud pH
FL   .ML/30MIN       4.100                      : Mud fluid loss rate
RM   .OHMM           0.150                      : Mud resistivity
RMT  .DEGC          25.000                      : Mud sample temperature
RMF  .OHMM           0.120                      : Mud filtrate resistivity
RMFT .DEGC          25.000                      : Mud filtrate sample temperature
RMC  .OHMM           0.180                      : Mud cake resistivity
RMCT .DEGC          25.000                      : Mud cake sample temperature
RMBT .OHMM           0.110                      : Mud Resistivity at BHT
BHT  .DEGC          39.000                      : Bottom Hole Temperature
TMAX .DEGC          39.000                      : Max recorded temperature
#
~Other Information
------------------------------------------------------------------------------------------------
Clients intervals and scales logged
Acquisition software: Weatherford Well Manager, version 24.03.1279
Cable used: CAMESA  size 15/32", type 7J46RXZ with  cable head and 8k weakpoint set
Depth wheel calibration factor used 0.6096
Depth Control Procedure for Multiple runs in the well followed.
Run2A: CBHC, MTAK, MBE, MBE, SHA, MCG, MBN, MTC-Y, MSS, MTC-X, SKJ, MUG, MLE, MLG, MTI, MGS,HFS 
Run2B: CBHC, MTAK, SHA, MCG, SKJ, MMR, MDN, MPD, HFS
Run2C: CBHC, MTAK, SHA, MCG, MISD, SKJ, MISE, SKJ, MISD, MSS, MISD, HFS logged in combination.
 Rm, Rmf, Rmc measured on samples from Mud Engineer given on 04.09.2024
Caliper measurements and averages from TD to casing:
   Total hole volume =  35.32 cubic meters
   Annular volume = 20.52 cubic meters, based on future casing size of 5.5 inches
   Average hole diameter = 8.49 inches (215.77 mm), based on XY caliper
------------------------------------------------------------------------------------------------
#
#          DEPT           CGXT           SMTU           GRGC           CCLG           TR21           TR11           TR22           TR12           DT35            BIT
#
~ASCII Log Data
# ...
          818.2      35.660919    1597.499878      90.375175       0.087837     439.750885     548.331848     657.806396     773.679810     109.972420       8.500000
          818.3      35.688637    1598.749878      85.259514      -0.635846     440.087982     550.892090     661.923279     770.955994     109.551918       8.500000
          818.4      35.676838    1599.999878      79.211685       1.711496     438.229797     552.286377     663.091919     769.419556     109.214958       8.500000
          818.5      35.675377    1601.249878      76.997597       1.682432     438.890137     552.580994     663.119385     771.463745     109.262688       8.500000
          818.6      35.646702    1602.499878      76.179283      -0.745280     441.116882     549.390320     661.805664     772.804199     109.479050       8.500000
          818.7      35.667774    1603.749878      78.490990      -1.708627     437.750885     549.191528     658.401794     772.173950     109.774055       8.500000
          818.8      35.734329    1606.249878      80.547783      -0.250000     440.013489     548.362122     657.274109     771.503418     109.811447       8.500000
          818.9      35.619492    1603.749878      84.996849       2.546464     439.819397     545.340393     657.611206     770.643250     109.612381       8.500000
          819.0      35.636181    1603.749878      88.418434      -0.312940     438.750885     547.823181     657.081543     773.570618     109.288040       8.500000
          819.1      35.721542    1603.749878      93.055023      -0.649204     439.750885     547.706055     662.487122     776.495422     109.163620       8.500000
          819.2      35.700920    1603.749878      96.116684       1.529156     438.061066     548.361633     665.658936     776.199951     109.457428       8.500000
          819.3      35.684704    1603.749878     100.403343      -0.438904     435.909637     552.947205     666.431335     779.263184     110.186249       8.500000
          819.4      35.676987    1603.749878     102.155952       1.432433     440.226013     555.147339     669.750854     778.539307     111.206451       8.500000
          819.5      35.689594    1603.749878     100.791702       1.709730     447.998566     553.087097     668.750854     775.815857     112.199112       8.500000
          819.6      35.693913    1603.749878      95.161331      -1.479730     451.084198     557.933777     663.750854     776.198792     112.912178       8.500000
          819.7      35.719784    1603.749878      89.224220      -1.109730     453.750885     561.213257     664.750854     772.635071     113.098297       8.500000
          819.8      35.689800    1606.249878      85.888382      -4.033783     453.750885     561.750854     666.750854     765.560181     112.801178       8.500000
          819.9      35.655556    1607.499878      87.043449       1.731351     450.750885     561.750854     665.750854     762.854736     112.062103       8.500000
          820.0      35.653080    1608.749878      91.023956       2.655405     444.994232     559.381897     660.084229     765.019714     111.102745       8.500000
          820.1      35.680325    1608.749878      98.000145      -1.148649     439.750885     554.561768     658.923157     767.750854     109.995514       8.500000
          820.2      35.701244    1608.749878     103.233154       2.197890     434.387238     542.679810     657.750854     771.750854     108.794899       8.500000
          820.3      35.651054    1608.749878     106.740997      -1.770270     428.075714     537.776001     656.195801     771.272827     107.559792       8.500000
          820.4      35.678238    1608.749878     104.340973      -1.191133     428.750885     536.750854     651.157532     768.861572     106.362686       8.500000
          820.5      35.666286    1608.749878     100.517868      -1.114864     430.750885     540.750854     647.942688     762.565247     105.433037       8.500000
          820.6      35.596184    1608.749878      93.258675      -1.849963     434.750885     540.866821     647.750854     755.613159     104.817986       8.500000
          820.7      35.709591    1607.499878      88.754051       0.905405     435.816467     541.750854     646.750854     752.395630     104.743767       8.500000
          820.8      35.685539    1607.499878      85.518196       3.357261     435.926361     541.750854     646.951477     752.959290     105.047737       8.500000
          820.9      35.653080    1607.499878      87.241371       0.598945     434.877960     541.750854     647.750854     752.123962     105.675217       8.500000
          821.0      35.671024    1606.249878      90.483513      -3.730270     433.861847     541.750854     647.770264     752.918152     106.185028       8.500000
          821.1      35.634125    1606.249878      96.346428       0.833488     434.139282     541.107849     647.750854     753.750854     106.505867       8.500000
          821.2      35.707325    1604.999878     103.150703       0.932432     435.750885     541.020691     647.750854     753.750854     106.482880       8.500000
          821.3      35.714748    1603.749878     108.546532      -0.017248     435.750885     541.000183     647.229431     753.750854     106.273201       8.500000
          821.4      35.673855    1604.999878     112.354195       0.424505     436.774384     541.750854     647.750854     751.759644     105.936668       8.500000
          821.5      35.689056    1604.999878     114.494041      -0.935455     437.750885     541.919006     646.794189     751.750854     105.668541       8.500000
          821.6      35.702885    1606.249878     116.110878       3.593333     437.942963     543.750854     646.027222     751.172791     105.481300       8.500000
          821.7      35.687923    1606.249878     115.916107       0.054054     437.930969     542.750854     647.750854     750.807678     105.345543       8.500000
          821.8      35.659698    1606.249878     116.101334      -2.848919     437.750885     542.750854     646.838440     750.067139     105.205002       8.500000
          821.9      35.667061    1607.499878     116.554008       1.033784     436.750885     542.750854     646.846191     751.750854     105.061180       8.500000
          822.0      35.634750    1606.249878     117.128578      -1.912162     437.750885     541.098572     646.750854     752.009033     104.864738       8.500000
          822.1      35.776413    1606.249878     116.551689      -1.500000     436.750885     540.750854     646.750854     752.750854     104.644684       8.500000
          822.2      35.751469    1606.249878     114.814476       3.012588     436.750885     541.750854     646.750854     752.750854     104.418053       8.500000
          822.3      35.693081    1606.249878     113.823074      -0.081081     437.750885     541.750854     646.921326     750.750854     104.251862       8.500000
          822.4      35.644020    1604.999878     112.982773      -0.664383     437.750885     542.750854     645.750854     750.750854     104.123169       8.500000
          822.5      35.721962    1604.999878     113.543343      -1.452703     437.750885     542.750854     646.750854     754.750854     104.037094       8.500000
          822.6      35.756416    1603.749878     113.912376      -3.513699     439.750885     541.750854     651.750854     752.009277     103.929489       8.500000
          822.7      35.722588    1603.749878     115.046783       2.114865     438.750885     542.750854     648.750854     750.976807     103.825485       8.500000
          822.8      35.691410    1603.749878     114.840736       2.519909     438.750885     547.750854     647.750854     751.750854     103.777573       8.500000
          822.9      35.659698    1604.999878     116.391739       1.641711     442.750885     544.768738     648.750854     750.750854     103.832870       8.500000
          823.0      35.670815    1606.249878     117.322426      -0.476036     441.750885     543.750854     647.750854     750.750854     103.996391       8.500000
