~Version Information
VERS .            2.00                          : CWLS Log ASCII Standard - Version 2.00
WRAP .            NO                            : One line per depth step
#
~Well Information
#MNEM.UNIT        DATA                          : DESCRIPTION
#----.----        ----                          : -----------
STRT .M            240.0                        : Start
STOP .M           1228.5                        : Stop
STEP .M              0.1                        : Step increment
NULL .            -999.250                      : Null value
COMP .            S.N.G.N. ROMGAZ S.A.          : Company
WELL .            209 NADES                     : Well
FLD  .            NADES                         : Field
PROV .            MURES                         : Province
CTRY .            Romania                       : State / Country
LOC  .            X = 529925.187 m              : Location
LOC2 .            Y = 477271.675 m              : Location 2
SRVC .            Weatherford                   : Service company
UWI  .                                          : Unique Well ID
LATI .            46 16'07.03" N                : Latitude
LONG .            24 42'12.69" E                : Longitude
UTME .                                          : Universal Transverse Mercator Easting
UTMN .                                          : Universal Transverse Mercator Northing
X    .                                          : X
Y    .                                          : Y
DATE .            04-Sep-2024                   : Logging Date
#
~Curve Information
#MNEM.UNIT        API CODES                     : CURVE DESCRIPTION
#----.----        ---------                     : -----------------
DEPT .M           00 001 00 00                  : Logged depth
CGXT .DEGC        30 660 01 00                  : MCG External Temperature
SMTU .LB          30 635 00 00                  : DST Uphole Tension
GRGC .GAPI        30 310 01 00                  : MCG Gamma Ray
CCLG .----        30 150 00 00                  : Casing Collar Locator
TR21 .US          60 520 30 00                  : 3' Transit Time
TR11 .US          60 520 04 00                  : 4' Transit Time
TR22 .US          60 520 50 00                  : 5' Transit Time
TR12 .US          60 520 60 00                  : 6' Transit Time
DT35 .US/F        60 520 32 00                  : 3-5' Compensated Sonic
BIT  .IN          70 282 00 00                  : Bit size
#
~Parameter Information
#MNEM.UNIT        VALUE                         : DESCRIPTION
#----.----        -----                         : -----------
RNID .                                          : Run ID
SON  .            24220368                      : Job Number
DREF .            KB                            : Depth reference
EREF .M            484.710                      : Elevation of depth reference
GL   .M            480.210                      : Ground elevation
KB   .M            484.710                      : Kelly Bushing
DF   .M            484.710                      : Drill Floor
DDRF .            KB                            : Drilling Depth Reference
DERF .M            484.710                      : Elevation of Drilling Depth Reference
RUN  .            2A+2B                         : Run number
TDD  .M           1225.000                      : TD (driller)
TDL  .M           1226.000                      : TD (logger)
BS   .IN             8.500                      : Bit size
TIMC .                                          : Time circulation ended
TIML .                                          : Time logger at bottom
UNIT .            13347                         : Equipment ID
BASE .            PLO                           : Equipment base location
ENG  .            MALEA CRISTIAN                : Recording engineer
WIT  .            VASILE FARCAS                 : Witnessed by
CSGT .            SURFACE                       : Casing type
CSGS .IN            16.000                      : Casing size
CSGW .LB/FT          0.000                      : Casing weight
CSGD .M            250.000                      : Casing bottom (driller)
CSGL .M            249.500                      : Casing bottom (logger)
CSUP .M              0.000                      : Casing Stick Up GL
MUD  .            INHIBITIV                     : Mud type
MUDS .            FLOWLINE                      : Mud sample source
MUDD .G/C3           1.100                      : Mud density
MUDV .SEC/L         50.000                      : Mud viscosity
PH   .               9.500                      : Mud pH
FL   .ML/30MIN       4.100                      : Mud fluid loss rate
RM   .OHMM           0.150                      : Mud resistivity
RMT  .DEGC          25.000                      : Mud sample temperature
RMF  .OHMM           0.120                      : Mud filtrate resistivity
RMFT .DEGC          25.000                      : Mud filtrate sample temperature
RMC  .OHMM           0.180                      : Mud cake resistivity
RMCT .DEGC          25.000                      : Mud cake sample temperature
RMBT .OHMM           0.110                      : Mud Resistivity at BHT
BHT  .DEGC          39.000                      : Bottom Hole Temperature
TMAX .DEGC          39.000                      : Max recorded temperature
#
~Other Information
------------------------------------------------------------------------------------------------
Clients intervals and scales logged
Acquisition software: Weatherford Well Manager, version 24.03.1279
Cable used: CAMESA  size 15/32", type 7J46RXZ with  cable head and 8k weakpoint set
Depth wheel calibration factor used 0.6096
Depth Control Procedure for Multiple runs in the well followed.
Run2A: CBHC, MTAK, MBE, MBE, SHA, MCG, MBN, MTC-Y, MSS, MTC-X, SKJ, MUG, MLE, MLG, MTI, MGS,HFS 
Run2B: CBHC, MTAK, SHA, MCG, SKJ, MMR, MDN, MPD, HFS
Run2C: CBHC, MTAK, SHA, MCG, MISD, SKJ, MISE, SKJ, MISD, MSS, MISD, HFS logged in combination.
 Rm, Rmf, Rmc measured on samples from Mud Engineer given on 04.09.2024
Caliper measurements and averages from TD to casing:
   Total hole volume =  35.32 cubic meters
   Annular volume = 20.52 cubic meters, based on future casing size of 5.5 inches
   Average hole diameter = 8.49 inches (215.77 mm), based on XY caliper
------------------------------------------------------------------------------------------------
#
#          DEPT           CGXT           SMTU           GRGC           CCLG           TR21           TR11           TR22           TR12           DT35            BIT
#
~ASCII Log Data
# ...
          881.9      36.300262    1658.749878      95.211830      -4.065405     430.788605     537.750854     648.750854     758.953674     104.104210       8.500000
          882.0      36.233318    1657.499878      93.594498       1.988378     429.912598     538.117065     648.750854     760.672119     104.768791       8.500000
          882.1      36.302288    1658.749878      95.240593       1.680270     428.750885     540.053040     650.850891     762.069702     105.886787       8.500000
          882.2      36.348873    1658.749878      98.552963       4.256757     432.097656     540.393250     652.972900     762.161316     107.184624       8.500000
          882.3      36.299664    1659.999878     103.081490       4.229730     436.750885     541.205688     653.832458     763.280945     108.436852       8.500000
          882.4      36.271946    1658.749878     103.731499      -2.614865     439.943146     545.263000     653.167358     765.750854     109.478951       8.500000
          882.5      36.228222    1659.999878     102.156967       0.250000     443.750885     548.750854     656.632690     766.351501     110.242607       8.500000
          882.6      36.191532    1659.999878      99.617821       0.236579     444.925629     551.750854     661.356873     765.681335     110.763771       8.500000
          882.7      36.315193    1657.499878      98.954765      -1.164383     446.750885     554.786255     663.750854     770.693481     111.121140       8.500000
          882.8      36.142654    1657.499878      99.742577       1.479452     446.750885     557.750854     668.088684     773.336182     111.405754       8.500000
          882.9      36.259995    1657.499878     101.640968       1.371050     446.759857     558.216553     669.750854     775.116455     111.620369       8.500000
          883.0      36.264732    1657.499878     104.908661      -1.526842     446.011658     560.161865     669.750854     774.674194     111.800423       8.500000
          883.1      36.254360    1657.499878     105.603714      -2.526667     446.895447     558.801086     667.081848     770.930176     111.846352       8.500000
          883.2      36.230904    1658.749878     103.033394       0.807664     446.750885     557.070862     661.004028     762.812073     111.762711       8.500000
          883.3      36.251320    1659.999878     101.257469       0.265946     446.750885     552.862305     651.858459     753.284851     111.323364       8.500000
          883.4      36.268726    1658.749878      99.599731      -0.300457     444.080841     547.512939     640.370056     749.503296     110.395676       8.500000
          883.5      36.220592    1657.499878      98.577049      -2.025946     437.932190     538.225403     635.933105     748.974670     108.615753       8.500000
          883.6      36.253796    1657.499878      96.012955      -0.885585     427.081329     528.617737     637.800598     746.110352     106.049339       8.500000
          883.7      36.306580    1656.249878      94.406105       0.816486     416.912811     524.476807     635.750854     744.805969     102.840225       8.500000
          883.8      36.254631    1678.749878      89.772942      -0.689190     410.974274     523.453552     632.960754     743.489563      99.695267       8.500000
          883.9      36.295879    1658.749878      82.919418       1.064883     411.750885     522.086426     629.756775     745.965942      97.269829       8.500000
          884.0      36.268101    1656.249878      75.559639       1.221442     412.750885     518.942444     629.779602     747.235291      96.324150       8.500000
          884.1      36.249741    1654.999878      72.480797      -0.281099     411.750885     517.959106     632.320862     745.528625      97.034691       8.500000
          884.2      36.234421    1653.749878      71.978661      -0.366667     410.827209     519.416565     630.992676     746.631409      99.222740       8.500000
          884.3      36.255642    1656.249878      75.359756       3.337838     416.750885     524.062012     634.313538     745.323853     102.226456       8.500000
          884.4      36.226196    1657.499878      82.053108      -1.020000     429.035980     523.254700     635.421021     745.366577     105.318848       8.500000
          884.5      36.309261    1657.499878      89.318336      -5.598108     437.750885     531.825623     636.710144     746.603577     108.024429       8.500000
          884.6      36.189774    1657.499878      93.486275       1.665225     441.750885     541.153015     643.455444     749.467529     110.039658       8.500000
          884.7      36.292988    1657.499878      94.839828       6.100000     443.897522     549.970398     654.167542     748.757568     111.474602       8.500000
          884.8      36.360077    1659.999878      94.046844      -0.578558     445.750885     553.254639     662.060608     755.692444     112.320068       8.500000
          884.9      36.322018    1658.749878      92.735527       0.045405     445.750885     557.449524     665.119141     765.552368     112.852654       8.500000
          885.0      36.220085    1658.749878      90.851563       2.353333     447.158936     557.049194     667.753052     774.921631     113.015572       8.500000
          885.1      36.345772    1658.749878      91.566063      -5.056721     444.750885     557.878113     669.193665     778.545105     113.005898       8.500000
          885.2      36.158241    1658.749878      94.983284       0.114155     443.830505     557.928162     669.744629     781.948120     112.721359       8.500000
          885.3      36.289085    1658.749878      98.770897       3.764649     443.280487     556.156494     671.301514     783.074158     112.377159       8.500000
          885.4      36.272392    1658.749878     100.748360      -2.618660     443.254608     556.274841     668.791016     785.762695     111.932793       8.500000
          885.5      36.293793    1661.249878     100.904976      -2.620000     441.750885     557.483521     670.526794     784.578247     111.619156       8.500000
          885.6      36.261189    1661.249878      99.675941       5.151172     443.750885     556.627441     670.600525     778.237366     111.438240       8.500000
          885.7      36.373402    1658.749878      97.841866      -1.506666     442.128265     556.690918     665.505066     779.013062     111.489738       8.500000
          885.8      36.265152    1659.999878      96.425774      -6.300000     442.750885     556.407776     664.210144     779.605713     111.590126       8.500000
          885.9      36.191624    1659.999878      96.094635       0.155225     443.750885     550.509644     664.911438     779.351685     111.651970       8.500000
          886.0      36.415844    1659.999878      97.299110       2.358288     439.788818     550.126282     664.068054     777.159241     111.514427       8.500000
          886.1      36.374920    1659.999878      98.722816       2.006757     439.931213     551.512085     663.041016     777.447021     111.193474       8.500000
          886.2      36.294209    1658.749878      99.065315      -0.731621     441.750885     552.750854     662.750854     775.754395     110.784264       8.500000
          886.3      36.390301    1658.749878      99.237633      -3.195316     442.000885     552.265015     663.750854     772.657776     110.454468       8.500000
          886.4      36.332005    1657.499878      98.419846       0.589729     442.802765     552.127747     661.750854     772.820557     110.348808       8.500000
          886.5      36.365978    1656.249878      98.396889       1.760000     440.750885     552.750854     662.202881     772.055359     110.470718       8.500000
          886.6      36.363358    1656.249878      96.972527      -1.236397     439.750885     551.750854     661.750854     770.861633     110.724976       8.500000
          886.7      36.274002    1654.999878      96.268364      -1.853333     440.750885     549.876648     660.750854     771.753906     110.885963       8.500000
