~Version Information
VERS .            2.00                          : CWLS Log ASCII Standard - Version 2.00
WRAP .            NO                            : One line per depth step
#
~Well Information
#MNEM.UNIT        DATA                          : DESCRIPTION
#----.----        ----                          : -----------
STRT .M            240.0                        : Start
STOP .M           1228.5                        : Stop
STEP .M              0.1                        : Step increment
NULL .            -999.250                      : Null value
COMP .            S.N.G.N. ROMGAZ S.A.          : Company
WELL .            209 NADES                     : Well
FLD  .            NADES                         : Field
PROV .            MURES                         : Province
CTRY .            Romania                       : State / Country
LOC  .            X = 529925.187 m              : Location
LOC2 .            Y = 477271.675 m              : Location 2
SRVC .            Weatherford                   : Service company
UWI  .                                          : Unique Well ID
LATI .            46 16'07.03" N                : Latitude
LONG .            24 42'12.69" E                : Longitude
UTME .                                          : Universal Transverse Mercator Easting
UTMN .                                          : Universal Transverse Mercator Northing
X    .                                          : X
Y    .                                          : Y
DATE .            04-Sep-2024                   : Logging Date
#
~Curve Information
#MNEM.UNIT        API CODES                     : CURVE DESCRIPTION
#----.----        ---------                     : -----------------
DEPT .M           00 001 00 00                  : Logged depth
CGXT .DEGC        30 660 01 00                  : MCG External Temperature
SMTU .LB          30 635 00 00                  : DST Uphole Tension
GRGC .GAPI        30 310 01 00                  : MCG Gamma Ray
CCLG .----        30 150 00 00                  : Casing Collar Locator
TR21 .US          60 520 30 00                  : 3' Transit Time
TR11 .US          60 520 04 00                  : 4' Transit Time
TR22 .US          60 520 50 00                  : 5' Transit Time
TR12 .US          60 520 60 00                  : 6' Transit Time
DT35 .US/F        60 520 32 00                  : 3-5' Compensated Sonic
BIT  .IN          70 282 00 00                  : Bit size
#
~Parameter Information
#MNEM.UNIT        VALUE                         : DESCRIPTION
#----.----        -----                         : -----------
RNID .                                          : Run ID
SON  .            24220368                      : Job Number
DREF .            KB                            : Depth reference
EREF .M            484.710                      : Elevation of depth reference
GL   .M            480.210                      : Ground elevation
KB   .M            484.710                      : Kelly Bushing
DF   .M            484.710                      : Drill Floor
DDRF .            KB                            : Drilling Depth Reference
DERF .M            484.710                      : Elevation of Drilling Depth Reference
RUN  .            2A+2B                         : Run number
TDD  .M           1225.000                      : TD (driller)
TDL  .M           1226.000                      : TD (logger)
BS   .IN             8.500                      : Bit size
TIMC .                                          : Time circulation ended
TIML .                                          : Time logger at bottom
UNIT .            13347                         : Equipment ID
BASE .            PLO                           : Equipment base location
ENG  .            MALEA CRISTIAN                : Recording engineer
WIT  .            VASILE FARCAS                 : Witnessed by
CSGT .            SURFACE                       : Casing type
CSGS .IN            16.000                      : Casing size
CSGW .LB/FT          0.000                      : Casing weight
CSGD .M            250.000                      : Casing bottom (driller)
CSGL .M            249.500                      : Casing bottom (logger)
CSUP .M              0.000                      : Casing Stick Up GL
MUD  .            INHIBITIV                     : Mud type
MUDS .            FLOWLINE                      : Mud sample source
MUDD .G/C3           1.100                      : Mud density
MUDV .SEC/L         50.000                      : Mud viscosity
PH   .               9.500                      : Mud pH
FL   .ML/30MIN       4.100                      : Mud fluid loss rate
RM   .OHMM           0.150                      : Mud resistivity
RMT  .DEGC          25.000                      : Mud sample temperature
RMF  .OHMM           0.120                      : Mud filtrate resistivity
RMFT .DEGC          25.000                      : Mud filtrate sample temperature
RMC  .OHMM           0.180                      : Mud cake resistivity
RMCT .DEGC          25.000                      : Mud cake sample temperature
RMBT .OHMM           0.110                      : Mud Resistivity at BHT
BHT  .DEGC          39.000                      : Bottom Hole Temperature
TMAX .DEGC          39.000                      : Max recorded temperature
#
~Other Information
------------------------------------------------------------------------------------------------
Clients intervals and scales logged
Acquisition software: Weatherford Well Manager, version 24.03.1279
Cable used: CAMESA  size 15/32", type 7J46RXZ with  cable head and 8k weakpoint set
Depth wheel calibration factor used 0.6096
Depth Control Procedure for Multiple runs in the well followed.
Run2A: CBHC, MTAK, MBE, MBE, SHA, MCG, MBN, MTC-Y, MSS, MTC-X, SKJ, MUG, MLE, MLG, MTI, MGS,HFS 
Run2B: CBHC, MTAK, SHA, MCG, SKJ, MMR, MDN, MPD, HFS
Run2C: CBHC, MTAK, SHA, MCG, MISD, SKJ, MISE, SKJ, MISD, MSS, MISD, HFS logged in combination.
 Rm, Rmf, Rmc measured on samples from Mud Engineer given on 04.09.2024
Caliper measurements and averages from TD to casing:
   Total hole volume =  35.32 cubic meters
   Annular volume = 20.52 cubic meters, based on future casing size of 5.5 inches
   Average hole diameter = 8.49 inches (215.77 mm), based on XY caliper
------------------------------------------------------------------------------------------------
#
#          DEPT           CGXT           SMTU           GRGC           CCLG           TR21           TR11           TR22           TR12           DT35            BIT
#
~ASCII Log Data
# ...
          499.7      32.414474    1281.249878     121.323021      -6.151213     490.750885     609.019714     729.750854     852.986755     124.512978       8.500000
          499.8      32.385860    1284.999878     121.986938       1.178991     494.750885     610.182678     730.823547     854.807190     124.019318       8.500000
          499.9      32.427620    1284.999878     123.178497       0.964789     494.750885     613.873291     733.833618     856.409363     123.403580       8.500000
          500.0      32.339306    1284.999878     123.475052      -1.736111     490.750885     619.755310     738.916626     858.800598     122.902145       8.500000
          500.1      32.502666    1266.249878     124.083000       2.630868     488.750885     621.750854     745.178833     861.100098     122.604149       8.500000
          500.2      32.354092    1263.750000     124.583290       2.458333     488.750885     618.882080     746.750854     864.133850     122.660057       8.500000
          500.3      32.422970    1262.500000     123.966675       1.180556     489.750885     617.750854     742.750854     868.878174     123.003838       8.500000
          500.4      32.458347    1263.750000     122.742104      -1.577269     488.750885     616.763733     738.188660     870.029785     123.575394       8.500000
          500.5      32.428272    1262.500000     120.682716      -0.361111     489.750885     614.410400     737.000854     866.954285     124.255692       8.500000
          500.6      32.424667    1261.250000     120.151268       0.730047     487.750885     611.750854     736.750854     864.318298     124.921410       8.500000
          500.7      32.446304    1262.500000     118.982712      -0.277778     486.777405     611.940002     734.905823     863.176880     125.403595       8.500000
          500.8      32.467258    1262.500000     120.023842       2.680556     488.750885     611.750854     735.007629     863.472351     125.642708       8.500000
          500.9      32.481686    1263.750000     119.982452      -1.651408     488.750885     612.268860     735.504395     863.119019     125.630905       8.500000
          501.0      32.455395    1264.999878     120.890915      -4.465278     488.761047     613.508301     736.766479     862.831299     125.449112       8.500000
          501.1      32.470806    1266.249878     119.711708       3.176056     489.750885     614.272583     737.856140     863.825134     125.223045       8.500000
          501.2      32.402046    1266.249878     119.395508       3.798611     489.750885     615.311829     739.142517     865.040894     125.068947       8.500000
          501.3      32.414059    1267.499878     118.096245      -3.767703     490.750885     615.944519     740.394897     866.166687     125.043724       8.500000
          501.4      32.433998    1268.749878     118.323280      -2.574922     488.829498     616.944275     740.924866     867.243347     125.111870       8.500000
          501.5      32.439869    1269.999878     119.465706      -0.562500     488.750885     616.750854     741.750854     867.724304     125.271706       8.500000
          501.6      32.414921    1269.999878     121.542336       1.192977     488.750885     615.785767     740.891907     867.745239     125.449966       8.500000
          501.7      32.473190    1271.249878     123.317474       0.395833     488.750885     615.143921     739.322327     868.074097     125.627548       8.500000
          501.8      32.389259    1273.749878     124.254654      -3.346556     488.922882     613.943359     738.871399     867.785706     125.736771       8.500000
          501.9      32.456825    1274.999878     125.264519       5.611777     488.009369     613.766663     738.451721     866.796326     125.799545       8.500000
          502.0      32.437691    1274.999878     124.946030       3.797945     488.750885     614.116333     738.211914     865.659424     125.773758       8.500000
          502.1      32.420109    1276.249878     125.554893      -1.458904     487.750885     614.762695     738.098022     865.600891     125.678955       8.500000
          502.2      32.529163    1274.999878     125.007889      -2.361111     488.756897     614.197327     738.318298     866.906067     125.525757       8.500000
          502.3      32.488064    1276.249878     125.308212      -3.678082     488.030640     613.491821     739.750854     867.144104     125.371857       8.500000
          502.4      32.476170    1276.249878     123.594475       2.193303     487.932678     614.102783     739.564819     867.634277     125.276299       8.500000
          502.5      32.422970    1277.499878     121.193230      -0.203958     488.038544     615.750854     739.907471     867.767700     125.326141       8.500000
          502.6      32.392330    1278.749878     118.526817      -0.808219     489.750885     615.592590     739.964539     868.733643     125.518929       8.500000
          502.7      32.543766    1278.749878     117.720879       0.840279     488.750885     615.269592     741.488159     869.582275     125.831818       8.500000
          502.8      32.455189    1279.999878     118.638161      -2.565639     488.811768     615.942566     742.448608     870.025269     126.166672       8.500000
          502.9      32.425713    1278.749878     119.673859      -1.803502     489.829468     616.858276     742.297791     868.520630     126.508133       8.500000
          503.0      32.410896    1278.749878     121.620529      -1.569444     491.750885     618.380066     739.659607     867.325317     126.805550       8.500000
          503.1      32.403030    1278.749878     122.569778       0.228826     493.750885     618.227356     738.889160     867.937561     127.048775       8.500000
          503.2      32.399216    1279.999878     123.072174       1.027778     492.750885     616.772400     740.364136     868.294373     127.176720       8.500000
          503.3      32.434624    1282.499878     121.992851       0.493150     490.750885     616.246277     741.375000     869.504578     127.195961       8.500000
          503.4      32.397308    1283.749878     123.087090      -1.194445     487.846161     616.335693     741.644165     869.881653     127.070435       8.500000
          503.5      32.420315    1284.999878     123.957916       1.664384     487.903931     616.356812     742.016052     869.537903     126.828232       8.500000
          503.6      32.464725    1284.999878     125.461182       4.701389     488.750885     615.489563     740.540100     868.345459     126.519264       8.500000
          503.7      32.434326    1283.749878     124.304604       0.201864     487.997772     615.526123     737.750854     868.366943     126.251915       8.500000
          503.8      32.434414    1282.499878     124.229347      -3.534722     488.750885     613.928833     737.730896     871.317810     126.053246       8.500000
          503.9      32.491638    1281.249878     121.682594      -1.133371     485.750885     612.891052     740.079834     875.141846     125.850388       8.500000
          504.0      32.560101    1279.999878     120.403107       2.423611     483.028564     612.204773     744.859070     876.357422     125.524864       8.500000
          504.1      32.408840    1278.749878     118.189949       0.629655     484.008270     613.229614     746.429810     875.317261     125.119904       8.500000
          504.2      32.443741    1277.499878     119.011391      -2.992078     486.750885     618.021912     743.011353     873.250854     124.854530       8.500000
          504.3      32.485291    1273.749878     119.534943       3.323161     490.750885     621.130310     740.330383     869.282104     125.018478       8.500000
          504.4      32.472088    1273.749878     121.176956       0.151800     492.750885     618.519836     738.727173     865.877075     125.701935       8.500000
          504.5      32.414715    1273.749878     122.622330      -1.333333     489.750885     615.921326     736.760193     865.335022     126.792000       8.500000
