~Version Information
VERS .            2.00                          : CWLS Log ASCII Standard - Version 2.00
WRAP .            NO                            : One line per depth step
#
~Well Information
#MNEM.UNIT        DATA                          : DESCRIPTION
#----.----        ----                          : -----------
STRT .M            240.0                        : Start
STOP .M           1229.6                        : Stop
STEP .M              0.1                        : Step increment
NULL .            -999.250                      : Null value
COMP .            S.N.G.N. ROMGAZ S.A.          : Company
WELL .            209 NADES                     : Well
FLD  .            NADES                         : Field
PROV .            MURES                         : Province
CTRY .            Romania                       : State / Country
LOC  .            X = 529925.187 m              : Location
LOC2 .            Y = 477271.675 m              : Location 2
SRVC .            Weatherford                   : Service company
UWI  .                                          : Unique Well ID
LATI .            46 16'07.03" N                : Latitude
LONG .            24 42'12.69" E                : Longitude
UTME .                                          : Universal Transverse Mercator Easting
UTMN .                                          : Universal Transverse Mercator Northing
X    .                                          : X
Y    .                                          : Y
DATE .            04-Sep-2024                   : Logging Date
#
~Curve Information
#MNEM.UNIT        API CODES                     : CURVE DESCRIPTION
#----.----        ---------                     : -----------------
DEPT .M           00 001 00 00                  : Logged depth
CGXT .DEGC        30 660 01 00                  : MCG External Temperature
SMTU .LB          30 635 00 00                  : DST Uphole Tension
CCLG .----        30 150 00 00                  : Casing Collar Locator
DSLL .OHMM        11 220 09 00                  : Shallow Laterolog
DDLL .OHMM        11 220 10 00                  : Deep Laterolog
DGLL .OHMM        11 211 00 00                  : Groningen Laterolog
SPDL .MV          30 010 00 00                  : Spontaneous Potential
GRGM .GAPI        30 310 01 00                  : MGS Gamma Ray
MRRS .OHMM        15 252 00 00                  : MicroRes Resistance (S)
MATC .IN          15 280 01 00                  : MMR Caliper
BIT  .IN          70 282 00 00                  : Bit size
#
~Parameter Information
#MNEM.UNIT        VALUE                         : DESCRIPTION
#----.----        -----                         : -----------
RNID .                                          : Run ID
SON  .            24220368                      : Job Number
DREF .            KB                            : Depth reference
EREF .M            484.710                      : Elevation of depth reference
GL   .M            480.210                      : Ground elevation
KB   .M            484.710                      : Kelly Bushing
DF   .M            484.710                      : Drill Floor
DDRF .            KB                            : Drilling Depth Reference
DERF .M            484.710                      : Elevation of Drilling Depth Reference
RUN  .            2A+2B                         : Run number
TDD  .M           1225.000                      : TD (driller)
TDL  .M           1226.000                      : TD (logger)
BS   .IN             8.500                      : Bit size
TIMC .                                          : Time circulation ended
TIML .                                          : Time logger at bottom
UNIT .            13347                         : Equipment ID
BASE .            PLO                           : Equipment base location
ENG  .            MALEA CRISTIAN                : Recording engineer
WIT  .            VASILE FARCAS                 : Witnessed by
CSGT .            SURFACE                       : Casing type
CSGS .IN            16.000                      : Casing size
CSGW .LB/FT          0.000                      : Casing weight
CSGD .M            250.000                      : Casing bottom (driller)
CSGL .M            249.500                      : Casing bottom (logger)
CSUP .M              0.000                      : Casing Stick Up GL
MUD  .            INHIBITIV                     : Mud type
MUDS .            FLOWLINE                      : Mud sample source
MUDD .G/C3           1.100                      : Mud density
MUDV .SEC/L         50.000                      : Mud viscosity
PH   .               9.500                      : Mud pH
FL   .ML/30MIN       4.100                      : Mud fluid loss rate
RM   .OHMM           0.150                      : Mud resistivity
RMT  .DEGC          25.000                      : Mud sample temperature
RMF  .OHMM           0.120                      : Mud filtrate resistivity
RMFT .DEGC          25.000                      : Mud filtrate sample temperature
RMC  .OHMM           0.180                      : Mud cake resistivity
RMCT .DEGC          25.000                      : Mud cake sample temperature
RMBT .OHMM           0.110                      : Mud Resistivity at BHT
BHT  .DEGC          39.000                      : Bottom Hole Temperature
TMAX .DEGC          39.000                      : Max recorded temperature
#
~Other Information
------------------------------------------------------------------------------------------------
Clients intervals and scales logged
Acquisition software: Weatherford Well Manager, version 24.03.1279
Cable used: CAMESA  size 15/32", type 7J46RXZ with  cable head and 8k weakpoint set
Depth wheel calibration factor used 0.6096
Depth Control Procedure for Multiple runs in the well followed.
Run2A: CBHC, MTAK, MBE, MBE, SHA, MCG, MBN, MTC-Y, MSS, MTC-X, SKJ, MUG, MLE, MLG, MTI, MGS,HFS 
Run2B: CBHC, MTAK, SHA, MCG, SKJ, MMR, MDN, MPD, HFS
Run2C: CBHC, MTAK, SHA, MCG, MISD, SKJ, MISE, SKJ, MISD, MSS, MISD, HFS logged in combination.
 Rm, Rmf, Rmc measured on samples from Mud Engineer given on 04.09.2024
Caliper measurements and averages from TD to casing:
   Total hole volume =  35.32 cubic meters
   Annular volume = 20.52 cubic meters, based on future casing size of 5.5 inches
   Average hole diameter = 8.49 inches (215.77 mm), based on XY caliper
------------------------------------------------------------------------------------------------
#
#          DEPT           CGXT           SMTU           CCLG           DSLL           DDLL           DGLL           SPDL           GRGM           MRRS           MATC            BIT
#
~ASCII Log Data
# ...
         1153.5      38.876676    1893.299878      -9.991117       4.621779       4.341098       4.352851    -120.964805      95.506482       2.492096       8.481177       8.500000
         1153.6      39.041904    1898.049878      -7.426162       4.620328       4.347738       4.359468    -120.970216      95.810790       2.315761       8.479033       8.500000
         1153.7      38.911050    1879.699878       0.767982       4.686791       4.419426       4.431648    -120.940659      96.592233       2.128764       8.478951       8.500000
         1153.8      38.646925    1878.749878       4.171243       4.807351       4.530671       4.543349    -120.950651      97.107693       1.997896       8.478776       8.500000
         1153.9      38.665097    1879.349878      10.075697       4.956350       4.653194       4.665491    -120.985240      97.301363       1.927161       8.478668       8.500000
         1154.0      38.654964    1881.249878       0.906105       5.102407       4.764371       4.775239    -120.994321      97.103281       1.912080       8.478629       8.500000
         1154.1      38.742118    1881.249878      -2.330941       5.206380       4.829409       4.838064    -121.110436      97.778643       1.940006       8.478715       8.500000
         1154.2      38.959782    1881.549878       4.036976       5.235260       4.815976       4.821709    -121.523027      97.832113       2.001202       8.479087       8.500000
         1154.3      38.817431    1882.799878      -3.930271       5.185665       4.733328       4.735911    -121.865128      97.478355       2.063857       8.479854       8.500000
         1154.4      38.941787    1884.049878      -1.467903       5.079931       4.614897       4.615479    -121.960809      98.848359       2.106858       8.480929       8.500000
         1154.5      38.958841    1885.299878       1.710065       4.942736       4.476775       4.477516    -122.057811     102.084737       2.117283       8.481795       8.500000
         1154.6      38.756681    1886.549878      -0.333708       4.795695       4.333480       4.335610    -122.077997     105.065309       2.123276       8.482101       8.500000
         1154.7      38.902729    1887.199878       0.390825       4.661788       4.210129       4.213797    -121.803244     107.373718       2.134517       8.481684       8.500000
         1154.8      38.884449    1885.949878      -0.680076       4.554609       4.114470       4.120460    -121.578936     108.938936       2.141919       8.481145       8.500000
         1154.9      38.918703    1884.999878      -7.246184       4.477269       4.040979       4.050184    -121.618883     109.745257       2.149292       8.480810       8.500000
         1155.0      38.891756    1884.699878      -1.184486       4.430990       3.992297       4.003946    -121.707169     109.126897       2.147850       8.481209       8.500000
         1155.1      38.893914    1884.049878      -0.405246       4.415099       3.974392       3.986435    -121.822570     108.165732       2.159873       8.481502       8.500000
         1155.2      38.703270    1884.699878      -0.221665       4.428672       3.990581       4.001489    -122.022321     106.217469       2.199677       8.481472       8.500000
         1155.3      38.830707    1883.149878       1.912162       4.476562       4.045446       4.054423    -122.179479     104.151592       2.276034       8.480680       8.500000
         1155.4      38.715523    1881.249878       1.206410       4.572952       4.149383       4.155494    -122.195435     101.662744       2.344550       8.478063       8.500000
         1155.5      38.843985    1880.949878       5.222418       4.741052       4.327222       4.330364    -122.195001      99.491486       2.361277       8.473009       8.500000
         1155.6      38.740779    1879.699878       0.573589       5.007358       4.609282       4.611341    -122.137191      95.900485       2.334902       8.469836       8.500000
         1155.7      38.875340    1878.749878      -3.750959       5.390878       5.008085       5.011159    -121.990302      92.695526       2.256813       8.470342       8.500000
         1155.8      38.882511    1878.749878      -3.030378       5.890272       5.520132       5.524821    -121.906409      87.974852       2.143102       8.473568       8.500000
         1155.9      38.898239    1879.049878       3.252735       6.459218       6.116291       6.122995    -121.902261      82.439167       1.993539       8.475303       8.500000
         1156.0      38.779058    1880.599878       7.126947       7.008806       6.711844       6.721022    -121.868133      76.159967       1.896745       8.475456       8.500000
         1156.1      38.734686    1882.499878       7.637957       7.456839       7.201894       7.212915    -121.882938      72.698575       1.838157       8.476099       8.500000
         1156.2      38.790943    1882.199878       1.167734       7.727837       7.501523       7.513562    -121.977372      71.770755       1.833479       8.477309       8.500000
         1156.3      39.001703    1880.349878      -2.008070       7.753931       7.543912       7.556062    -122.084392      73.450118       1.877450       8.478854       8.500000
         1156.4      39.035086    1877.199878      -5.325284       7.552788       7.336592       7.346839    -122.202852      76.049506       1.944913       8.479930       8.500000
         1156.5      39.048854    1875.349878      -9.372330       7.218771       6.977737       6.984507    -122.234662      79.157939       1.985159       8.480486       8.500000
         1156.6      39.020229    1871.599878       0.952751       6.822952       6.555264       6.558753    -122.178836      81.136713       1.968774       8.480882       8.500000
         1156.7      38.908945    1871.149878      11.685899       6.408767       6.116245       6.117086    -122.089189      82.227622       1.981000       8.483022       8.500000
         1156.8      38.760647    1882.349878       6.834035       6.023044       5.707156       5.705670    -121.932459      83.767256       2.011233       8.489459       8.500000
         1156.9      38.918693    1892.849878      -1.898032       5.699207       5.359234       5.355990    -121.770630      86.568114       2.129933       8.499339       8.500000
         1157.0      39.057139    1889.699878      -7.919369       5.442877       5.076320       5.072163    -121.687661      90.800929       2.302441       8.507646       8.500000
         1157.1      39.039651    1889.049878       0.615467       5.243623       4.857151       4.852619    -121.632916      94.092891       2.538700       8.507108       8.500000
         1157.2      39.006655    1889.699878       1.581092       5.103828       4.707875       4.703110    -121.566335      95.248977       2.658009       8.498239       8.500000
         1157.3      38.847299    1887.849878      -2.802363       5.033832       4.632625       4.627864    -121.605282      93.493443       2.654810       8.488628       8.500000
         1157.4      39.041344    1887.699878       7.461660       5.019260       4.617417       4.612988    -121.841948      88.818669       2.544829       8.482923       8.500000
         1157.5      38.958419    1898.649878      -3.872429       5.029207       4.631639       4.627634    -121.965602      81.739048       2.443038       8.481888       8.500000
         1157.6      38.851503    1903.549878      -7.691020       5.040920       4.643277       4.639677    -121.882913      75.563865       2.366242       8.481838       8.500000
         1157.7      39.023721    1893.199878       7.202418       5.027763       4.622039       4.618801    -121.844079      72.479771       2.366132       8.482803       8.500000
         1157.8      38.849026    1887.799878      -3.534342       4.958053       4.543678       4.540502    -121.722501      73.465580       2.432933       8.483857       8.500000
         1157.9      38.896475    1888.749878      -9.341225       4.829473       4.410073       4.406536    -121.352787      77.175706       2.522480       8.484857       8.500000
