~Version Information
VERS .            2.00                          : CWLS Log ASCII Standard - Version 2.00
WRAP .            NO                            : One line per depth step
#
~Well Information
#MNEM.UNIT        DATA                          : DESCRIPTION
#----.----        ----                          : -----------
STRT .M            240.0                        : Start
STOP .M           1228.5                        : Stop
STEP .M              0.1                        : Step increment
NULL .            -999.250                      : Null value
COMP .            S.N.G.N. ROMGAZ S.A.          : Company
WELL .            209 NADES                     : Well
FLD  .            NADES                         : Field
PROV .            MURES                         : Province
CTRY .            Romania                       : State / Country
LOC  .            X = 529925.187 m              : Location
LOC2 .            Y = 477271.675 m              : Location 2
SRVC .            Weatherford                   : Service company
UWI  .                                          : Unique Well ID
LATI .            46 16'07.03" N                : Latitude
LONG .            24 42'12.69" E                : Longitude
UTME .                                          : Universal Transverse Mercator Easting
UTMN .                                          : Universal Transverse Mercator Northing
X    .                                          : X
Y    .                                          : Y
DATE .            04-Sep-2024                   : Logging Date
#
~Curve Information
#MNEM.UNIT        API CODES                     : CURVE DESCRIPTION
#----.----        ---------                     : -----------------
DEPT .M           00 001 00 00                  : Logged depth
CGXT .DEGC        30 660 01 00                  : MCG External Temperature
SMTU .LB          30 635 00 00                  : DST Uphole Tension
GRGC .GAPI        30 310 01 00                  : MCG Gamma Ray
CCLG .----        30 150 00 00                  : Casing Collar Locator
TR21 .US          60 520 30 00                  : 3' Transit Time
TR11 .US          60 520 04 00                  : 4' Transit Time
TR22 .US          60 520 50 00                  : 5' Transit Time
TR12 .US          60 520 60 00                  : 6' Transit Time
DT35 .US/F        60 520 32 00                  : 3-5' Compensated Sonic
BIT  .IN          70 282 00 00                  : Bit size
#
~Parameter Information
#MNEM.UNIT        VALUE                         : DESCRIPTION
#----.----        -----                         : -----------
RNID .                                          : Run ID
SON  .            24220368                      : Job Number
DREF .            KB                            : Depth reference
EREF .M            484.710                      : Elevation of depth reference
GL   .M            480.210                      : Ground elevation
KB   .M            484.710                      : Kelly Bushing
DF   .M            484.710                      : Drill Floor
DDRF .            KB                            : Drilling Depth Reference
DERF .M            484.710                      : Elevation of Drilling Depth Reference
RUN  .            2A+2B                         : Run number
TDD  .M           1225.000                      : TD (driller)
TDL  .M           1226.000                      : TD (logger)
BS   .IN             8.500                      : Bit size
TIMC .                                          : Time circulation ended
TIML .                                          : Time logger at bottom
UNIT .            13347                         : Equipment ID
BASE .            PLO                           : Equipment base location
ENG  .            MALEA CRISTIAN                : Recording engineer
WIT  .            VASILE FARCAS                 : Witnessed by
CSGT .            SURFACE                       : Casing type
CSGS .IN            16.000                      : Casing size
CSGW .LB/FT          0.000                      : Casing weight
CSGD .M            250.000                      : Casing bottom (driller)
CSGL .M            249.500                      : Casing bottom (logger)
CSUP .M              0.000                      : Casing Stick Up GL
MUD  .            INHIBITIV                     : Mud type
MUDS .            FLOWLINE                      : Mud sample source
MUDD .G/C3           1.100                      : Mud density
MUDV .SEC/L         50.000                      : Mud viscosity
PH   .               9.500                      : Mud pH
FL   .ML/30MIN       4.100                      : Mud fluid loss rate
RM   .OHMM           0.150                      : Mud resistivity
RMT  .DEGC          25.000                      : Mud sample temperature
RMF  .OHMM           0.120                      : Mud filtrate resistivity
RMFT .DEGC          25.000                      : Mud filtrate sample temperature
RMC  .OHMM           0.180                      : Mud cake resistivity
RMCT .DEGC          25.000                      : Mud cake sample temperature
RMBT .OHMM           0.110                      : Mud Resistivity at BHT
BHT  .DEGC          39.000                      : Bottom Hole Temperature
TMAX .DEGC          39.000                      : Max recorded temperature
#
~Other Information
------------------------------------------------------------------------------------------------
Clients intervals and scales logged
Acquisition software: Weatherford Well Manager, version 24.03.1279
Cable used: CAMESA  size 15/32", type 7J46RXZ with  cable head and 8k weakpoint set
Depth wheel calibration factor used 0.6096
Depth Control Procedure for Multiple runs in the well followed.
Run2A: CBHC, MTAK, MBE, MBE, SHA, MCG, MBN, MTC-Y, MSS, MTC-X, SKJ, MUG, MLE, MLG, MTI, MGS,HFS 
Run2B: CBHC, MTAK, SHA, MCG, SKJ, MMR, MDN, MPD, HFS
Run2C: CBHC, MTAK, SHA, MCG, MISD, SKJ, MISE, SKJ, MISD, MSS, MISD, HFS logged in combination.
 Rm, Rmf, Rmc measured on samples from Mud Engineer given on 04.09.2024
Caliper measurements and averages from TD to casing:
   Total hole volume =  35.32 cubic meters
   Annular volume = 20.52 cubic meters, based on future casing size of 5.5 inches
   Average hole diameter = 8.49 inches (215.77 mm), based on XY caliper
------------------------------------------------------------------------------------------------
#
#          DEPT           CGXT           SMTU           GRGC           CCLG           TR21           TR11           TR22           TR12           DT35            BIT
#
~ASCII Log Data
# ...
         1205.3    -999.250000    1924.999878    -999.250000    -999.250000     406.750885     495.004028     586.750854     681.750854      92.699554       8.500000
         1205.4    -999.250000    1924.999878    -999.250000    -999.250000     405.750885     496.750885     589.750854     679.750854      92.710289       8.500000
         1205.5    -999.250000    1927.499878    -999.250000    -999.250000     406.750885     499.750885     590.750854     679.750854      92.545502       8.500000
         1205.6    -999.250000    1928.749878    -999.250000    -999.250000     408.750885     500.750885     592.750854     681.855591      92.335541       8.500000
         1205.7    -999.250000    1927.499878    -999.250000    -999.250000     408.750885     500.750885     592.750854     682.750854      92.200577       8.500000
         1205.8    -999.250000    1929.999878    -999.250000    -999.250000     408.750885     500.943329     592.750854     682.750854      92.246895       8.500000
         1205.9    -999.250000    1933.749878    -999.250000    -999.250000     408.750885     500.750885     592.750854     685.750854      92.493774       8.500000
         1206.0    -999.250000    1932.499878    -999.250000    -999.250000     407.750885     499.750885     592.935242     688.750854      92.848259       8.500000
         1206.1    -999.250000    1933.749878    -999.250000    -999.250000     405.750885     498.750885     596.750854     689.750854      93.124283       8.500000
         1206.2    -999.250000    1934.999878    -999.250000    -999.250000     405.750885     499.765472     597.750854     690.750854      93.279961       8.500000
         1206.3    -999.250000    1932.499878    -999.250000    -999.250000     407.750885     501.964966     597.750854     691.750854      93.373375       8.500000
         1206.4    -999.250000    1931.249878    -999.250000    -999.250000     411.750885     503.750885     597.750854     691.750854      93.506546       8.500000
         1206.5    -999.250000    1931.249878    -999.250000    -999.250000     411.750885     505.750885     598.900146     691.750854      93.754692       8.500000
         1206.6    -999.250000    1929.999878    -999.250000    -999.250000     411.876434     506.750885     600.750854     692.750854      94.158081       8.500000
         1206.7    -999.250000    1931.249878    -999.250000    -999.250000     412.750885     506.750885     602.750854     693.750854      94.684174       8.500000
         1206.8    -999.250000    1931.249878    -999.250000    -999.250000     412.750885     506.750885     601.831299     695.750854      95.163139       8.500000
         1206.9    -999.250000    1931.249878    -999.250000    -999.250000     411.750885     507.750885     602.750854     696.774353      95.457138       8.500000
         1207.0    -999.250000    1932.499878    -999.250000    -999.250000     412.750885     506.877228     602.893372     697.831360      95.517227       8.500000
         1207.1    -999.250000    1936.249878    -999.250000    -999.250000     413.750885     507.857086     603.750854     698.750854      95.479729       8.500000
         1207.2    -999.250000    1934.999878    -999.250000    -999.250000     413.750885     507.935852     604.750854     699.942322      95.371422       8.500000
         1207.3    -999.250000    1933.749878    -999.250000    -999.250000     412.750885     509.750885     605.750854     699.750854      95.332878       8.500000
         1207.4    -999.250000    1932.499878    -999.250000    -999.250000     413.750885     509.750885     606.750854     701.750854      95.388832       8.500000
         1207.5    -999.250000    1929.999878    -999.250000    -999.250000     414.750885     509.036194     606.814331     702.750854      95.584183       8.500000
         1207.6    -999.250000    1931.249878    -999.250000    -999.250000     414.750885     509.750885     606.750854     702.750854      95.811028       8.500000
         1207.7    -999.250000    1933.749878    -999.250000    -999.250000     414.750885     510.750885     606.844727     700.822754      96.034821       8.500000
         1207.8    -999.250000    1929.999878    -999.250000    -999.250000     415.750885     511.750885     605.814026     700.750854      96.264748       8.500000
         1207.9    -999.250000    1928.749878    -999.250000    -999.250000     416.750885     511.750885     605.829285     695.750854      96.469955       8.500000
         1208.0    -999.250000    1928.749878    -999.250000    -999.250000     416.750885     509.837250     601.927856     694.979980      96.601860       8.500000
         1208.1    -999.250000    1928.749878    -999.250000    -999.250000     413.750885     510.750885     600.750854     696.750854      96.544136       8.500000
         1208.2    -999.250000    1928.749878    -999.250000    -999.250000     414.750885     504.750885     601.750854     697.750854      96.169319       8.500000
         1208.3    -999.250000    1927.499878    -999.250000    -999.250000     409.750885     503.750885     602.750854     697.762817      95.386681       8.500000
         1208.4    -999.250000    1929.999878    -999.250000    -999.250000     406.750885     504.750885     602.750854     698.750854      94.277092       8.500000
         1208.5    -999.250000    1932.499878    -999.250000    -999.250000     408.750885     504.809204     602.750854     697.857056      93.152397       8.500000
         1208.6    -999.250000    1931.249878    -999.250000    -999.250000     408.750885     504.750885     601.805603     697.750854      92.327278       8.500000
         1208.7    -999.250000    1929.999878    -999.250000    -999.250000     408.750885     504.907501     601.750854     696.807251      92.118813       8.500000
         1208.8    -999.250000    1932.499878    -999.250000    -999.250000     406.750885     504.750885     600.750854     696.765381      92.557739       8.500000
         1208.9    -999.250000    1932.499878    -999.250000    -999.250000     406.750885     503.750885     600.750854     696.750854      93.483253       8.500000
         1209.0    -999.250000    1931.249878    -999.250000    -999.250000     407.750885     500.817413     600.750854     696.750854      94.474106       8.500000
         1209.1    -999.250000    1931.249878    -999.250000    -999.250000     410.750885     502.750885     597.750854     695.750854      95.258415       8.500000
         1209.2    -999.250000    1931.249878    -999.250000    -999.250000     415.750885     502.982666     597.789490     695.750854      95.689781       8.500000
         1209.3    -999.250000    1929.999878    -999.250000    -999.250000     416.750885     507.750885     598.928650     691.750854      95.807899       8.500000
         1209.4    -999.250000    1928.749878    -999.250000    -999.250000     415.750885     510.830170     601.750854     691.750854      95.733261       8.500000
         1209.5    -999.250000    1928.749878    -999.250000    -999.250000     415.750885     511.750885     605.750854     691.801270      95.625595       8.500000
         1209.6    -999.250000    1928.749878    -999.250000    -999.250000     415.750885     509.750885     604.933167     697.750854      95.556961       8.500000
         1209.7    -999.250000    1949.999878    -999.250000    -999.250000     412.841431     508.781281     605.750854     700.750854      95.521454       8.500000
         1209.8    -999.250000    1941.249878    -999.250000    -999.250000     412.750885     507.929077     604.750854     701.750854      95.428314       8.500000
         1209.9    -999.250000    1932.499878    -999.250000    -999.250000     412.750885     508.750885     605.750854     700.070435      95.334015       8.500000
         1210.0    -999.250000    1931.249878    -999.250000    -999.250000     413.750885     507.750885     603.937683     696.279907      95.199097       8.500000
         1210.1    -999.250000    1932.499878    -999.250000    -999.250000     412.750885     509.750885     600.750854     695.750854      95.137123       8.500000
