~Version Information
VERS .            2.00                          : CWLS Log ASCII Standard - Version 2.00
WRAP .            NO                            : One line per depth step
#
~Well Information
#MNEM.UNIT        DATA                          : DESCRIPTION
#----.----        ----                          : -----------
STRT .M            240.0                        : Start
STOP .M           1229.6                        : Stop
STEP .M              0.1                        : Step increment
NULL .            -999.250                      : Null value
COMP .            S.N.G.N. ROMGAZ S.A.          : Company
WELL .            209 NADES                     : Well
FLD  .            NADES                         : Field
PROV .            MURES                         : Province
CTRY .            Romania                       : State / Country
LOC  .            X = 529925.187 m              : Location
LOC2 .            Y = 477271.675 m              : Location 2
SRVC .            Weatherford                   : Service company
UWI  .                                          : Unique Well ID
LATI .            46 16'07.03" N                : Latitude
LONG .            24 42'12.69" E                : Longitude
UTME .                                          : Universal Transverse Mercator Easting
UTMN .                                          : Universal Transverse Mercator Northing
X    .                                          : X
Y    .                                          : Y
DATE .            04-Sep-2024                   : Logging Date
#
~Curve Information
#MNEM.UNIT        API CODES                     : CURVE DESCRIPTION
#----.----        ---------                     : -----------------
DEPT .M           00 001 00 00                  : Logged depth
CGXT .DEGC        30 660 01 00                  : MCG External Temperature
SMTU .LB          30 635 00 00                  : DST Uphole Tension
CCLG .----        30 150 00 00                  : Casing Collar Locator
DSLL .OHMM        11 220 09 00                  : Shallow Laterolog
DDLL .OHMM        11 220 10 00                  : Deep Laterolog
DGLL .OHMM        11 211 00 00                  : Groningen Laterolog
SPDL .MV          30 010 00 00                  : Spontaneous Potential
GRGM .GAPI        30 310 01 00                  : MGS Gamma Ray
MRRS .OHMM        15 252 00 00                  : MicroRes Resistance (S)
MATC .IN          15 280 01 00                  : MMR Caliper
BIT  .IN          70 282 00 00                  : Bit size
#
~Parameter Information
#MNEM.UNIT        VALUE                         : DESCRIPTION
#----.----        -----                         : -----------
RNID .                                          : Run ID
SON  .            24220368                      : Job Number
DREF .            KB                            : Depth reference
EREF .M            484.710                      : Elevation of depth reference
GL   .M            480.210                      : Ground elevation
KB   .M            484.710                      : Kelly Bushing
DF   .M            484.710                      : Drill Floor
DDRF .            KB                            : Drilling Depth Reference
DERF .M            484.710                      : Elevation of Drilling Depth Reference
RUN  .            2A+2B                         : Run number
TDD  .M           1225.000                      : TD (driller)
TDL  .M           1226.000                      : TD (logger)
BS   .IN             8.500                      : Bit size
TIMC .                                          : Time circulation ended
TIML .                                          : Time logger at bottom
UNIT .            13347                         : Equipment ID
BASE .            PLO                           : Equipment base location
ENG  .            MALEA CRISTIAN                : Recording engineer
WIT  .            VASILE FARCAS                 : Witnessed by
CSGT .            SURFACE                       : Casing type
CSGS .IN            16.000                      : Casing size
CSGW .LB/FT          0.000                      : Casing weight
CSGD .M            250.000                      : Casing bottom (driller)
CSGL .M            249.500                      : Casing bottom (logger)
CSUP .M              0.000                      : Casing Stick Up GL
MUD  .            INHIBITIV                     : Mud type
MUDS .            FLOWLINE                      : Mud sample source
MUDD .G/C3           1.100                      : Mud density
MUDV .SEC/L         50.000                      : Mud viscosity
PH   .               9.500                      : Mud pH
FL   .ML/30MIN       4.100                      : Mud fluid loss rate
RM   .OHMM           0.150                      : Mud resistivity
RMT  .DEGC          25.000                      : Mud sample temperature
RMF  .OHMM           0.120                      : Mud filtrate resistivity
RMFT .DEGC          25.000                      : Mud filtrate sample temperature
RMC  .OHMM           0.180                      : Mud cake resistivity
RMCT .DEGC          25.000                      : Mud cake sample temperature
RMBT .OHMM           0.110                      : Mud Resistivity at BHT
BHT  .DEGC          39.000                      : Bottom Hole Temperature
TMAX .DEGC          39.000                      : Max recorded temperature
#
~Other Information
------------------------------------------------------------------------------------------------
Clients intervals and scales logged
Acquisition software: Weatherford Well Manager, version 24.03.1279
Cable used: CAMESA  size 15/32", type 7J46RXZ with  cable head and 8k weakpoint set
Depth wheel calibration factor used 0.6096
Depth Control Procedure for Multiple runs in the well followed.
Run2A: CBHC, MTAK, MBE, MBE, SHA, MCG, MBN, MTC-Y, MSS, MTC-X, SKJ, MUG, MLE, MLG, MTI, MGS,HFS 
Run2B: CBHC, MTAK, SHA, MCG, SKJ, MMR, MDN, MPD, HFS
Run2C: CBHC, MTAK, SHA, MCG, MISD, SKJ, MISE, SKJ, MISD, MSS, MISD, HFS logged in combination.
 Rm, Rmf, Rmc measured on samples from Mud Engineer given on 04.09.2024
Caliper measurements and averages from TD to casing:
   Total hole volume =  35.32 cubic meters
   Annular volume = 20.52 cubic meters, based on future casing size of 5.5 inches
   Average hole diameter = 8.49 inches (215.77 mm), based on XY caliper
------------------------------------------------------------------------------------------------
#
#          DEPT           CGXT           SMTU           CCLG           DSLL           DDLL           DGLL           SPDL           GRGM           MRRS           MATC            BIT
#
~ASCII Log Data
# ...
         1023.0      37.752890    1787.499878       0.237283       3.834212       3.650249       3.678418    -114.041222      88.991873       2.195739       8.482686       8.500000
         1023.1      37.754014    1787.799878      -6.678103       3.781620       3.600061       3.627228    -113.993802      85.467961       2.105133       8.482554       8.500000
         1023.2      37.830652    1789.049878       0.552454       3.739114       3.556045       3.581551    -113.956153      83.687736       2.131935       8.483171       8.500000
         1023.3      37.747229    1789.399878      -0.160000       3.706184       3.520836       3.544269    -113.968057      85.041492       2.259954       8.486966       8.500000
         1023.4      37.642701    1788.099878      -4.076316       3.681265       3.490828       3.513315    -113.928640      88.231803       2.425253       8.495383       8.500000
         1023.5      37.718350    1789.999878       5.203158       3.659469       3.459069       3.481560    -113.806501      95.626109       2.561395       8.506614       8.500000
         1023.6      37.647453    1790.299878       0.354968       3.629741       3.419439       3.441470    -113.726624     105.076762       2.696562       8.519181       8.500000
         1023.7      37.658939    1791.249878      -4.349617       3.580257       3.364798       3.385896    -113.714938     112.892347       2.792077       8.528464       8.500000
         1023.8      37.768783    1790.949878       6.396874       3.514500       3.298037       3.318558    -113.652523     115.901714       2.798816       8.533726       8.500000
         1023.9      37.695990    1790.299878       6.422512       3.442474       3.231578       3.251765    -113.560561     116.622637       2.712045       8.536304       8.500000
         1024.0      37.692762    1791.849878      -7.473421       3.365753       3.171890       3.191762    -113.508753     114.958631       2.597503       8.537533       8.500000
         1024.1      37.792167    1793.749878      -1.279573       3.288628       3.122126       3.142641    -113.436635     111.376646       2.487205       8.535450       8.500000
         1024.2      37.858072    1793.449878       5.017362       3.222274       3.087586       3.109796    -113.362068     107.098799       2.414074       8.523811       8.500000
         1024.3      37.681538    1792.499878      -2.889111       3.171419       3.069616       3.092914    -113.385161     105.053536       2.365401       8.507615       8.500000
         1024.4      37.756180    1792.199878       1.869217       3.136444       3.069526       3.092930    -113.485937     105.260509       2.351351       8.493500       8.500000
         1024.5      37.816712    1791.249878      -1.818292       3.126464       3.097026       3.120411    -113.568437     106.351279       2.268996       8.485819       8.500000
         1024.6      37.720590    1791.549878       1.250762       3.156387       3.163213       3.186119    -113.614870     108.036243       2.173394       8.482652       8.500000
         1024.7      37.792660    1791.899878       7.294101       3.230622       3.266796       3.289071    -113.635807     108.588304       2.037438       8.480889       8.500000
         1024.8      37.743218    1789.399878      -4.257128       3.338020       3.389495       3.412414    -113.619358     106.031996       1.963609       8.480030       8.500000
         1024.9      37.883127    1787.199878      -4.730536       3.459616       3.505644       3.529839    -113.552431      99.025527       1.899878       8.478790       8.500000
         1025.0      37.896857    1785.949878       4.815135       3.571486       3.587672       3.611879    -113.525907      90.367538       1.894507       8.477738       8.500000
         1025.1      37.770520    1784.399878       2.553853       3.644055       3.602183       3.624556    -113.556294      83.692341       1.907962       8.479065       8.500000
         1025.2      37.743793    1782.499878      -4.024558       3.650292       3.531750       3.550727    -113.564175      82.008008       1.947949       8.486741       8.500000
         1025.3      37.799117    1782.499878       1.325084       3.588025       3.400564       3.415673    -113.567734      85.456392       1.981512       8.501820       8.500000
         1025.4      37.743863    1783.099878      -6.495526       3.485557       3.249507       3.261398    -113.588663      92.069862       2.033545       8.515809       8.500000
         1025.5      37.726150    1785.599878     -15.261031       3.374306       3.106421       3.115811    -113.589645     100.099250       2.116908       8.523092       8.500000
         1025.6      37.844865    1788.099878       1.724716       3.274991       2.991893       2.999960    -113.585912     106.912184       2.209789       8.522093       8.500000
         1025.7      37.653652    1790.299878      12.626558       3.206122       2.920626       2.929315    -113.558309     110.506344       2.280429       8.522015       8.500000
         1025.8      37.482888    1791.549878       8.890137       3.175497       2.888344       2.899059    -113.478959     110.331173       2.278251       8.519326       8.500000
         1025.9      37.683212    1792.799878       3.308701       3.169804       2.876506       2.889941    -113.372457     108.583367       2.268775       8.508711       8.500000
         1026.0      37.797719    1793.449878      -0.750390       3.169199       2.869319       2.886154    -113.239721     107.103191       2.264343       8.498474       8.500000
         1026.1      37.882699    1792.499878       1.949029       3.161790       2.859711       2.879897    -113.125928     107.354721       2.291716       8.498403       8.500000
         1026.2      37.840353    1792.199878       1.188958       3.143131       2.844833       2.867204    -113.079933     108.716666       2.326499       8.508870       8.500000
         1026.3      37.862348    1790.949878      -5.173161       3.113228       2.824840       2.848010    -113.070786     111.324371       2.383481       8.512832       8.500000
         1026.4      37.922796    1789.999878      -6.931890       3.077687       2.803398       2.826384    -113.086052     113.422078       2.435724       8.512936       8.500000
         1026.5      37.872211    1790.299878      -3.084043       3.045072       2.784797       2.807199    -113.100583     116.132669       2.487057       8.516251       8.500000
         1026.6      37.823228    1791.549878       4.844785       3.022961       2.776649       2.798619    -113.057175     116.919969       2.530540       8.530491       8.500000
         1026.7      37.795789    1792.499878       3.082315       3.023714       2.796183       2.818030    -112.978575     117.149492       2.588823       8.540908       8.500000
         1026.8      37.780182    1792.499878      -1.811832       3.065499       2.863188       2.885044    -112.924353     116.715062       2.657999       8.543359       8.500000
         1026.9      37.889605    1791.899878      -0.490667       3.157842       2.984898       3.006742    -112.964988     118.595279       2.732811       8.536756       8.500000
         1027.0      37.791061    1790.299878      -3.066267       3.296928       3.154763       3.176612    -113.032135     118.623026       2.819075       8.527249       8.500000
         1027.1      37.786895    1791.549878      -1.437133       3.474080       3.356289       3.378142    -113.064315     116.658984       2.876144       8.519194       8.500000
         1027.2      37.790345    1792.799878      -4.620014       3.668652       3.557397       3.579089    -113.107784     111.728883       2.782762       8.518671       8.500000
         1027.3      37.789565    1794.349878       0.756000       3.842103       3.716269       3.737725    -113.130535     106.874591       2.584619       8.533915       8.500000
         1027.4      37.774840    1796.549878      10.666454       3.954573       3.800531       3.821970    -113.026176     101.862826       2.381753       8.550172       8.500000
