~Version Information
VERS .            2.00                          : CWLS Log ASCII Standard - Version 2.00
WRAP .            NO                            : One line per depth step
#
~Well Information
#MNEM.UNIT        DATA                          : DESCRIPTION
#----.----        ----                          : -----------
STRT .M            240.0                        : Start
STOP .M           1229.6                        : Stop
STEP .M              0.1                        : Step increment
NULL .            -999.250                      : Null value
COMP .            S.N.G.N. ROMGAZ S.A.          : Company
WELL .            209 NADES                     : Well
FLD  .            NADES                         : Field
PROV .            MURES                         : Province
CTRY .            Romania                       : State / Country
LOC  .            X = 529925.187 m              : Location
LOC2 .            Y = 477271.675 m              : Location 2
SRVC .            Weatherford                   : Service company
UWI  .                                          : Unique Well ID
LATI .            46 16'07.03" N                : Latitude
LONG .            24 42'12.69" E                : Longitude
UTME .                                          : Universal Transverse Mercator Easting
UTMN .                                          : Universal Transverse Mercator Northing
X    .                                          : X
Y    .                                          : Y
DATE .            04-Sep-2024                   : Logging Date
#
~Curve Information
#MNEM.UNIT        API CODES                     : CURVE DESCRIPTION
#----.----        ---------                     : -----------------
DEPT .M           00 001 00 00                  : Logged depth
CGXT .DEGC        30 660 01 00                  : MCG External Temperature
SMTU .LB          30 635 00 00                  : DST Uphole Tension
CCLG .----        30 150 00 00                  : Casing Collar Locator
DSLL .OHMM        11 220 09 00                  : Shallow Laterolog
DDLL .OHMM        11 220 10 00                  : Deep Laterolog
DGLL .OHMM        11 211 00 00                  : Groningen Laterolog
SPDL .MV          30 010 00 00                  : Spontaneous Potential
GRGM .GAPI        30 310 01 00                  : MGS Gamma Ray
MRRS .OHMM        15 252 00 00                  : MicroRes Resistance (S)
MATC .IN          15 280 01 00                  : MMR Caliper
BIT  .IN          70 282 00 00                  : Bit size
#
~Parameter Information
#MNEM.UNIT        VALUE                         : DESCRIPTION
#----.----        -----                         : -----------
RNID .                                          : Run ID
SON  .            24220368                      : Job Number
DREF .            KB                            : Depth reference
EREF .M            484.710                      : Elevation of depth reference
GL   .M            480.210                      : Ground elevation
KB   .M            484.710                      : Kelly Bushing
DF   .M            484.710                      : Drill Floor
DDRF .            KB                            : Drilling Depth Reference
DERF .M            484.710                      : Elevation of Drilling Depth Reference
RUN  .            2A+2B                         : Run number
TDD  .M           1225.000                      : TD (driller)
TDL  .M           1226.000                      : TD (logger)
BS   .IN             8.500                      : Bit size
TIMC .                                          : Time circulation ended
TIML .                                          : Time logger at bottom
UNIT .            13347                         : Equipment ID
BASE .            PLO                           : Equipment base location
ENG  .            MALEA CRISTIAN                : Recording engineer
WIT  .            VASILE FARCAS                 : Witnessed by
CSGT .            SURFACE                       : Casing type
CSGS .IN            16.000                      : Casing size
CSGW .LB/FT          0.000                      : Casing weight
CSGD .M            250.000                      : Casing bottom (driller)
CSGL .M            249.500                      : Casing bottom (logger)
CSUP .M              0.000                      : Casing Stick Up GL
MUD  .            INHIBITIV                     : Mud type
MUDS .            FLOWLINE                      : Mud sample source
MUDD .G/C3           1.100                      : Mud density
MUDV .SEC/L         50.000                      : Mud viscosity
PH   .               9.500                      : Mud pH
FL   .ML/30MIN       4.100                      : Mud fluid loss rate
RM   .OHMM           0.150                      : Mud resistivity
RMT  .DEGC          25.000                      : Mud sample temperature
RMF  .OHMM           0.120                      : Mud filtrate resistivity
RMFT .DEGC          25.000                      : Mud filtrate sample temperature
RMC  .OHMM           0.180                      : Mud cake resistivity
RMCT .DEGC          25.000                      : Mud cake sample temperature
RMBT .OHMM           0.110                      : Mud Resistivity at BHT
BHT  .DEGC          39.000                      : Bottom Hole Temperature
TMAX .DEGC          39.000                      : Max recorded temperature
#
~Other Information
------------------------------------------------------------------------------------------------
Clients intervals and scales logged
Acquisition software: Weatherford Well Manager, version 24.03.1279
Cable used: CAMESA  size 15/32", type 7J46RXZ with  cable head and 8k weakpoint set
Depth wheel calibration factor used 0.6096
Depth Control Procedure for Multiple runs in the well followed.
Run2A: CBHC, MTAK, MBE, MBE, SHA, MCG, MBN, MTC-Y, MSS, MTC-X, SKJ, MUG, MLE, MLG, MTI, MGS,HFS 
Run2B: CBHC, MTAK, SHA, MCG, SKJ, MMR, MDN, MPD, HFS
Run2C: CBHC, MTAK, SHA, MCG, MISD, SKJ, MISE, SKJ, MISD, MSS, MISD, HFS logged in combination.
 Rm, Rmf, Rmc measured on samples from Mud Engineer given on 04.09.2024
Caliper measurements and averages from TD to casing:
   Total hole volume =  35.32 cubic meters
   Annular volume = 20.52 cubic meters, based on future casing size of 5.5 inches
   Average hole diameter = 8.49 inches (215.77 mm), based on XY caliper
------------------------------------------------------------------------------------------------
#
#          DEPT           CGXT           SMTU           CCLG           DSLL           DDLL           DGLL           SPDL           GRGM           MRRS           MATC            BIT
#
~ASCII Log Data
# ...
          501.0      32.459093    1265.299878      -2.631358       5.264123       5.463560       5.370604    -112.854365     122.065582       2.315628       8.580801       8.500000
          501.1      32.454304    1266.249878       3.325469       5.283256       5.474635       5.381734    -112.830989     122.555936       2.319872       8.557635       8.500000
          501.2      32.404929    1266.549878       1.982695       5.293353       5.474918       5.381877    -112.685674     121.154605       2.332905       8.538001       8.500000
          501.3      32.418844    1267.799878      -3.481436       5.291415       5.461215       5.367299    -112.572533     120.571070       2.348138       8.528996       8.500000
          501.4      32.435407    1269.049878      -2.091940       5.278525       5.439640       5.343899    -112.586813     120.425016       2.354648       8.527481       8.500000
          501.5      32.433881    1269.999878      -0.141185       5.258422       5.416019       5.318492    -112.540418     122.348341       2.349777       8.527350       8.500000
          501.6      32.428905    1270.299878       1.001663       5.236795       5.393054       5.294213    -112.461003     123.964952       2.329747       8.528687       8.500000
          501.7      32.453047    1271.849878      -0.502340       5.218307       5.375190       5.275427    -112.422574     125.524959       2.315968       8.530105       8.500000
          501.8      32.405475    1274.049878      -1.196556       5.206191       5.364384       5.264838    -112.274599     125.535567       2.302434       8.532057       8.500000
          501.9      32.452233    1274.999878       5.176458       5.200885       5.357618       5.259714    -112.150638     124.831730       2.294376       8.534180       8.500000
          502.0      32.433471    1275.299878       2.536301       5.199628       5.352914       5.257434    -112.148312     122.932766       2.270890       8.535685       8.500000
          502.1      32.446282    1275.949878      -1.675434       5.199423       5.349756       5.257673    -112.156359     120.452647       2.244610       8.536649       8.500000
          502.2      32.519299    1275.299878      -2.677184       5.198841       5.349140       5.261291    -112.292285     117.854532       2.210687       8.538981       8.500000
          502.3      32.485209    1276.249878      -2.268950       5.198610       5.353339       5.269370    -112.543881     115.809714       2.188300       8.544268       8.500000
          502.4      32.463402    1276.549878       1.617960       5.199204       5.361327       5.280570    -112.630157     114.897890       2.179362       8.551631       8.500000
          502.5      32.415616    1277.799878      -0.348980       5.199265       5.369722       5.291444    -112.586997     113.210614       2.193764       8.559384       8.500000
          502.6      32.428675    1278.749878      -0.412580       5.197318       5.375899       5.298726    -112.571456     112.549780       2.220446       8.566033       8.500000
          502.7      32.522507    1279.049878       0.022858       5.191359       5.375062       5.297935    -112.509848     112.369972       2.245927       8.568229       8.500000
          502.8      32.448114    1279.699878      -2.382727       5.178476       5.363134       5.285947    -112.384180     114.743828       2.264106       8.560797       8.500000
          502.9      32.422157    1278.749878      -1.747328       5.159049       5.343291       5.266296    -112.293011     116.730901       2.271828       8.544073       8.500000
          503.0      32.409008    1278.749878      -1.137859       5.136776       5.320737       5.244961    -112.196350     119.063926       2.266543       8.528491       8.500000
          503.1      32.402115    1279.049878       0.420574       5.115747       5.299606       5.226240    -112.101200     120.110559       2.257513       8.519764       8.500000
          503.2      32.407714    1280.599878       0.899467       5.101646       5.286447       5.215241    -112.055083     122.130140       2.251048       8.518535       8.500000
          503.3      32.425668    1282.799878       0.088127       5.099660       5.286001       5.216110    -112.032770     122.416692       2.251883       8.518138       8.500000
          503.4      32.402830    1284.049878      -0.508326       5.108497       5.297238       5.228268    -111.958794     123.761816       2.240782       8.518336       8.500000
          503.5      32.430973    1284.999878       2.393265       5.123301       5.317154       5.248102    -111.881953     125.503619       2.241750       8.518525       8.500000
          503.6      32.457430    1284.699878       3.621503       5.142413       5.341781       5.270563    -111.780242     128.155035       2.250572       8.518701       8.500000
          503.7      32.434347    1283.449878      -0.694916       5.166600       5.368815       5.293756    -111.603204     129.066365       2.279390       8.518742       8.500000
          503.8      32.448148    1282.199878      -2.958398       5.194832       5.398873       5.319433    -111.402432     128.589548       2.300010       8.518744       8.500000
          503.9      32.508069    1280.949878      -0.279696       5.224187       5.430896       5.346704    -111.214608     125.695619       2.325292       8.518779       8.500000
          504.0      32.523798    1279.699878       1.993061       5.253196       5.462398       5.373172    -111.074634     121.535616       2.341076       8.518825       8.500000
          504.1      32.417216    1278.449878      -0.239561       5.278889       5.489490       5.396792    -110.979644     116.444646       2.352310       8.518662       8.500000
          504.2      32.453713    1276.599878      -1.476420       5.293430       5.504207       5.411276    -110.857658     112.732043       2.354695       8.517782       8.500000
          504.3      32.482122    1273.749878       2.562034       5.291679       5.501964       5.411119    -110.685995     110.845019       2.345784       8.516169       8.500000
          504.4      32.458318    1273.749878      -0.204632       5.278539       5.487385       5.399421    -110.431992     110.563094       2.322562       8.515424       8.500000
          504.5      32.457290    1274.049878      -0.213333       5.262437       5.469401       5.383953    -110.195012     112.219358       2.262744       8.516452       8.500000
          504.6      32.550700    1275.299878       1.920000       5.252197       5.459741       5.375163    -110.020541     115.331837       2.173257       8.520493       8.500000
          504.7      32.441753    1276.849878      -2.357222       5.257500       5.469499       5.383707    -109.833094     118.414420       2.078478       8.524076       8.500000
          504.8      32.503606    1279.349878      -1.449166       5.279748       5.498668       5.410269    -109.654916     120.454126       2.027382       8.525355       8.500000
          504.9      32.454296    1281.249878      -1.099347       5.310693       5.534535       5.443548    -109.486401     121.256830       2.035829       8.522879       8.500000
          505.0      32.411685    1280.949878      -1.409182       5.340936       5.561940       5.469675    -109.273447     120.732289       2.095957       8.519501       8.500000
          505.1      32.493539    1280.599878       3.434902       5.359734       5.567978       5.476004    -109.034959     119.329474       2.188366       8.515867       8.500000
          505.2      32.456937    1282.499878       3.629201       5.356252       5.547144       5.456621    -108.912890     118.507872       2.279572       8.513540       8.500000
          505.3      32.464325    1282.199878       0.339341       5.332450       5.507326       5.418516    -108.872453     119.089689       2.328890       8.511682       8.500000
          505.4      32.482109    1281.549878       1.006688       5.300346       5.463134       5.374981    -108.869019     120.371999       2.330786       8.511023       8.500000
