~Version Information
VERS .            2.00                          : CWLS Log ASCII Standard - Version 2.00
WRAP .            NO                            : One line per depth step
#
~Well Information
#MNEM.UNIT        DATA                          : DESCRIPTION
#----.----        ----                          : -----------
STRT .M            240.0                        : Start
STOP .M           1228.5                        : Stop
STEP .M              0.1                        : Step increment
NULL .            -999.250                      : Null value
COMP .            S.N.G.N. ROMGAZ S.A.          : Company
WELL .            209 NADES                     : Well
FLD  .            NADES                         : Field
PROV .            MURES                         : Province
CTRY .            Romania                       : State / Country
LOC  .            X = 529925.187 m              : Location
LOC2 .            Y = 477271.675 m              : Location 2
SRVC .            Weatherford                   : Service company
UWI  .                                          : Unique Well ID
LATI .            46 16'07.03" N                : Latitude
LONG .            24 42'12.69" E                : Longitude
UTME .                                          : Universal Transverse Mercator Easting
UTMN .                                          : Universal Transverse Mercator Northing
X    .                                          : X
Y    .                                          : Y
DATE .            04-Sep-2024                   : Logging Date
#
~Curve Information
#MNEM.UNIT        API CODES                     : CURVE DESCRIPTION
#----.----        ---------                     : -----------------
DEPT .M           00 001 00 00                  : Logged depth
CGXT .DEGC        30 660 01 00                  : MCG External Temperature
SMTU .LB          30 635 00 00                  : DST Uphole Tension
GRGC .GAPI        30 310 01 00                  : MCG Gamma Ray
CCLG .----        30 150 00 00                  : Casing Collar Locator
TR21 .US          60 520 30 00                  : 3' Transit Time
TR11 .US          60 520 04 00                  : 4' Transit Time
TR22 .US          60 520 50 00                  : 5' Transit Time
TR12 .US          60 520 60 00                  : 6' Transit Time
DT35 .US/F        60 520 32 00                  : 3-5' Compensated Sonic
BIT  .IN          70 282 00 00                  : Bit size
#
~Parameter Information
#MNEM.UNIT        VALUE                         : DESCRIPTION
#----.----        -----                         : -----------
RNID .                                          : Run ID
SON  .            24220368                      : Job Number
DREF .            KB                            : Depth reference
EREF .M            484.710                      : Elevation of depth reference
GL   .M            480.210                      : Ground elevation
KB   .M            484.710                      : Kelly Bushing
DF   .M            484.710                      : Drill Floor
DDRF .            KB                            : Drilling Depth Reference
DERF .M            484.710                      : Elevation of Drilling Depth Reference
RUN  .            2A+2B                         : Run number
TDD  .M           1225.000                      : TD (driller)
TDL  .M           1226.000                      : TD (logger)
BS   .IN             8.500                      : Bit size
TIMC .                                          : Time circulation ended
TIML .                                          : Time logger at bottom
UNIT .            13347                         : Equipment ID
BASE .            PLO                           : Equipment base location
ENG  .            MALEA CRISTIAN                : Recording engineer
WIT  .            VASILE FARCAS                 : Witnessed by
CSGT .            SURFACE                       : Casing type
CSGS .IN            16.000                      : Casing size
CSGW .LB/FT          0.000                      : Casing weight
CSGD .M            250.000                      : Casing bottom (driller)
CSGL .M            249.500                      : Casing bottom (logger)
CSUP .M              0.000                      : Casing Stick Up GL
MUD  .            INHIBITIV                     : Mud type
MUDS .            FLOWLINE                      : Mud sample source
MUDD .G/C3           1.100                      : Mud density
MUDV .SEC/L         50.000                      : Mud viscosity
PH   .               9.500                      : Mud pH
FL   .ML/30MIN       4.100                      : Mud fluid loss rate
RM   .OHMM           0.150                      : Mud resistivity
RMT  .DEGC          25.000                      : Mud sample temperature
RMF  .OHMM           0.120                      : Mud filtrate resistivity
RMFT .DEGC          25.000                      : Mud filtrate sample temperature
RMC  .OHMM           0.180                      : Mud cake resistivity
RMCT .DEGC          25.000                      : Mud cake sample temperature
RMBT .OHMM           0.110                      : Mud Resistivity at BHT
BHT  .DEGC          39.000                      : Bottom Hole Temperature
TMAX .DEGC          39.000                      : Max recorded temperature
#
~Other Information
------------------------------------------------------------------------------------------------
Clients intervals and scales logged
Acquisition software: Weatherford Well Manager, version 24.03.1279
Cable used: CAMESA  size 15/32", type 7J46RXZ with  cable head and 8k weakpoint set
Depth wheel calibration factor used 0.6096
Depth Control Procedure for Multiple runs in the well followed.
Run2A: CBHC, MTAK, MBE, MBE, SHA, MCG, MBN, MTC-Y, MSS, MTC-X, SKJ, MUG, MLE, MLG, MTI, MGS,HFS 
Run2B: CBHC, MTAK, SHA, MCG, SKJ, MMR, MDN, MPD, HFS
Run2C: CBHC, MTAK, SHA, MCG, MISD, SKJ, MISE, SKJ, MISD, MSS, MISD, HFS logged in combination.
 Rm, Rmf, Rmc measured on samples from Mud Engineer given on 04.09.2024
Caliper measurements and averages from TD to casing:
   Total hole volume =  35.32 cubic meters
   Annular volume = 20.52 cubic meters, based on future casing size of 5.5 inches
   Average hole diameter = 8.49 inches (215.77 mm), based on XY caliper
------------------------------------------------------------------------------------------------
#
#          DEPT           CGXT           SMTU           GRGC           CCLG           TR21           TR11           TR22           TR12           DT35            BIT
#
~ASCII Log Data
# ...
         1014.2      37.622128    1771.249878     109.039566      -3.214286     421.750885     518.827393     618.750854     717.956543     100.776993       8.500000
         1014.3      37.664272    1769.999878     107.148193      -5.422078     419.750885     515.964600     620.928467     716.960510      99.881271       8.500000
         1014.4      37.698311    1768.749878     103.723022      -9.915327     419.750885     518.750854     619.750854     718.750854      98.656967       8.500000
         1014.5      37.659115    1768.749878      98.374947      -1.512987     420.750885     519.812866     619.750854     709.072998      97.496124       8.500000
         1014.6      37.539181    1767.499878      92.576942      11.197368     423.750885     521.750854     611.261292     694.932678      96.768135       8.500000
         1014.7      37.342827    1766.249878      87.468231       4.876623     420.750885     520.750854     599.175537     681.100891      96.546234       8.500000
         1014.8      37.551430    1766.249878      85.302895      -6.638158     416.750885     508.220398     583.148071     671.624390      96.308586       8.500000
         1014.9      37.625824    1766.249878      86.613632      -5.966494     402.242004     492.043671     573.750854     666.426575      95.337234       8.500000
         1015.0      37.689190    1764.999878      89.208305       3.151316     391.750885     475.479797     564.332642     662.324158      92.818863       8.500000
         1015.1      37.532684    1763.749878      90.885117       7.500000     378.289093     465.764893     558.686096     664.033997      88.686073       8.500000
         1015.2      37.513519    1763.749878      89.323784      -2.639354     371.750885     460.947021     556.802368     662.792419      83.434059       8.500000
         1015.3      37.550358    1763.749878      84.612755      -5.612369     366.805145     458.987579     561.088745     658.789307      78.580147       8.500000
         1015.4      37.649818    1764.999878      78.014458       6.823565     364.750885     460.780029     560.596008     658.275513      75.424416       8.500000
         1015.5      37.536648    1766.249878      71.724602       7.414474     362.750885     465.167999     563.032471     660.178345      75.106369       8.500000
         1015.6      37.521927    1766.249878      68.237778      -1.881579     364.945007     465.826538     565.750854     662.574707      77.487549       8.500000
         1015.7      37.696609    1767.499878      66.778786      -0.244703     372.022827     464.367310     567.750854     665.704590      81.933174       8.500000
         1015.8      37.786354    1768.749878      70.005806       2.993079     387.156403     464.773895     568.750854     667.588806      86.968941       8.500000
         1015.9      37.642395    1768.749878      75.325027      -1.525034     401.750885     474.869720     568.112061     670.920593      91.654999       8.500000
         1016.0      37.758247    1768.749878      83.947189      -0.025974     415.750885     491.750885     577.237366     670.832581      95.219521       8.500000
         1016.1      37.733448    1768.749878      91.050461      -6.085526     423.750885     506.356659     593.750854     672.126282      97.627899       8.500000
         1016.2      37.733627    1771.249878      98.698219      -2.409091     424.750885     520.750854     610.015747     679.965759      99.023186       8.500000
         1016.3      37.720901    1772.499878     103.749702      -2.071258     426.842163     527.920837     623.083679     696.029480      99.855499       8.500000
         1016.4      37.595097    1769.999878     107.989769      -6.919856     433.750885     530.750854     629.833435     709.614685     100.481277       8.500000
         1016.5      37.668026    1769.999878     109.664635      10.012047     435.750885     529.750854     629.750854     720.289307     100.995995       8.500000
         1016.6      37.548122    1769.999878     112.316628       9.164474     433.750885     535.750854     627.750854     718.883057     101.563133       8.500000
         1016.7      37.463509    1771.249878     115.080704      -2.440619     435.750885     532.982117     624.806152     715.377747     102.053024       8.500000
         1016.8      37.804832    1772.499878     116.996803      -6.743422     435.828339     529.957825     620.750854     717.670654     102.479301       8.500000
         1016.9      37.723911    1772.499878     116.961075      -7.280346     433.750885     524.861084     620.963989     722.750854     102.330643       8.500000
         1017.0      37.707878    1772.499878     116.170494      -2.467105     427.750885     521.750854     623.750854     724.164612     101.631607       8.500000
         1017.1      37.644215    1773.749878     114.372368       6.920000     423.843811     522.784546     625.862671     725.750854     100.309540       8.500000
         1017.2      37.567108    1772.499878     111.304832       1.728333     423.892365     524.011353     627.963989     727.771973      98.830940       8.500000
         1017.3      37.554619    1773.749878     106.639870      -7.771404     425.750885     528.094543     628.868408     729.750854      97.465446       8.500000
         1017.4      37.718010    1772.499878     102.869270       6.393420     424.750885     528.820557     631.969727     730.750854      96.795006       8.500000
         1017.5      37.558674    1771.249878      99.193130       2.434211     426.750885     529.750854     632.750854     725.213562      97.038780       8.500000
         1017.6      37.471317    1773.749878      97.892365      -6.417806     422.750885     527.877563     629.750854     718.826721      98.079369       8.500000
         1017.7      37.695210    1774.999878      98.976677       4.944293     421.750885     528.750854     617.750854     713.750854      99.428970       8.500000
         1017.8      37.469917    1776.249878     105.296494       6.651572     425.750885     518.750854     612.750854     714.063904     100.458725       8.500000
         1017.9      37.546364    1776.249878     112.986183      -0.090909     424.750885     509.203857     607.750854     712.910400     100.661346       8.500000
         1018.0      37.718754    1776.249878     118.826141      -1.344156     415.750885     507.750885     606.750854     713.750854      99.843094       8.500000
         1018.1      37.690979    1777.499878     120.707085      -7.656015     408.750885     510.939087     610.972778     709.083557      98.293564       8.500000
         1018.2      37.678936    1777.499878     118.138687      -4.787680     408.822388     511.750885     614.750854     708.295471      96.635818       8.500000
         1018.3      37.661678    1777.499878     112.760567       3.426491     410.750885     510.750885     613.750854     712.329224      95.425331       8.500000
         1018.4      37.516918    1781.249878     103.521072      -1.802017     410.750885     510.811066     612.750854     717.265930      95.204597       8.500000
         1018.5      37.604038    1782.499878      94.636986       5.981403     409.758331     510.750885     614.750854     718.750854      95.945404       8.500000
         1018.6      37.584576    1779.999878      85.347633       0.660000     409.750885     509.817474     616.879517     720.750854      97.435799       8.500000
         1018.7      37.559509    1781.249878      79.590233      -4.901316     410.750885     512.750854     619.750854     721.757935      99.083092       8.500000
         1018.8      37.696461    1782.499878      75.249870      -1.560000     419.929901     514.750854     620.862854     723.750854     100.761063       8.500000
         1018.9      37.520256    1781.249878      74.550301       1.644737     427.920135     519.750854     622.750854     726.750854     102.269943       8.500000
         1019.0      37.623322    1781.249878      75.037399       8.912544     425.059662     529.046082     626.750854     728.934570     103.700386       8.500000
