~Version Information
VERS .            2.00                          : CWLS Log ASCII Standard - Version 2.00
WRAP .            NO                            : One line per depth step
#
~Well Information
#MNEM.UNIT        DATA                          : DESCRIPTION
#----.----        ----                          : -----------
STRT .M            240.0                        : Start
STOP .M           1227.7                        : Stop
STEP .M              0.1                        : Step increment
NULL .            -999.250                      : Null value
COMP .            S.N.G.N. ROMGAZ S.A.          : Company
WELL .            209 NADES                     : Well
FLD  .            NADES                         : Field
PROV .            MURES                         : Province
CTRY .            Romania                       : State / Country
LOC  .            X = 529925.187 m              : Location
LOC2 .            Y = 477271.675 m              : Location 2
SRVC .            Weatherford                   : Service company
UWI  .                                          : Unique Well ID
LATI .            46 16'07.03" N                : Latitude
LONG .            24 42'12.69" E                : Longitude
UTME .                                          : Universal Transverse Mercator Easting
UTMN .                                          : Universal Transverse Mercator Northing
X    .                                          : X
Y    .                                          : Y
DATE .            04-Sep-2024                   : Logging Date
#
~Curve Information
#MNEM.UNIT        API CODES                     : CURVE DESCRIPTION
#----.----        ---------                     : -----------------
DEPT .M           00 001 00 00                  : Logged depth
CGXT .DEGC        30 660 01 00                  : MCG External Temperature
SMTU .LB          30 635 00 00                  : DST Uphole Tension
GRGC .GAPI        30 310 01 00                  : MCG Gamma Ray
CCLG .----        30 150 00 00                  : Casing Collar Locator
NPRL .PERC        42 890 01 00                  : Limestone Neutron Por.
NPRL .V/V         42 890 01 00                  : Limestone Neutron Por.
CLDC .IN          45 280 01 00                  : Density Caliper
DCOR .G/C3        42 356 01 00                  : Density Correction
DEN  .G/C3        42 350 01 00                  : Compensated Density
PDPE .B/E         45 358 01 00                  : PE
NPOR .PERC        42 890 04 00                  : Base Neutron Porosity
NPOR .V/V         42 890 04 00                  : Base Neutron Porosity
NPRS .PERC        42 890 03 00                  : Sandstone Neutron Por.
NPRS .V/V         42 890 03 00                  : Sandstone Neutron Por.
NPRD .PERC        42 890 02 00                  : Dolomite Neutron Por.
NPRD .V/V         42 890 02 00                  : Dolomite Neutron Por.
DPOR .PERC        45 890 13 00                  : Base Density Porosity
DPOR .V/V         45 890 13 00                  : Base Density Porosity
DPRL .PERC        45 890 10 00                  : Limestone Density Por.
DPRL .V/V         45 890 10 00                  : Limestone Density Por.
DPRS .PERC        45 890 12 00                  : Sandstone Density Por.
DPRS .V/V         45 890 12 00                  : Sandstone Density Por.
DPRD .PERC        45 890 11 00                  : Dolomite Density Por.
DPRD .V/V         45 890 11 00                  : Dolomite Density Por.
HDEN .G/C3        42 350 01 00                  : Vectar Processed Density
BIT  .IN          70 282 00 00                  : Bit size
#
~Parameter Information
#MNEM.UNIT        VALUE                         : DESCRIPTION
#----.----        -----                         : -----------
RNID .                                          : Run ID
SON  .            24220368                      : Job Number
DREF .            KB                            : Depth reference
EREF .M            484.710                      : Elevation of depth reference
GL   .M            480.210                      : Ground elevation
KB   .M            484.710                      : Kelly Bushing
DF   .M            484.710                      : Drill Floor
DDRF .            KB                            : Drilling Depth Reference
DERF .M            484.710                      : Elevation of Drilling Depth Reference
RUN  .            2A+2B                         : Run number
TDD  .M           1225.000                      : TD (driller)
TDL  .M           1226.000                      : TD (logger)
BS   .IN             8.500                      : Bit size
TIMC .                                          : Time circulation ended
TIML .                                          : Time logger at bottom
UNIT .            13347                         : Equipment ID
BASE .            PLO                           : Equipment base location
ENG  .            MALEA CRISTIAN                : Recording engineer
WIT  .            VASILE FARCAS                 : Witnessed by
CSGT .            SURFACE                       : Casing type
CSGS .IN            16.000                      : Casing size
CSGW .LB/FT          0.000                      : Casing weight
CSGD .M            250.000                      : Casing bottom (driller)
CSGL .M            249.500                      : Casing bottom (logger)
CSUP .M              0.000                      : Casing Stick Up GL
MUD  .            INHIBITIV                     : Mud type
MUDS .            FLOWLINE                      : Mud sample source
MUDD .G/C3           1.100                      : Mud density
MUDV .SEC/L         50.000                      : Mud viscosity
PH   .               9.500                      : Mud pH
FL   .ML/30MIN       4.100                      : Mud fluid loss rate
RM   .OHMM           0.150                      : Mud resistivity
RMT  .DEGC          25.000                      : Mud sample temperature
RMF  .OHMM           0.120                      : Mud filtrate resistivity
RMFT .DEGC          25.000                      : Mud filtrate sample temperature
RMC  .OHMM           0.180                      : Mud cake resistivity
RMCT .DEGC          25.000                      : Mud cake sample temperature
RMBT .OHMM           0.110                      : Mud Resistivity at BHT
BHT  .DEGC          39.000                      : Bottom Hole Temperature
TMAX .DEGC          39.000                      : Max recorded temperature
#
~Other Information
------------------------------------------------------------------------------------------------
Clients intervals and scales logged
Acquisition software: Weatherford Well Manager, version 24.03.1279
Cable used: CAMESA  size 15/32", type 7J46RXZ with  cable head and 8k weakpoint set
Depth wheel calibration factor used 0.6096
Depth Control Procedure for Multiple runs in the well followed.
Run2A: CBHC, MTAK, MBE, MBE, SHA, MCG, MBN, MTC-Y, MSS, MTC-X, SKJ, MUG, MLE, MLG, MTI, MGS,HFS 
Run2B: CBHC, MTAK, SHA, MCG, SKJ, MMR, MDN, MPD, HFS
Run2C: CBHC, MTAK, SHA, MCG, MISD, SKJ, MISE, SKJ, MISD, MSS, MISD, HFS logged in combination.
 Rm, Rmf, Rmc measured on samples from Mud Engineer given on 04.09.2024
Caliper measurements and averages from TD to casing:
   Total hole volume =  35.32 cubic meters
   Annular volume = 20.52 cubic meters, based on future casing size of 5.5 inches
   Average hole diameter = 8.49 inches (215.77 mm), based on XY caliper
------------------------------------------------------------------------------------------------
#
#          DEPT           CGXT           SMTU           GRGC           CCLG           NPRL           NPRL           CLDC           DCOR            DEN           PDPE           NPOR           NPOR           NPRS           NPRS           NPRD           NPRD           DPOR           DPOR           DPRL           DPRL           DPRS           DPRS           DPRD           DPRD           HDEN            BIT
#
~ASCII Log Data
# ...
          372.0      29.916886     723.124939      93.482353      -2.039430      33.861103       0.338611       8.398108       0.007296       2.284032       2.965162      32.203550       0.322036      39.444036       0.394440      30.818424       0.308184      24.910438       0.249104      24.910438       0.249104      22.179908       0.221799      31.335213       0.313352       2.286779       8.500000
          372.1      29.931073     723.749939      96.013283     -11.118377      33.967314       0.339673       8.397301       0.007626       2.292894       2.947242      32.304132       0.323041      39.538149       0.395381      30.915957       0.309160      24.392149       0.243921      24.392149       0.243921      21.642773       0.216428      30.861270       0.308613       2.294446       8.500000
          372.2      29.932086     724.374939      97.962227     -16.323903      34.489628       0.344896       8.396087       0.007923       2.295382       2.923804      32.800549       0.328005      39.995260       0.399953      31.396072       0.313961      24.246644       0.242466      24.246644       0.242466      21.491977       0.214920      30.728215       0.307282       2.297110       8.500000
          372.3      29.908347     724.374939      99.559097      -9.662719      35.331888       0.353319       8.395052       0.008277       2.294121       2.895561      33.601320       0.336013      40.727848       0.407278      32.170769       0.321708      24.320408       0.243204      24.320408       0.243204      21.568422       0.215684      30.795668       0.307957       2.295202       8.500000
          372.4      29.906037     723.749939     100.364159      11.906096      36.180279       0.361803       8.394614       0.008727       2.291581       2.863306      34.408041       0.344080      41.461653       0.414617      32.951544       0.329515      24.468932       0.244689      24.468932       0.244689      21.722347       0.217223      30.931483       0.309315       2.291066       8.500000
          372.5      29.908601     723.749939     100.030403      13.616623      36.668301       0.366683       8.394607       0.009122       2.288971       2.820479      34.872089       0.348721      41.880867       0.418809      33.400999       0.334010      24.621590       0.246216      24.621590       0.246216      21.880556       0.218806      31.071079       0.310711       2.287894       8.500000
          372.6      29.903072     723.749939      98.367603       6.595396      36.679596       0.366796       8.394660       0.009310       2.284748       2.778648      34.882734       0.348827      41.888252       0.418883      33.411709       0.334117      24.868534       0.248685      24.868534       0.248685      22.136480       0.221365      31.296894       0.312969       2.285742       8.500000
          372.7      29.881985     723.124939      94.825916       7.425153      36.469366       0.364694       8.394623       0.009347       2.276623       2.738469      34.682497       0.346825      41.703941       0.417039      33.218582       0.332186      25.343698       0.253437      25.343698       0.253437      22.628923       0.226289      31.731401       0.317314       2.279001       8.500000
          372.8      29.896648     723.124939      88.287106       4.089627      36.396873       0.363969       8.394375       0.009239       2.261675       2.701434      34.612854       0.346129      41.636835       0.416368      33.152485       0.331525      26.217822       0.262178      26.217822       0.262178      23.534834       0.235348      32.530735       0.325307       2.263578       8.500000
          372.9      29.913414     723.749939      79.792652       0.818268      36.716719       0.367167       8.393857       0.008943       2.240039       2.653595      34.915754       0.349158      41.902573       0.419026      33.448498       0.334485      27.483087       0.274831      27.483087       0.274831      24.846107       0.248461      33.687742       0.336877       2.240446       8.500000
          373.0      29.915217     723.749939      71.594059      -0.067935      37.431540       0.374315       8.393031       0.008518       2.215484       2.592941      35.593933       0.355939      42.504852       0.425049      34.108810       0.341088      28.919085       0.289191      28.919085       0.289191      26.334323       0.263343      35.000874       0.350009       2.214707       8.500000
          373.1      29.961370     723.749939      65.273184       1.340772      38.205336       0.382053       8.392071       0.008049       2.193668       2.532985      36.328369       0.363284      43.160156       0.431602      34.823082       0.348231      30.194867       0.301949      30.194867       0.301949      27.656499       0.276565      36.167498       0.361675       2.190834       8.500000
          373.2      29.954991     723.749939      61.037281       0.540363      38.495417       0.384954       8.391290       0.007574       2.179369       2.504537      36.603231       0.366032      43.404436       0.434044      35.091009       0.350910      31.031068       0.310311      31.031068       0.310311      28.523108       0.285231      36.932152       0.369322       2.175401       8.500000
          373.3      29.929613     723.749939      59.347874       0.069354      37.940140       0.379401       8.390896       0.007151       2.174999       2.515636      36.074678       0.360747      42.926373       0.429264      34.579630       0.345796      31.286601       0.312866      31.286601       0.312866      28.787932       0.287879      37.165821       0.371658       2.172424       8.500000
          373.4      29.939076     723.749939      60.276373       0.802462      36.691988       0.366920       8.390814       0.006885       2.179230       2.563314      34.887711       0.348877      41.857368       0.418574      33.429356       0.334294      31.039162       0.310392      31.039162       0.310392      28.531495       0.285315      36.939554       0.369396       2.178849       8.500000
          373.5      29.951997     724.374939      62.485987      -1.991441      35.276899       0.352769       8.390802       0.006805       2.187268       2.632290      33.542324       0.335423      40.650425       0.406504      32.124482       0.321245      30.569129       0.305691      30.569129       0.305691      28.044370       0.280444      36.509739       0.365097       2.188394       8.500000
          373.6      29.954023     725.624939      64.219625      -0.388333      34.322887       0.343229       8.390781       0.006960       2.195709       2.696626      32.635252       0.326353      39.841024       0.398410      31.244152       0.312442      30.075477       0.300755      30.075477       0.300755      27.532766       0.275328      36.058325       0.360583       2.197077       8.500000
          373.7      29.943249     726.249939      65.409637       1.675000      34.023584       0.340236       8.390613       0.007280       2.202815       2.735948      32.350403       0.323504      39.591114       0.395911      30.967463       0.309675      29.659945       0.296599      29.659945       0.296599      27.102125       0.271021      35.678347       0.356783       2.203409       8.500000
          373.8      29.951892     725.624939      66.527447      -1.403816      34.118336       0.341183       8.389975       0.007629       2.208857       2.744490      32.439976       0.324400      39.675854       0.396759      31.054382       0.310544      29.306619       0.293066      29.306619       0.293066      26.735950       0.267360      35.355251       0.353553       2.208272       8.500000
          373.9      29.957182     724.999939      67.926022      -5.237149      34.159018       0.341590       8.388629       0.007851       2.214546       2.740682      32.477955       0.324780      39.711115       0.397111      31.091798       0.310918      28.973934       0.289739      28.973934       0.289739      26.391169       0.263912      35.051031       0.350510       2.213536       8.500000
