~Version Information
VERS .            2.00                          : CWLS Log ASCII Standard - Version 2.00
WRAP .            NO                            : One line per depth step
#
~Well Information
#MNEM.UNIT        DATA                          : DESCRIPTION
#----.----        ----                          : -----------
STRT .M            240.0                        : Start
STOP .M           1227.7                        : Stop
STEP .M              0.1                        : Step increment
NULL .            -999.250                      : Null value
COMP .            S.N.G.N. ROMGAZ S.A.          : Company
WELL .            209 NADES                     : Well
FLD  .            NADES                         : Field
PROV .            MURES                         : Province
CTRY .            Romania                       : State / Country
LOC  .            X = 529925.187 m              : Location
LOC2 .            Y = 477271.675 m              : Location 2
SRVC .            Weatherford                   : Service company
UWI  .                                          : Unique Well ID
LATI .            46 16'07.03" N                : Latitude
LONG .            24 42'12.69" E                : Longitude
UTME .                                          : Universal Transverse Mercator Easting
UTMN .                                          : Universal Transverse Mercator Northing
X    .                                          : X
Y    .                                          : Y
DATE .            04-Sep-2024                   : Logging Date
#
~Curve Information
#MNEM.UNIT        API CODES                     : CURVE DESCRIPTION
#----.----        ---------                     : -----------------
DEPT .M           00 001 00 00                  : Logged depth
CGXT .DEGC        30 660 01 00                  : MCG External Temperature
SMTU .LB          30 635 00 00                  : DST Uphole Tension
GRGC .GAPI        30 310 01 00                  : MCG Gamma Ray
CCLG .----        30 150 00 00                  : Casing Collar Locator
NPRL .PERC        42 890 01 00                  : Limestone Neutron Por.
NPRL .V/V         42 890 01 00                  : Limestone Neutron Por.
CLDC .IN          45 280 01 00                  : Density Caliper
DCOR .G/C3        42 356 01 00                  : Density Correction
DEN  .G/C3        42 350 01 00                  : Compensated Density
PDPE .B/E         45 358 01 00                  : PE
NPOR .PERC        42 890 04 00                  : Base Neutron Porosity
NPOR .V/V         42 890 04 00                  : Base Neutron Porosity
NPRS .PERC        42 890 03 00                  : Sandstone Neutron Por.
NPRS .V/V         42 890 03 00                  : Sandstone Neutron Por.
NPRD .PERC        42 890 02 00                  : Dolomite Neutron Por.
NPRD .V/V         42 890 02 00                  : Dolomite Neutron Por.
DPOR .PERC        45 890 13 00                  : Base Density Porosity
DPOR .V/V         45 890 13 00                  : Base Density Porosity
DPRL .PERC        45 890 10 00                  : Limestone Density Por.
DPRL .V/V         45 890 10 00                  : Limestone Density Por.
DPRS .PERC        45 890 12 00                  : Sandstone Density Por.
DPRS .V/V         45 890 12 00                  : Sandstone Density Por.
DPRD .PERC        45 890 11 00                  : Dolomite Density Por.
DPRD .V/V         45 890 11 00                  : Dolomite Density Por.
HDEN .G/C3        42 350 01 00                  : Vectar Processed Density
BIT  .IN          70 282 00 00                  : Bit size
#
~Parameter Information
#MNEM.UNIT        VALUE                         : DESCRIPTION
#----.----        -----                         : -----------
RNID .                                          : Run ID
SON  .            24220368                      : Job Number
DREF .            KB                            : Depth reference
EREF .M            484.710                      : Elevation of depth reference
GL   .M            480.210                      : Ground elevation
KB   .M            484.710                      : Kelly Bushing
DF   .M            484.710                      : Drill Floor
DDRF .            KB                            : Drilling Depth Reference
DERF .M            484.710                      : Elevation of Drilling Depth Reference
RUN  .            2A+2B                         : Run number
TDD  .M           1225.000                      : TD (driller)
TDL  .M           1226.000                      : TD (logger)
BS   .IN             8.500                      : Bit size
TIMC .                                          : Time circulation ended
TIML .                                          : Time logger at bottom
UNIT .            13347                         : Equipment ID
BASE .            PLO                           : Equipment base location
ENG  .            MALEA CRISTIAN                : Recording engineer
WIT  .            VASILE FARCAS                 : Witnessed by
CSGT .            SURFACE                       : Casing type
CSGS .IN            16.000                      : Casing size
CSGW .LB/FT          0.000                      : Casing weight
CSGD .M            250.000                      : Casing bottom (driller)
CSGL .M            249.500                      : Casing bottom (logger)
CSUP .M              0.000                      : Casing Stick Up GL
MUD  .            INHIBITIV                     : Mud type
MUDS .            FLOWLINE                      : Mud sample source
MUDD .G/C3           1.100                      : Mud density
MUDV .SEC/L         50.000                      : Mud viscosity
PH   .               9.500                      : Mud pH
FL   .ML/30MIN       4.100                      : Mud fluid loss rate
RM   .OHMM           0.150                      : Mud resistivity
RMT  .DEGC          25.000                      : Mud sample temperature
RMF  .OHMM           0.120                      : Mud filtrate resistivity
RMFT .DEGC          25.000                      : Mud filtrate sample temperature
RMC  .OHMM           0.180                      : Mud cake resistivity
RMCT .DEGC          25.000                      : Mud cake sample temperature
RMBT .OHMM           0.110                      : Mud Resistivity at BHT
BHT  .DEGC          39.000                      : Bottom Hole Temperature
TMAX .DEGC          39.000                      : Max recorded temperature
#
~Other Information
------------------------------------------------------------------------------------------------
Clients intervals and scales logged
Acquisition software: Weatherford Well Manager, version 24.03.1279
Cable used: CAMESA  size 15/32", type 7J46RXZ with  cable head and 8k weakpoint set
Depth wheel calibration factor used 0.6096
Depth Control Procedure for Multiple runs in the well followed.
Run2A: CBHC, MTAK, MBE, MBE, SHA, MCG, MBN, MTC-Y, MSS, MTC-X, SKJ, MUG, MLE, MLG, MTI, MGS,HFS 
Run2B: CBHC, MTAK, SHA, MCG, SKJ, MMR, MDN, MPD, HFS
Run2C: CBHC, MTAK, SHA, MCG, MISD, SKJ, MISE, SKJ, MISD, MSS, MISD, HFS logged in combination.
 Rm, Rmf, Rmc measured on samples from Mud Engineer given on 04.09.2024
Caliper measurements and averages from TD to casing:
   Total hole volume =  35.32 cubic meters
   Annular volume = 20.52 cubic meters, based on future casing size of 5.5 inches
   Average hole diameter = 8.49 inches (215.77 mm), based on XY caliper
------------------------------------------------------------------------------------------------
#
#          DEPT           CGXT           SMTU           GRGC           CCLG           NPRL           NPRL           CLDC           DCOR            DEN           PDPE           NPOR           NPOR           NPRS           NPRS           NPRD           NPRD           DPOR           DPOR           DPRL           DPRL           DPRS           DPRS           DPRD           DPRD           HDEN            BIT
#
~ASCII Log Data
# ...
         1094.0      38.588860    1422.499878     120.245022      -0.477564      31.339234       0.313392       8.366400       0.010117       2.398173       3.175674      29.444241       0.294442      37.276648       0.372766      28.500941       0.285009      18.235506       0.182355      18.235506       0.182355      15.262251       0.152623      25.231399       0.252314       2.398815       8.500000
         1094.1      38.567205    1421.249878     113.634075       1.253045      30.169201       0.301692       8.366045       0.010017       2.382895       3.073804      28.340991       0.283410      36.193039       0.361930      27.427082       0.274271      19.128976       0.191290      19.128976       0.191290      16.188211       0.161882      26.048422       0.260484       2.380934       8.500000
         1094.2      38.552765    1421.249878     106.211311       0.544712      28.626005       0.286260       8.365971       0.009955       2.372204       2.991537      26.886301       0.268863      34.754570       0.347546      26.010390       0.260104      19.754142       0.197541      19.754142       0.197541      16.836110       0.168361      26.620097       0.266201       2.369344       8.500000
         1094.3      38.594194    1420.624878      99.597618      -1.163220      26.912104       0.269121       8.365976       0.009814       2.367504       2.956329      25.270741       0.252707      33.137529       0.331375      24.436380       0.244364      20.029006       0.200290      20.029006       0.200290      17.120970       0.171210      26.871444       0.268714       2.365490       8.500000
         1094.4      38.603493    1420.624878      95.041653      -0.823477      25.385810       0.253858       8.365931       0.009540       2.367438       2.975092      23.831852       0.238319      31.678291       0.316783      23.034116       0.230341      20.032854       0.200329      20.032854       0.200329      17.124958       0.171250      26.874963       0.268750       2.366265       8.500000
         1094.5      38.568531    1421.249878      93.375145       0.179608      24.358133       0.243581       8.365836       0.009555       2.372897       3.040920      22.863001       0.228630      30.684103       0.306841      22.089634       0.220896      19.713603       0.197136      19.713603       0.197136      16.794098       0.167941      26.583028       0.265830       2.372787       8.500000
         1094.6      38.536402    1421.874878      93.897854      -0.743468      23.927797       0.239278       8.365970       0.010045       2.383056       3.129213      22.457725       0.224577      30.265289       0.302653      21.694069       0.216941      19.119536       0.191195      19.119536       0.191195      16.178429       0.161784      26.039790       0.260398       2.383874       8.500000
         1094.7      38.557175    1422.499878      95.632912      -1.202328      24.060349       0.240603       8.366933       0.010911       2.395669       3.199541      22.583732       0.225837      30.395805       0.303958      21.815981       0.218160      18.381959       0.183820      18.381959       0.183820      15.414030       0.154140      25.365320       0.253653       2.396521       8.500000
         1094.8      38.585638    1423.124878      97.545784      -0.018638      24.637304       0.246373       8.369057       0.011728       2.406975       3.229061      23.129149       0.231291      30.962426       0.309624      22.346549       0.223465      17.720744       0.177207      17.720744       0.177207      14.728772       0.147288      24.760680       0.247607       2.406925       8.500000
         1094.9      38.575594    1424.374878     100.162868      -0.335337      25.455627       0.254556       8.371811       0.012718       2.418757       3.231613      23.902334       0.239023      31.766318       0.317663      23.099105       0.230991      17.031750       0.170317      17.031750       0.170317      14.014722       0.140147      24.130637       0.241306       2.418334       8.500000
         1095.0      38.584774    1424.999878     103.988823      -0.100155      26.239891       0.262399       8.374037       0.013704       2.430359       3.211506      24.643308       0.246433      32.534615       0.325346      23.820235       0.238202      16.353282       0.163533      16.353282       0.163533      13.311583       0.133116      23.510220       0.235102       2.429974       8.500000
         1095.1      38.582495    1424.999878     108.871761       1.665668      26.869046       0.268690       8.375068       0.014102       2.437865       3.176867      25.237692       0.252377      33.144457       0.331445      24.398413       0.243984      15.914354       0.159144      15.914354       0.159144      12.856695       0.128567      23.108848       0.231088       2.437347       8.500000
         1095.2      38.557772    1425.624878     113.380589       2.615384      27.327326       0.273273       8.375223       0.013466       2.437355       3.145285      25.670410       0.256704      33.582119       0.335821      24.819236       0.248192      15.944129       0.159441      15.944129       0.159441      12.887552       0.128876      23.136075       0.231361       2.437081       8.500000
         1095.3      38.573404    1425.624878     116.479969       2.419872      27.705883       0.277059       8.375139       0.012260       2.432658       3.125881      26.027459       0.260275      33.940599       0.339406      25.166727       0.251667      16.218812       0.162188      16.218812       0.162188      13.172224       0.131722      23.387256       0.233873       2.432542       8.500000
         1095.4      38.558622    1424.999878     117.457359      -0.020407      28.035122       0.280351       8.375116       0.010915       2.427678       3.117999      26.337555       0.263376      34.251690       0.342517      25.468921       0.254689      16.510045       0.165100      16.510045       0.165100      13.474047       0.134740      23.653570       0.236536       2.427864       8.500000
         1095.5      38.591198    1425.624878     116.948624      -2.123887      28.360208       0.283602       8.374959       0.009439       2.422364       3.116439      26.643456       0.266435      34.557766       0.345578      25.767286       0.257673      16.820806       0.168208      16.820806       0.168208      13.796107       0.137961      23.937741       0.239377       2.423074       8.500000
         1095.6      38.599512    1424.999878     116.339340      -1.482780      28.641754       0.286418       8.374027       0.008333       2.418220       3.135941      26.907991       0.269080      34.821514       0.348215      26.025663       0.260257      17.063184       0.170632      17.063184       0.170632      14.047299       0.140473      24.159382       0.241594       2.420095       8.500000
         1095.7      38.578680    1423.749878     116.828060       0.305606      28.954551       0.289546       8.371913       0.008127       2.417463       3.167140      27.201693       0.272017      35.111135       0.351111      26.312684       0.263127      17.107416       0.171074      17.107416       0.171074      14.093141       0.140931      24.199830       0.241998       2.419250       8.500000
         1095.8      38.531530    1423.749878     118.425632      -0.374774      29.464054       0.294641       8.369293       0.008788       2.419763       3.206828      27.680498       0.276805      35.577671       0.355777      26.780219       0.267802      16.972919       0.169729      16.972919       0.169729      13.953752       0.139538      24.076840       0.240768       2.420466       8.500000
         1095.9      38.540516    1424.374878     120.587811       0.313291      30.371779       0.303718       8.367319       0.009620       2.421945       3.244071      28.534263       0.285343      36.400206       0.364002      27.613444       0.276134      16.845302       0.168453      16.845302       0.168453      13.821495       0.138215      23.960143       0.239601       2.421393       8.500000
