~Version Information
VERS .            2.00                          : CWLS Log ASCII Standard - Version 2.00
WRAP .            NO                            : One line per depth step
#
~Well Information
#MNEM.UNIT        DATA                          : DESCRIPTION
#----.----        ----                          : -----------
STRT .M            240.0                        : Start
STOP .M           1228.5                        : Stop
STEP .M              0.1                        : Step increment
NULL .            -999.250                      : Null value
COMP .            S.N.G.N. ROMGAZ S.A.          : Company
WELL .            209 NADES                     : Well
FLD  .            NADES                         : Field
PROV .            MURES                         : Province
CTRY .            Romania                       : State / Country
LOC  .            X = 529925.187 m              : Location
LOC2 .            Y = 477271.675 m              : Location 2
SRVC .            Weatherford                   : Service company
UWI  .                                          : Unique Well ID
LATI .            46 16'07.03" N                : Latitude
LONG .            24 42'12.69" E                : Longitude
UTME .                                          : Universal Transverse Mercator Easting
UTMN .                                          : Universal Transverse Mercator Northing
X    .                                          : X
Y    .                                          : Y
DATE .            04-Sep-2024                   : Logging Date
#
~Curve Information
#MNEM.UNIT        API CODES                     : CURVE DESCRIPTION
#----.----        ---------                     : -----------------
DEPT .M           00 001 00 00                  : Logged depth
CGXT .DEGC        30 660 01 00                  : MCG External Temperature
SMTU .LB          30 635 00 00                  : DST Uphole Tension
GRGC .GAPI        30 310 01 00                  : MCG Gamma Ray
CCLG .----        30 150 00 00                  : Casing Collar Locator
TR21 .US          60 520 30 00                  : 3' Transit Time
TR11 .US          60 520 04 00                  : 4' Transit Time
TR22 .US          60 520 50 00                  : 5' Transit Time
TR12 .US          60 520 60 00                  : 6' Transit Time
DT35 .US/F        60 520 32 00                  : 3-5' Compensated Sonic
BIT  .IN          70 282 00 00                  : Bit size
#
~Parameter Information
#MNEM.UNIT        VALUE                         : DESCRIPTION
#----.----        -----                         : -----------
RNID .                                          : Run ID
SON  .            24220368                      : Job Number
DREF .            KB                            : Depth reference
EREF .M            484.710                      : Elevation of depth reference
GL   .M            480.210                      : Ground elevation
KB   .M            484.710                      : Kelly Bushing
DF   .M            484.710                      : Drill Floor
DDRF .            KB                            : Drilling Depth Reference
DERF .M            484.710                      : Elevation of Drilling Depth Reference
RUN  .            2A+2B                         : Run number
TDD  .M           1225.000                      : TD (driller)
TDL  .M           1226.000                      : TD (logger)
BS   .IN             8.500                      : Bit size
TIMC .                                          : Time circulation ended
TIML .                                          : Time logger at bottom
UNIT .            13347                         : Equipment ID
BASE .            PLO                           : Equipment base location
ENG  .            MALEA CRISTIAN                : Recording engineer
WIT  .            VASILE FARCAS                 : Witnessed by
CSGT .            SURFACE                       : Casing type
CSGS .IN            16.000                      : Casing size
CSGW .LB/FT          0.000                      : Casing weight
CSGD .M            250.000                      : Casing bottom (driller)
CSGL .M            249.500                      : Casing bottom (logger)
CSUP .M              0.000                      : Casing Stick Up GL
MUD  .            INHIBITIV                     : Mud type
MUDS .            FLOWLINE                      : Mud sample source
MUDD .G/C3           1.100                      : Mud density
MUDV .SEC/L         50.000                      : Mud viscosity
PH   .               9.500                      : Mud pH
FL   .ML/30MIN       4.100                      : Mud fluid loss rate
RM   .OHMM           0.150                      : Mud resistivity
RMT  .DEGC          25.000                      : Mud sample temperature
RMF  .OHMM           0.120                      : Mud filtrate resistivity
RMFT .DEGC          25.000                      : Mud filtrate sample temperature
RMC  .OHMM           0.180                      : Mud cake resistivity
RMCT .DEGC          25.000                      : Mud cake sample temperature
RMBT .OHMM           0.110                      : Mud Resistivity at BHT
BHT  .DEGC          39.000                      : Bottom Hole Temperature
TMAX .DEGC          39.000                      : Max recorded temperature
#
~Other Information
------------------------------------------------------------------------------------------------
Clients intervals and scales logged
Acquisition software: Weatherford Well Manager, version 24.03.1279
Cable used: CAMESA  size 15/32", type 7J46RXZ with  cable head and 8k weakpoint set
Depth wheel calibration factor used 0.6096
Depth Control Procedure for Multiple runs in the well followed.
Run2A: CBHC, MTAK, MBE, MBE, SHA, MCG, MBN, MTC-Y, MSS, MTC-X, SKJ, MUG, MLE, MLG, MTI, MGS,HFS 
Run2B: CBHC, MTAK, SHA, MCG, SKJ, MMR, MDN, MPD, HFS
Run2C: CBHC, MTAK, SHA, MCG, MISD, SKJ, MISE, SKJ, MISD, MSS, MISD, HFS logged in combination.
 Rm, Rmf, Rmc measured on samples from Mud Engineer given on 04.09.2024
Caliper measurements and averages from TD to casing:
   Total hole volume =  35.32 cubic meters
   Annular volume = 20.52 cubic meters, based on future casing size of 5.5 inches
   Average hole diameter = 8.49 inches (215.77 mm), based on XY caliper
------------------------------------------------------------------------------------------------
#
#          DEPT           CGXT           SMTU           GRGC           CCLG           TR21           TR11           TR22           TR12           DT35            BIT
#
~ASCII Log Data
          240.0      30.538956    1053.750000      60.728184       4.668919     297.750885     353.407379     410.815857     466.750885      56.132339      12.250000
          240.1      30.535021    1052.500000      61.189430      -6.089503     297.750885     353.815979     410.959839     466.750885      56.146244      12.250000
          240.2      30.457439    1052.500000      61.500126      -4.074326     297.907562     354.026031     411.025970     466.299042      56.154354      12.250000
          240.3      30.561398    1052.500000      61.103928     -23.126713     298.178925     353.081696     410.750885     466.295563      56.160751      12.250000
          240.4      30.540564    1053.750000      61.295494     -22.686562     297.761169     353.523224     410.750885     466.415314      56.153538      12.250000
          240.5      30.463490    1053.750000      61.213486       5.810810     298.024750     353.868286     410.750885     466.215668      56.144478      12.250000
          240.6      30.492727    1052.500000      59.502499      -0.536411     298.142242     353.974060     410.914703     466.126129      56.139111      12.250000
          240.7      30.502384    1052.500000      57.133423     -19.403275     298.141785     354.073395     410.750885     466.027924      56.130314      12.250000
          240.8      30.400154    1052.500000      55.773418       2.633633     298.146210     354.169098     410.850037     466.361115      56.137428      12.250000
          240.9      30.539761    1051.250000      55.917843       1.224407     298.052155     354.204346     410.892487     467.149200      56.143944      12.250000
          241.0      30.497974    1050.000000      56.893188       0.308983     298.132355     353.441101     410.837463     466.981262      56.148716      12.250000
          241.1      30.560087    1048.750000      57.956768      40.307247     297.848389     353.750885     411.139130     466.943573      56.136795      12.250000
          241.2      30.519701    1048.750000      59.170475      20.561644     297.986481     353.871338     410.790985     466.771729      56.120689      12.250000
          241.3      30.425041    1051.250000      60.009377     -20.168640     297.953827     353.546906     410.950012     466.299408      56.103813      12.250000
          241.4      30.436516    1052.500000      59.667442     -17.889395     297.951233     353.393341     410.317108     466.437134      56.081226      12.250000
          241.5      30.623690    1052.500000      59.176006     -25.445206     297.750885     353.305481     410.781097     466.148132      56.072231      12.250000
          241.6      30.572187    1052.500000      58.023239     -10.445946     297.750885     353.750885     410.750885     466.284210      56.072636      12.250000
          241.7      30.472698    1040.000000      57.615768      -1.130138     297.769073     353.456573     410.750885     466.750885      56.075851      12.250000
          241.8      30.394373    1028.750000      56.048653      29.905407     297.340607     353.750885     410.784058     466.414490      56.068592      12.250000
          241.9      30.505722    1027.500000      56.053505      46.548126     298.002838     354.262695     410.899017     466.122498      56.060570      12.250000
          242.0      30.511295    1052.500000      55.650139       6.340892     298.750885     353.851349     410.887726     466.342957      56.064522      12.250000
          242.1      30.417263    1056.250000      56.498440      -0.533874     298.130981     353.923187     410.363281     466.825165      56.078876      12.250000
          242.2      30.369217    1056.250000      55.912254     -12.455758     297.926239     354.179077     410.929260     467.032196      56.116470      12.250000
          242.3      30.524292    1056.250000      55.243965     -41.879456     298.014343     353.932007     411.767487     466.750885      56.168373      12.250000
          242.4      30.473326    1057.500000      52.648571       0.898649     297.913940     354.071075     411.139130     466.784790      56.232117      12.250000
          242.5      30.494337    1057.500000      50.368782      27.219997     298.084869     354.015656     410.969269     466.969482      56.298409      12.250000
          242.6      30.456247    1058.750000      48.294083     -17.983986     298.326996     353.843719     410.944824     466.783295      56.367966      12.250000
          242.7      30.464235    1057.500000      47.111263     -18.286301     298.750885     353.860138     410.450867     466.796722      56.441944      12.250000
          242.8      30.510462    1055.000000      46.709846      21.848850     298.067047     353.431000     411.182648     467.414429      56.501148      12.250000
          242.9      30.509687    1053.750000      47.675766      29.678082     298.010864     354.410950     411.313202     468.349854      56.550419      12.250000
          243.0      30.443848    1060.000000      50.294163       4.712792     298.395538     354.091858     411.994049     467.310730      56.568424      12.250000
          243.1      30.559013    1050.000000      52.250675       2.684933     298.176514     354.118134     412.272400     467.622528      56.569149      12.250000
          243.2      30.478750    1065.000000      55.199322     -16.184933     298.149506     355.133453     412.268738     468.336243      56.546703      12.250000
          243.3      30.520357    1058.750000      57.174511     -26.964550     298.273102     354.868286     411.650543     467.534454      56.538307      12.250000
          243.4      30.499672    1056.250000      58.341431     -21.899481     298.329224     354.211700     411.614807     467.798645      56.539436      12.250000
          243.5      30.560295    1057.500000      56.532818       3.878376     297.780731     354.505768     411.910248     373.963074      56.552341      12.250000
          243.6      30.482088    1058.750000      54.697796      34.070713     297.611847     352.518341     411.803802     468.088287      56.540348      12.250000
          243.7      30.464622    1060.000000      51.867241      15.695763     296.071045     353.626221     412.064087     466.294464      56.525414      12.250000
          243.8      30.522234    1060.000000      49.845371     -49.645039     296.868134     353.721893     410.984772     466.904114      56.493450      12.250000
          243.9      30.425100    1060.000000      47.060432     -54.205479     296.768219     352.986389     410.681641     466.590881      56.472176      12.250000
          244.0      30.496721    1058.750000      45.564384      45.124489     297.075714     352.287781     410.634064     467.373505      56.451054      12.250000
          244.1      30.483995    1057.500000      44.183567     -11.301094     296.541199     352.746094     410.479950     467.513916      56.464607      12.250000
          244.2      30.492340    1056.250000      44.726658     -63.780823     296.712402     352.132690     410.594299     466.894531      56.496445      12.250000
          244.3      30.522234    1056.250000      45.454849      14.527122     295.944122     353.018860     410.504486     466.250885      56.534351      12.250000
          244.4      30.493353    1052.500000      47.187969     -33.417992     296.847473     353.045471     409.900726     465.865021      56.557850      12.250000
          244.5      30.474785    1050.000000      48.809582      21.533688     297.016754     352.931213     410.694489     466.647705      56.582634      12.250000
          244.6      30.507391    1047.500000      50.646278      47.148651     296.707825     352.376556     409.272308     466.767365      56.603573      12.250000
          244.7      30.471865    1046.250000      50.492577     -28.094593     296.045898     353.130615     410.305084     467.071442      56.622093      12.250000
          244.8      30.399529    1046.250000      50.102924      -0.134766     296.100708     352.753448     410.317535     466.610199      56.634457      12.250000
