~Version Information
VERS .            2.00                          : CWLS Log ASCII Standard - Version 2.00
WRAP .            NO                            : One line per depth step
#
~Well Information
#MNEM.UNIT        DATA                          : DESCRIPTION
#----.----        ----                          : -----------
STRT .M            240.0                        : Start
STOP .M           1227.7                        : Stop
STEP .M              0.1                        : Step increment
NULL .            -999.250                      : Null value
COMP .            S.N.G.N. ROMGAZ S.A.          : Company
WELL .            209 NADES                     : Well
FLD  .            NADES                         : Field
PROV .            MURES                         : Province
CTRY .            Romania                       : State / Country
LOC  .            X = 529925.187 m              : Location
LOC2 .            Y = 477271.675 m              : Location 2
SRVC .            Weatherford                   : Service company
UWI  .                                          : Unique Well ID
LATI .            46 16'07.03" N                : Latitude
LONG .            24 42'12.69" E                : Longitude
UTME .                                          : Universal Transverse Mercator Easting
UTMN .                                          : Universal Transverse Mercator Northing
X    .                                          : X
Y    .                                          : Y
DATE .            04-Sep-2024                   : Logging Date
#
~Curve Information
#MNEM.UNIT        API CODES                     : CURVE DESCRIPTION
#----.----        ---------                     : -----------------
DEPT .M           00 001 00 00                  : Logged depth
CGXT .DEGC        30 660 01 00                  : MCG External Temperature
SMTU .LB          30 635 00 00                  : DST Uphole Tension
GRGC .GAPI        30 310 01 00                  : MCG Gamma Ray
CCLG .----        30 150 00 00                  : Casing Collar Locator
NPRL .PERC        42 890 01 00                  : Limestone Neutron Por.
NPRL .V/V         42 890 01 00                  : Limestone Neutron Por.
CLDC .IN          45 280 01 00                  : Density Caliper
DCOR .G/C3        42 356 01 00                  : Density Correction
DEN  .G/C3        42 350 01 00                  : Compensated Density
PDPE .B/E         45 358 01 00                  : PE
NPOR .PERC        42 890 04 00                  : Base Neutron Porosity
NPOR .V/V         42 890 04 00                  : Base Neutron Porosity
NPRS .PERC        42 890 03 00                  : Sandstone Neutron Por.
NPRS .V/V         42 890 03 00                  : Sandstone Neutron Por.
NPRD .PERC        42 890 02 00                  : Dolomite Neutron Por.
NPRD .V/V         42 890 02 00                  : Dolomite Neutron Por.
DPOR .PERC        45 890 13 00                  : Base Density Porosity
DPOR .V/V         45 890 13 00                  : Base Density Porosity
DPRL .PERC        45 890 10 00                  : Limestone Density Por.
DPRL .V/V         45 890 10 00                  : Limestone Density Por.
DPRS .PERC        45 890 12 00                  : Sandstone Density Por.
DPRS .V/V         45 890 12 00                  : Sandstone Density Por.
DPRD .PERC        45 890 11 00                  : Dolomite Density Por.
DPRD .V/V         45 890 11 00                  : Dolomite Density Por.
HDEN .G/C3        42 350 01 00                  : Vectar Processed Density
BIT  .IN          70 282 00 00                  : Bit size
#
~Parameter Information
#MNEM.UNIT        VALUE                         : DESCRIPTION
#----.----        -----                         : -----------
RNID .                                          : Run ID
SON  .            24220368                      : Job Number
DREF .            KB                            : Depth reference
EREF .M            484.710                      : Elevation of depth reference
GL   .M            480.210                      : Ground elevation
KB   .M            484.710                      : Kelly Bushing
DF   .M            484.710                      : Drill Floor
DDRF .            KB                            : Drilling Depth Reference
DERF .M            484.710                      : Elevation of Drilling Depth Reference
RUN  .            2A+2B                         : Run number
TDD  .M           1225.000                      : TD (driller)
TDL  .M           1226.000                      : TD (logger)
BS   .IN             8.500                      : Bit size
TIMC .                                          : Time circulation ended
TIML .                                          : Time logger at bottom
UNIT .            13347                         : Equipment ID
BASE .            PLO                           : Equipment base location
ENG  .            MALEA CRISTIAN                : Recording engineer
WIT  .            VASILE FARCAS                 : Witnessed by
CSGT .            SURFACE                       : Casing type
CSGS .IN            16.000                      : Casing size
CSGW .LB/FT          0.000                      : Casing weight
CSGD .M            250.000                      : Casing bottom (driller)
CSGL .M            249.500                      : Casing bottom (logger)
CSUP .M              0.000                      : Casing Stick Up GL
MUD  .            INHIBITIV                     : Mud type
MUDS .            FLOWLINE                      : Mud sample source
MUDD .G/C3           1.100                      : Mud density
MUDV .SEC/L         50.000                      : Mud viscosity
PH   .               9.500                      : Mud pH
FL   .ML/30MIN       4.100                      : Mud fluid loss rate
RM   .OHMM           0.150                      : Mud resistivity
RMT  .DEGC          25.000                      : Mud sample temperature
RMF  .OHMM           0.120                      : Mud filtrate resistivity
RMFT .DEGC          25.000                      : Mud filtrate sample temperature
RMC  .OHMM           0.180                      : Mud cake resistivity
RMCT .DEGC          25.000                      : Mud cake sample temperature
RMBT .OHMM           0.110                      : Mud Resistivity at BHT
BHT  .DEGC          39.000                      : Bottom Hole Temperature
TMAX .DEGC          39.000                      : Max recorded temperature
#
~Other Information
------------------------------------------------------------------------------------------------
Clients intervals and scales logged
Acquisition software: Weatherford Well Manager, version 24.03.1279
Cable used: CAMESA  size 15/32", type 7J46RXZ with  cable head and 8k weakpoint set
Depth wheel calibration factor used 0.6096
Depth Control Procedure for Multiple runs in the well followed.
Run2A: CBHC, MTAK, MBE, MBE, SHA, MCG, MBN, MTC-Y, MSS, MTC-X, SKJ, MUG, MLE, MLG, MTI, MGS,HFS 
Run2B: CBHC, MTAK, SHA, MCG, SKJ, MMR, MDN, MPD, HFS
Run2C: CBHC, MTAK, SHA, MCG, MISD, SKJ, MISE, SKJ, MISD, MSS, MISD, HFS logged in combination.
 Rm, Rmf, Rmc measured on samples from Mud Engineer given on 04.09.2024
Caliper measurements and averages from TD to casing:
   Total hole volume =  35.32 cubic meters
   Annular volume = 20.52 cubic meters, based on future casing size of 5.5 inches
   Average hole diameter = 8.49 inches (215.77 mm), based on XY caliper
------------------------------------------------------------------------------------------------
#
#          DEPT           CGXT           SMTU           GRGC           CCLG           NPRL           NPRL           CLDC           DCOR            DEN           PDPE           NPOR           NPOR           NPRS           NPRS           NPRD           NPRD           DPOR           DPOR           DPRL           DPRL           DPRS           DPRS           DPRD           DPRD           HDEN            BIT
#
~ASCII Log Data
# ...
          766.0      34.802231    1110.625000     125.566132      -2.679189      31.344767       0.313448       8.393881       0.011367       2.420780       3.341035      29.617489       0.296175      37.266333       0.372663      28.506478       0.285065      16.913440       0.169134      16.913440       0.169134      13.892110       0.138921      24.022449       0.240224       2.420828       8.500000
          766.1      34.785734    1111.250000     125.396229       0.675991      31.798204       0.317982       8.394144       0.011451       2.424354       3.381931      30.046546       0.300465      37.673750       0.376737      28.922694       0.289227      16.704440       0.167044      16.704440       0.167044      13.675510       0.136755      23.831332       0.238313       2.424546       8.500000
          766.2      34.803438    1111.250000     124.476658       1.497342      32.439287       0.324393       8.394202       0.011455       2.427346       3.417803      30.653122       0.306531      38.245405       0.382454      29.511338       0.295113      16.529482       0.165295      16.529482       0.165295      13.494190       0.134942      23.671344       0.236713       2.427472       8.500000
          766.3      34.791248    1110.625000     122.791576      -1.705991      33.225096       0.332251       8.394097       0.011188       2.427578       3.436149      31.396538       0.313965      38.941341       0.389413      30.233093       0.302331      16.515908       0.165159      16.515908       0.165159      13.480123       0.134801      23.658933       0.236589       2.427865       8.500000
          766.4      34.777002    1110.000000     121.394459      -1.257657      33.976454       0.339765       8.393705       0.010806       2.426032       3.435287      32.107251       0.321073      39.604855       0.396049      30.923306       0.309233      16.606333       0.166063      16.606333       0.166063      13.573836       0.135738      23.741620       0.237416       2.426273       8.500000
          766.5      34.765722    1110.000000     121.448563      -0.080815      34.424759       0.344248       8.393004       0.010446       2.423744       3.420384      32.531214       0.325312      39.999702       0.399997      31.335190       0.313352      16.740127       0.167401      16.740127       0.167401      13.712494       0.137125      23.863965       0.238640       2.423562       8.500000
          766.6      34.753294    1110.000000     122.553814       0.212087      34.454960       0.344550       8.392190       0.010211       2.422347       3.388884      32.559500       0.325595      40.025705       0.400257      31.362978       0.313630      16.821809       0.168218      16.821809       0.168218      13.797147       0.137971      23.938659       0.239387       2.422108       8.500000
          766.7      34.760000    1109.375000     123.447895       2.255070      34.076996       0.340770       8.391464       0.009964       2.421146       3.342468      32.201380       0.322014      39.691883       0.396919      31.015789       0.310158      16.892023       0.168920      16.892023       0.168920      13.869915       0.138699      24.002867       0.240029       2.421348       8.500000
          766.8      34.723907    1108.125000     122.865814       2.493246      33.495741       0.334957       8.390832       0.009812       2.420339       3.296851      31.650724       0.316507      39.179968       0.391800      30.481774       0.304818      16.939254       0.169393      16.939254       0.169393      13.918864       0.139189      24.046057       0.240461       2.421004       8.500000
          766.9      34.780357    1107.500000     121.286964      -1.210351      33.067520       0.330675       8.390234       0.009715       2.418406       3.268183      31.244710       0.312447      38.803261       0.388033      30.088330       0.300883      17.052308       0.170523      17.052308       0.170523      14.036028       0.140360      24.149437       0.241494       2.419134       8.500000
          767.0      34.829250    1106.250000     119.150230      -1.733377      33.272160       0.332722       8.389680       0.009695       2.415212       3.256472      31.436985       0.314370      38.978474       0.389785      30.276912       0.302769      17.239056       0.172391      17.239056       0.172391      14.229567       0.142296      24.320206       0.243202       2.415801       8.500000
          767.1      34.792604    1105.000000     117.110828      -0.149167      34.114170       0.341142       8.389127       0.009670       2.410250       3.265860      32.231948       0.322319      39.709007       0.397090      31.051702       0.310517      17.529229       0.175292      17.529229       0.175292      14.530292       0.145303      24.585551       0.245856       2.410643       8.500000
          767.2      34.813484    1105.000000     116.505962      -1.557632      35.143545       0.351435       8.388497       0.009775       2.405540       3.300414      33.204422       0.332044      40.604799       0.406048      31.998614       0.319986      17.804666       0.178047      17.804666       0.178047      14.815744       0.148157      24.837420       0.248374       2.405664       8.500000
          767.3      34.831516    1105.000000     119.088669      -1.064737      35.768003       0.357680       8.387812       0.010127       2.403312       3.344337      33.794449       0.337944      41.149298       0.411493      32.572920       0.325729      17.934958       0.179350      17.934958       0.179350      14.950775       0.149508      24.956566       0.249566       2.402899       8.500000
          767.4      34.806301    1105.625000     124.164089       1.820000      35.712034       0.357120       8.387238       0.010803       2.405877       3.371151      33.741243       0.337412      41.098717       0.410987      32.521559       0.325216      17.784949       0.177849      17.784949       0.177849      14.795312       0.147953      24.819392       0.248194       2.404837       8.500000
          767.5      34.781996    1106.250000     128.744965      -0.405789      34.935978       0.349360       8.386892       0.011504       2.411378       3.362468      33.007158       0.330072      40.417128       0.404171      31.808136       0.318081      17.463280       0.174633      17.463280       0.174633      14.461945       0.144619      24.525246       0.245252       2.410201       8.500000
          767.6      34.787285    1106.250000     131.233330      -3.615790      33.698149       0.336981       8.386737       0.011934       2.416899       3.328688      31.836624       0.318366      39.333174       0.393332      30.669920       0.306699      17.140397       0.171404      17.140397       0.171404      14.127321       0.141273      24.229989       0.242300       2.416251       8.500000
          767.7      34.803394    1107.500000     131.309174       0.072456      32.569033       0.325690       8.386678       0.011949       2.419961       3.292673      30.769005       0.307690      38.346516       0.383465      29.631501       0.296315      16.961318       0.169613      16.961318       0.169613      13.941730       0.139417      24.066232       0.240662       2.419853       8.500000
          767.8      34.801458    1109.375000     128.479092       2.972456      31.983763       0.319838       8.386650       0.011550       2.418946       3.262353      30.215547       0.302155      37.836243       0.378362      29.093193       0.290932      17.020686       0.170207      17.020686       0.170207      14.003256       0.140033      24.120521       0.241205       2.419399       8.500000
          767.9      34.786705    1110.000000     124.045567      -1.713333      31.931264       0.319313       8.386638       0.010954       2.414648       3.233395      30.165931       0.301659      37.792303       0.377923      29.044834       0.290448      17.272051       0.172721      17.272051       0.172721      14.263761       0.142638      24.350378       0.243504       2.415484       8.500000
