~Version Information
VERS .            2.00                          : CWLS Log ASCII Standard - Version 2.00
WRAP .            NO                            : One line per depth step
#
~Well Information
#MNEM.UNIT        DATA                          : DESCRIPTION
#----.----        ----                          : -----------
STRT .M            240.0                        : Start
STOP .M           1227.7                        : Stop
STEP .M              0.1                        : Step increment
NULL .            -999.250                      : Null value
COMP .            S.N.G.N. ROMGAZ S.A.          : Company
WELL .            209 NADES                     : Well
FLD  .            NADES                         : Field
PROV .            MURES                         : Province
CTRY .            Romania                       : State / Country
LOC  .            X = 529925.187 m              : Location
LOC2 .            Y = 477271.675 m              : Location 2
SRVC .            Weatherford                   : Service company
UWI  .                                          : Unique Well ID
LATI .            46 16'07.03" N                : Latitude
LONG .            24 42'12.69" E                : Longitude
UTME .                                          : Universal Transverse Mercator Easting
UTMN .                                          : Universal Transverse Mercator Northing
X    .                                          : X
Y    .                                          : Y
DATE .            04-Sep-2024                   : Logging Date
#
~Curve Information
#MNEM.UNIT        API CODES                     : CURVE DESCRIPTION
#----.----        ---------                     : -----------------
DEPT .M           00 001 00 00                  : Logged depth
CGXT .DEGC        30 660 01 00                  : MCG External Temperature
SMTU .LB          30 635 00 00                  : DST Uphole Tension
GRGC .GAPI        30 310 01 00                  : MCG Gamma Ray
CCLG .----        30 150 00 00                  : Casing Collar Locator
NPRL .PERC        42 890 01 00                  : Limestone Neutron Por.
NPRL .V/V         42 890 01 00                  : Limestone Neutron Por.
CLDC .IN          45 280 01 00                  : Density Caliper
DCOR .G/C3        42 356 01 00                  : Density Correction
DEN  .G/C3        42 350 01 00                  : Compensated Density
PDPE .B/E         45 358 01 00                  : PE
NPOR .PERC        42 890 04 00                  : Base Neutron Porosity
NPOR .V/V         42 890 04 00                  : Base Neutron Porosity
NPRS .PERC        42 890 03 00                  : Sandstone Neutron Por.
NPRS .V/V         42 890 03 00                  : Sandstone Neutron Por.
NPRD .PERC        42 890 02 00                  : Dolomite Neutron Por.
NPRD .V/V         42 890 02 00                  : Dolomite Neutron Por.
DPOR .PERC        45 890 13 00                  : Base Density Porosity
DPOR .V/V         45 890 13 00                  : Base Density Porosity
DPRL .PERC        45 890 10 00                  : Limestone Density Por.
DPRL .V/V         45 890 10 00                  : Limestone Density Por.
DPRS .PERC        45 890 12 00                  : Sandstone Density Por.
DPRS .V/V         45 890 12 00                  : Sandstone Density Por.
DPRD .PERC        45 890 11 00                  : Dolomite Density Por.
DPRD .V/V         45 890 11 00                  : Dolomite Density Por.
HDEN .G/C3        42 350 01 00                  : Vectar Processed Density
BIT  .IN          70 282 00 00                  : Bit size
#
~Parameter Information
#MNEM.UNIT        VALUE                         : DESCRIPTION
#----.----        -----                         : -----------
RNID .                                          : Run ID
SON  .            24220368                      : Job Number
DREF .            KB                            : Depth reference
EREF .M            484.710                      : Elevation of depth reference
GL   .M            480.210                      : Ground elevation
KB   .M            484.710                      : Kelly Bushing
DF   .M            484.710                      : Drill Floor
DDRF .            KB                            : Drilling Depth Reference
DERF .M            484.710                      : Elevation of Drilling Depth Reference
RUN  .            2A+2B                         : Run number
TDD  .M           1225.000                      : TD (driller)
TDL  .M           1226.000                      : TD (logger)
BS   .IN             8.500                      : Bit size
TIMC .                                          : Time circulation ended
TIML .                                          : Time logger at bottom
UNIT .            13347                         : Equipment ID
BASE .            PLO                           : Equipment base location
ENG  .            MALEA CRISTIAN                : Recording engineer
WIT  .            VASILE FARCAS                 : Witnessed by
CSGT .            SURFACE                       : Casing type
CSGS .IN            16.000                      : Casing size
CSGW .LB/FT          0.000                      : Casing weight
CSGD .M            250.000                      : Casing bottom (driller)
CSGL .M            249.500                      : Casing bottom (logger)
CSUP .M              0.000                      : Casing Stick Up GL
MUD  .            INHIBITIV                     : Mud type
MUDS .            FLOWLINE                      : Mud sample source
MUDD .G/C3           1.100                      : Mud density
MUDV .SEC/L         50.000                      : Mud viscosity
PH   .               9.500                      : Mud pH
FL   .ML/30MIN       4.100                      : Mud fluid loss rate
RM   .OHMM           0.150                      : Mud resistivity
RMT  .DEGC          25.000                      : Mud sample temperature
RMF  .OHMM           0.120                      : Mud filtrate resistivity
RMFT .DEGC          25.000                      : Mud filtrate sample temperature
RMC  .OHMM           0.180                      : Mud cake resistivity
RMCT .DEGC          25.000                      : Mud cake sample temperature
RMBT .OHMM           0.110                      : Mud Resistivity at BHT
BHT  .DEGC          39.000                      : Bottom Hole Temperature
TMAX .DEGC          39.000                      : Max recorded temperature
#
~Other Information
------------------------------------------------------------------------------------------------
Clients intervals and scales logged
Acquisition software: Weatherford Well Manager, version 24.03.1279
Cable used: CAMESA  size 15/32", type 7J46RXZ with  cable head and 8k weakpoint set
Depth wheel calibration factor used 0.6096
Depth Control Procedure for Multiple runs in the well followed.
Run2A: CBHC, MTAK, MBE, MBE, SHA, MCG, MBN, MTC-Y, MSS, MTC-X, SKJ, MUG, MLE, MLG, MTI, MGS,HFS 
Run2B: CBHC, MTAK, SHA, MCG, SKJ, MMR, MDN, MPD, HFS
Run2C: CBHC, MTAK, SHA, MCG, MISD, SKJ, MISE, SKJ, MISD, MSS, MISD, HFS logged in combination.
 Rm, Rmf, Rmc measured on samples from Mud Engineer given on 04.09.2024
Caliper measurements and averages from TD to casing:
   Total hole volume =  35.32 cubic meters
   Annular volume = 20.52 cubic meters, based on future casing size of 5.5 inches
   Average hole diameter = 8.49 inches (215.77 mm), based on XY caliper
------------------------------------------------------------------------------------------------
#
#          DEPT           CGXT           SMTU           GRGC           CCLG           NPRL           NPRL           CLDC           DCOR            DEN           PDPE           NPOR           NPOR           NPRS           NPRS           NPRD           NPRD           DPOR           DPOR           DPRL           DPRL           DPRS           DPRS           DPRD           DPRD           HDEN            BIT
#
~ASCII Log Data
# ...
          700.0      33.899300    1047.500000     122.111954       3.058904      34.694542       0.346945       8.403367       0.015667       2.445362       3.519938      32.831671       0.328317      40.225325       0.402253      31.583499       0.315835      15.475922       0.154759      15.475922       0.154759      12.402319       0.124023      22.707929       0.227079       2.444596       8.500000
          700.1      33.926630    1046.875000     125.237762      -1.304956      35.118525       0.351185       8.402353       0.014285       2.439247       3.477938      33.232321       0.332323      40.593119       0.405931      31.973514       0.319735      15.833501       0.158335      15.833501       0.158335      12.772901       0.127729      23.034913       0.230349       2.438332       8.500000
          700.2      33.953588    1046.250000     127.180943      -3.621822      35.675385       0.356754       8.401645       0.012858       2.432240       3.447103      33.758791       0.337588      41.078251       0.410783      32.485538       0.324855      16.243260       0.162433      16.243260       0.162433      13.197561       0.131976      23.409613       0.234096       2.431967       8.500000
          700.3      33.911133    1045.625000     127.818752       4.471292      36.269127       0.362691       8.401382       0.011395       2.423955       3.443708      34.320208       0.343202      41.593761       0.415938      33.031702       0.330317      16.727801       0.167278      16.727801       0.167278      13.699721       0.136997      23.852695       0.238527       2.424651       8.500000
          700.4      33.901922    1045.625000     127.962383       6.933664      36.754034       0.367540       8.401347       0.010567       2.418438       3.456804      34.778849       0.347788      42.011696       0.420117      33.478111       0.334781      17.050433       0.170504      17.050433       0.170504      14.034085       0.140341      24.147721       0.241477       2.419532       8.500000
          700.5      33.971397    1046.250000     127.628349      -1.449669      37.057026       0.370570       8.401312       0.010482       2.416725       3.481336      35.065575       0.350656      42.270775       0.422708      33.757277       0.337573      17.150561       0.171506      17.150561       0.171506      14.137855       0.141379      24.239284       0.242393       2.417599       8.500000
          700.6      33.940042    1046.250000     126.498646      -6.801703      37.167301       0.371673       8.401402       0.010866       2.417433       3.511455      35.169815       0.351698      42.364529       0.423645      33.858940       0.338589      17.109200       0.171092      17.109200       0.171092      14.094990       0.140950      24.201462       0.242015       2.417671       8.500000
          700.7      33.889538    1045.625000     124.742004      -9.913853      37.114834       0.371148       8.401165       0.011444       2.419443       3.538198      35.119656       0.351197      42.318949       0.423189      33.810682       0.338107      16.991657       0.169917      16.991657       0.169917      13.973172       0.139732      24.093975       0.240940       2.419081       8.500000
          700.8      33.882177    1045.625000     123.745583      -3.225490      36.805252       0.368053       8.399539       0.012183       2.423239       3.543774      34.825796       0.348258      42.051542       0.420515      33.525745       0.335257      16.769642       0.167696      16.769642       0.167696      13.743084       0.137431      23.890956       0.238910       2.422572       8.500000
          700.9      33.885485    1046.250000     123.624233       3.405388      36.152245       0.361522       8.396806       0.012895       2.427027       3.519885      34.206606       0.342066      41.487970       0.414880      32.924681       0.329247      16.548136       0.165481      16.548136       0.165481      13.513523       0.135135      23.688402       0.236884       2.427068       8.500000
          701.0      33.914230    1046.250000     124.642635      -0.544014      35.286751       0.352868       8.394367       0.013189       2.426458       3.477491      33.385950       0.333860      40.739283       0.407393      32.128240       0.321282      16.581396       0.165814      16.581396       0.165814      13.547993       0.135480      23.718817       0.237188       2.427391       8.500000
          701.1      33.906408    1046.250000     126.903999       0.034050      34.423067       0.344231       8.393333       0.013010       2.420528       3.431871      32.566992       0.325670      39.988951       0.399890      31.333823       0.313338      16.928177       0.169282      16.928177       0.169282      13.907383       0.139074      24.035927       0.240359       2.421340       8.500000
          701.2      33.915916    1046.250000     130.092373      -3.100552      33.673571       0.336736       8.393281       0.012602       2.411667       3.394943      31.856349       0.318563      39.332598       0.393326      30.644932       0.306449      17.446361       0.174464      17.446361       0.174464      14.444410       0.144444      24.509774       0.245098       2.411491       8.500000
          701.3      33.951235    1046.250000     133.052551      -8.108909      33.139557       0.331396       8.393280       0.012133       2.402844       3.383633      31.350108       0.313501      38.862226       0.388622      30.154288       0.301543      17.962356       0.179624      17.962356       0.179624      14.979169       0.149792      24.981620       0.249816       2.402187       8.500000
          701.4      33.919762    1046.250000     133.709351      -0.415687      32.874548       0.328745       8.393304       0.011489       2.394817       3.381532      31.098848       0.310988      38.626541       0.386265      29.910953       0.299110      18.431762       0.184318      18.431762       0.184318      15.465644       0.154656      25.410863       0.254109       2.393647       8.500000
          701.5      33.957808    1046.875000     131.795380       3.466657      32.787588       0.327876       8.393364       0.010745       2.389047       3.364862      31.016309       0.310163      38.548075       0.385481      29.831171       0.298312      18.769200       0.187692      18.769200       0.187692      15.815353       0.158154      25.719430       0.257194       2.387541       8.500000
          701.6      33.951443    1048.125000     128.123604       2.224683      32.711666       0.327117       8.393450       0.010112       2.386506       3.333269      30.944120       0.309441      38.479208       0.384792      29.761523       0.297615      18.917801       0.189178      18.917801       0.189178      15.969357       0.159694      25.855315       0.258553       2.386075       8.500000
          701.7      33.920593    1048.750000     123.416515       0.805088      32.698303       0.326983       8.393531       0.009694       2.385838       3.293556      30.931180       0.309312      38.465555       0.384656      29.749337       0.297493      18.956841       0.189568      18.956841       0.189568      16.009816       0.160098      25.891014       0.258910       2.387119       8.500000
          701.8      33.978683    1049.375000     117.697033      -3.967018      32.839966       0.328400       8.393563       0.009491       2.384555       3.247305      31.065080       0.310651      38.589787       0.385898      29.879501       0.298795      19.031900       0.190319      19.031900       0.190319      16.087605       0.160876      25.959652       0.259597       2.386543       8.500000
          701.9      33.999517    1049.375000     112.627880       2.149650      33.063524       0.330635       8.393554       0.009666       2.382658       3.206453      31.276655       0.312767      38.787964       0.387880      30.084805       0.300848      19.142828       0.191428      19.142828       0.191428      16.202567       0.162026      26.061089       0.260611       2.383957       8.500000
