~Version Information
VERS .            2.00                          : CWLS Log ASCII Standard - Version 2.00
WRAP .            NO                            : One line per depth step
#
~Well Information
#MNEM.UNIT        DATA                          : DESCRIPTION
#----.----        ----                          : -----------
STRT .M            240.0                        : Start
STOP .M           1228.5                        : Stop
STEP .M              0.1                        : Step increment
NULL .            -999.250                      : Null value
COMP .            S.N.G.N. ROMGAZ S.A.          : Company
WELL .            209 NADES                     : Well
FLD  .            NADES                         : Field
PROV .            MURES                         : Province
CTRY .            Romania                       : State / Country
LOC  .            X = 529925.187 m              : Location
LOC2 .            Y = 477271.675 m              : Location 2
SRVC .            Weatherford                   : Service company
UWI  .                                          : Unique Well ID
LATI .            46 16'07.03" N                : Latitude
LONG .            24 42'12.69" E                : Longitude
UTME .                                          : Universal Transverse Mercator Easting
UTMN .                                          : Universal Transverse Mercator Northing
X    .                                          : X
Y    .                                          : Y
DATE .            04-Sep-2024                   : Logging Date
#
~Curve Information
#MNEM.UNIT        API CODES                     : CURVE DESCRIPTION
#----.----        ---------                     : -----------------
DEPT .M           00 001 00 00                  : Logged depth
CGXT .DEGC        30 660 01 00                  : MCG External Temperature
SMTU .LB          30 635 00 00                  : DST Uphole Tension
GRGC .GAPI        30 310 01 00                  : MCG Gamma Ray
CCLG .----        30 150 00 00                  : Casing Collar Locator
TR21 .US          60 520 30 00                  : 3' Transit Time
TR11 .US          60 520 04 00                  : 4' Transit Time
TR22 .US          60 520 50 00                  : 5' Transit Time
TR12 .US          60 520 60 00                  : 6' Transit Time
DT35 .US/F        60 520 32 00                  : 3-5' Compensated Sonic
BIT  .IN          70 282 00 00                  : Bit size
#
~Parameter Information
#MNEM.UNIT        VALUE                         : DESCRIPTION
#----.----        -----                         : -----------
RNID .                                          : Run ID
SON  .            24220368                      : Job Number
DREF .            KB                            : Depth reference
EREF .M            484.710                      : Elevation of depth reference
GL   .M            480.210                      : Ground elevation
KB   .M            484.710                      : Kelly Bushing
DF   .M            484.710                      : Drill Floor
DDRF .            KB                            : Drilling Depth Reference
DERF .M            484.710                      : Elevation of Drilling Depth Reference
RUN  .            2A+2B                         : Run number
TDD  .M           1225.000                      : TD (driller)
TDL  .M           1226.000                      : TD (logger)
BS   .IN             8.500                      : Bit size
TIMC .                                          : Time circulation ended
TIML .                                          : Time logger at bottom
UNIT .            13347                         : Equipment ID
BASE .            PLO                           : Equipment base location
ENG  .            MALEA CRISTIAN                : Recording engineer
WIT  .            VASILE FARCAS                 : Witnessed by
CSGT .            SURFACE                       : Casing type
CSGS .IN            16.000                      : Casing size
CSGW .LB/FT          0.000                      : Casing weight
CSGD .M            250.000                      : Casing bottom (driller)
CSGL .M            249.500                      : Casing bottom (logger)
CSUP .M              0.000                      : Casing Stick Up GL
MUD  .            INHIBITIV                     : Mud type
MUDS .            FLOWLINE                      : Mud sample source
MUDD .G/C3           1.100                      : Mud density
MUDV .SEC/L         50.000                      : Mud viscosity
PH   .               9.500                      : Mud pH
FL   .ML/30MIN       4.100                      : Mud fluid loss rate
RM   .OHMM           0.150                      : Mud resistivity
RMT  .DEGC          25.000                      : Mud sample temperature
RMF  .OHMM           0.120                      : Mud filtrate resistivity
RMFT .DEGC          25.000                      : Mud filtrate sample temperature
RMC  .OHMM           0.180                      : Mud cake resistivity
RMCT .DEGC          25.000                      : Mud cake sample temperature
RMBT .OHMM           0.110                      : Mud Resistivity at BHT
BHT  .DEGC          39.000                      : Bottom Hole Temperature
TMAX .DEGC          39.000                      : Max recorded temperature
#
~Other Information
------------------------------------------------------------------------------------------------
Clients intervals and scales logged
Acquisition software: Weatherford Well Manager, version 24.03.1279
Cable used: CAMESA  size 15/32", type 7J46RXZ with  cable head and 8k weakpoint set
Depth wheel calibration factor used 0.6096
Depth Control Procedure for Multiple runs in the well followed.
Run2A: CBHC, MTAK, MBE, MBE, SHA, MCG, MBN, MTC-Y, MSS, MTC-X, SKJ, MUG, MLE, MLG, MTI, MGS,HFS 
Run2B: CBHC, MTAK, SHA, MCG, SKJ, MMR, MDN, MPD, HFS
Run2C: CBHC, MTAK, SHA, MCG, MISD, SKJ, MISE, SKJ, MISD, MSS, MISD, HFS logged in combination.
 Rm, Rmf, Rmc measured on samples from Mud Engineer given on 04.09.2024
Caliper measurements and averages from TD to casing:
   Total hole volume =  35.32 cubic meters
   Annular volume = 20.52 cubic meters, based on future casing size of 5.5 inches
   Average hole diameter = 8.49 inches (215.77 mm), based on XY caliper
------------------------------------------------------------------------------------------------
#
#          DEPT           CGXT           SMTU           GRGC           CCLG           TR21           TR11           TR22           TR12           DT35            BIT
#
~ASCII Log Data
# ...
          754.5      34.958931    1549.999878     105.072639       3.829415     434.750885     543.565430     649.045410     751.598450     107.596031       8.500000
          754.6      35.112156    1548.749878      98.501144       5.852930     435.750885     542.091431     646.146606     752.970764     106.767868       8.500000
          754.7      34.976067    1547.499878      93.097214      -6.241577     431.750885     540.084229     645.678040     752.855286     106.275055       8.500000
          754.8      35.165745    1546.249878      90.336517       1.284056     428.750885     538.311035     643.729370     752.499329     106.180435       8.500000
          754.9      35.043159    1544.999878      93.961647       3.207331     425.750885     535.558350     643.310181     752.499329     106.217537       8.500000
          755.0      35.046318    1543.749878      97.437126      -4.130136     424.060272     531.307617     642.072205     754.367371     106.073158       8.500000
          755.1      35.162319    1543.749878     100.954552      -8.849316     423.750885     530.444336     641.229553     753.957947     105.606369       8.500000
          755.2      35.074512    1542.499878     100.514229      -4.623288     427.954926     529.277893     638.582764     750.859131     105.023163       8.500000
          755.3      35.058418    1542.499878     100.305710      -3.390411     427.750885     531.750854     637.219055     745.016296     104.605194       8.500000
          755.4      34.977947    1542.499878      97.167969      -0.828304     425.009338     535.184814     635.334229     742.024475     104.562920       8.500000
          755.5      34.970852    1542.499878      95.575050       4.302666     424.016174     533.612915     636.969238     741.224060     104.925491       8.500000
          755.6      34.918545    1543.749878      95.059921       4.972140     422.255463     528.132751     636.940735     739.396729     105.509499       8.500000
          755.7      34.959347    1544.999878      98.006203       3.101444     422.750885     525.022278     630.801453     740.798157     105.963203       8.500000
          755.8      34.963490    1544.999878      99.569458      -6.250856     422.216095     524.325317     627.009583     740.193604     106.012550       8.500000
          755.9      35.056751    1546.249878      99.524994      -4.842465     424.750885     523.368774     626.176880     738.489014     105.537994       8.500000
          756.0      35.039196    1546.249878      96.959518       5.326199     422.142914     524.090393     627.506836     737.648804     104.677589       8.500000
          756.1      34.890350    1544.999878      93.439697       4.766171     419.750885     526.257324     630.543335     734.657043     103.718513       8.500000
          756.2      34.949543    1546.249878      90.190575      -5.452055     418.238098     525.507996     631.923279     737.540222     102.975296       8.500000
          756.3      35.100445    1546.249878      88.046173      -4.062500     417.212799     525.820496     632.197510     740.587830     102.623314       8.500000
          756.4      35.098148    1548.749878      86.187675       6.512681     417.064758     523.413818     633.018311     743.547180     102.676712       8.500000
          756.5      34.939796    1548.749878      86.860153       3.083334     417.064972     523.276428     632.362366     742.523132     103.062355       8.500000
          756.6      34.928204    1546.249878      86.661125       0.513513     418.032410     523.370605     631.580322     744.169067     103.613274       8.500000
          756.7      35.072010    1546.249878      86.682907      -2.451389     420.750885     523.663147     631.589600     745.449158     104.220078       8.500000
          756.8      35.000538    1546.249878      85.378487      -0.372560     423.168854     525.419189     633.247498     746.862000     104.782227       8.500000
          756.9      35.114243    1547.499878      87.137039       8.342466     425.750885     527.336243     637.267944     745.704163     105.336273       8.500000
          757.0      34.988617    1548.749878      89.961281      -5.654467     427.148956     532.014771     640.037109     741.625366     105.890556       8.500000
          757.1      35.078716    1548.749878      93.959373      -5.720844     425.750885     537.074524     639.016663     739.297058     106.548050       8.500000
          757.2      35.209351    1547.499878      95.839134       2.898093     430.750885     539.097290     636.837585     741.978821     107.264938       8.500000
          757.3      34.980240    1547.499878      97.232033       0.741391     434.750885     532.605896     639.429626     746.037720     107.831741       8.500000
          757.4      35.066822    1547.499878      98.669121       7.473528     430.054504     529.966309     638.462219     747.714172     108.050507       8.500000
          757.5      35.005367    1546.249878      99.457039       0.123288     427.750885     532.915283     638.783936     750.322327     107.828331       8.500000
          757.6      35.062412    1546.249878     100.236671      -2.905035     428.927338     534.246765     641.841125     749.935486     107.206673       8.500000
          757.7      35.249107    1543.749878      99.726166      -0.458904     426.982056     535.981079     644.788757     751.996399     106.273422       8.500000
          757.8      35.101070    1542.499878      99.198738      -7.500370     427.297058     537.713989     648.645935     754.677856     105.414177       8.500000
          757.9      35.112545    1542.499878      96.864647      -3.630136     429.816956     537.056519     650.122986     754.262207     105.068916       8.500000
          758.0      35.023518    1542.499878      93.884590       5.178452     430.179047     539.390869     646.051636     758.265442     105.466675       8.500000
          758.1      34.986946    1541.249878      92.968346       7.291928     429.240753     541.701660     647.684448     759.563354     106.389877       8.500000
          758.2      34.969810    1541.249878      94.949509      -2.979452     431.283630     538.234253     650.365051     755.584229     107.526077       8.500000
          758.3      35.054455    1542.499878      99.713692      -4.500000     434.750885     537.085449     647.707947     755.354431     108.561668       8.500000
          758.4      35.083931    1542.499878     103.971313       3.547945     435.750885     539.191833     644.047546     758.128784     109.231880       8.500000
          758.5      35.024143    1543.749878     106.637367      -0.385135     436.100006     541.743652     647.065857     758.647827     109.385704       8.500000
          758.6      35.011597    1544.999878     106.797432      -5.972603     436.750885     541.797546     651.956299     758.502869     109.172714       8.500000
          758.7      35.127415    1546.249878     104.984230       1.581080     436.750885     542.771057     654.404724     758.950867     108.890549       8.500000
          758.8      35.025784    1547.499878     102.079475       5.595891     435.750885     545.965637     653.228577     760.425293     108.773598       8.500000
          758.9      34.945755    1548.749878      99.690285      -0.104313     434.792877     548.013306     653.080078     759.912170     108.825294       8.500000
          759.0      35.125748    1547.499878      98.232216       2.400037     435.131683     544.838318     652.027161     763.037720     108.972824       8.500000
          759.1      35.117550    1548.749878      97.566513      -2.643835     435.750885     541.267151     653.804504     767.822327     109.116730       8.500000
          759.2      35.103157    1548.749878      97.488640       1.257497     435.269867     538.405090     654.496887     771.321167     109.158546       8.500000
          759.3      35.096272    1548.749878      96.443871       3.260274     432.750885     543.250854     656.224854     774.163757     109.136314       8.500000
