~Version Information
VERS .            2.00                          : CWLS Log ASCII Standard - Version 2.00
WRAP .            NO                            : One line per depth step
#
~Well Information
#MNEM.UNIT        DATA                          : DESCRIPTION
#----.----        ----                          : -----------
STRT .M            240.0                        : Start
STOP .M           1227.7                        : Stop
STEP .M              0.1                        : Step increment
NULL .            -999.250                      : Null value
COMP .            S.N.G.N. ROMGAZ S.A.          : Company
WELL .            209 NADES                     : Well
FLD  .            NADES                         : Field
PROV .            MURES                         : Province
CTRY .            Romania                       : State / Country
LOC  .            X = 529925.187 m              : Location
LOC2 .            Y = 477271.675 m              : Location 2
SRVC .            Weatherford                   : Service company
UWI  .                                          : Unique Well ID
LATI .            46 16'07.03" N                : Latitude
LONG .            24 42'12.69" E                : Longitude
UTME .                                          : Universal Transverse Mercator Easting
UTMN .                                          : Universal Transverse Mercator Northing
X    .                                          : X
Y    .                                          : Y
DATE .            04-Sep-2024                   : Logging Date
#
~Curve Information
#MNEM.UNIT        API CODES                     : CURVE DESCRIPTION
#----.----        ---------                     : -----------------
DEPT .M           00 001 00 00                  : Logged depth
CGXT .DEGC        30 660 01 00                  : MCG External Temperature
SMTU .LB          30 635 00 00                  : DST Uphole Tension
GRGC .GAPI        30 310 01 00                  : MCG Gamma Ray
CCLG .----        30 150 00 00                  : Casing Collar Locator
NPRL .PERC        42 890 01 00                  : Limestone Neutron Por.
NPRL .V/V         42 890 01 00                  : Limestone Neutron Por.
CLDC .IN          45 280 01 00                  : Density Caliper
DCOR .G/C3        42 356 01 00                  : Density Correction
DEN  .G/C3        42 350 01 00                  : Compensated Density
PDPE .B/E         45 358 01 00                  : PE
NPOR .PERC        42 890 04 00                  : Base Neutron Porosity
NPOR .V/V         42 890 04 00                  : Base Neutron Porosity
NPRS .PERC        42 890 03 00                  : Sandstone Neutron Por.
NPRS .V/V         42 890 03 00                  : Sandstone Neutron Por.
NPRD .PERC        42 890 02 00                  : Dolomite Neutron Por.
NPRD .V/V         42 890 02 00                  : Dolomite Neutron Por.
DPOR .PERC        45 890 13 00                  : Base Density Porosity
DPOR .V/V         45 890 13 00                  : Base Density Porosity
DPRL .PERC        45 890 10 00                  : Limestone Density Por.
DPRL .V/V         45 890 10 00                  : Limestone Density Por.
DPRS .PERC        45 890 12 00                  : Sandstone Density Por.
DPRS .V/V         45 890 12 00                  : Sandstone Density Por.
DPRD .PERC        45 890 11 00                  : Dolomite Density Por.
DPRD .V/V         45 890 11 00                  : Dolomite Density Por.
HDEN .G/C3        42 350 01 00                  : Vectar Processed Density
BIT  .IN          70 282 00 00                  : Bit size
#
~Parameter Information
#MNEM.UNIT        VALUE                         : DESCRIPTION
#----.----        -----                         : -----------
RNID .                                          : Run ID
SON  .            24220368                      : Job Number
DREF .            KB                            : Depth reference
EREF .M            484.710                      : Elevation of depth reference
GL   .M            480.210                      : Ground elevation
KB   .M            484.710                      : Kelly Bushing
DF   .M            484.710                      : Drill Floor
DDRF .            KB                            : Drilling Depth Reference
DERF .M            484.710                      : Elevation of Drilling Depth Reference
RUN  .            2A+2B                         : Run number
TDD  .M           1225.000                      : TD (driller)
TDL  .M           1226.000                      : TD (logger)
BS   .IN             8.500                      : Bit size
TIMC .                                          : Time circulation ended
TIML .                                          : Time logger at bottom
UNIT .            13347                         : Equipment ID
BASE .            PLO                           : Equipment base location
ENG  .            MALEA CRISTIAN                : Recording engineer
WIT  .            VASILE FARCAS                 : Witnessed by
CSGT .            SURFACE                       : Casing type
CSGS .IN            16.000                      : Casing size
CSGW .LB/FT          0.000                      : Casing weight
CSGD .M            250.000                      : Casing bottom (driller)
CSGL .M            249.500                      : Casing bottom (logger)
CSUP .M              0.000                      : Casing Stick Up GL
MUD  .            INHIBITIV                     : Mud type
MUDS .            FLOWLINE                      : Mud sample source
MUDD .G/C3           1.100                      : Mud density
MUDV .SEC/L         50.000                      : Mud viscosity
PH   .               9.500                      : Mud pH
FL   .ML/30MIN       4.100                      : Mud fluid loss rate
RM   .OHMM           0.150                      : Mud resistivity
RMT  .DEGC          25.000                      : Mud sample temperature
RMF  .OHMM           0.120                      : Mud filtrate resistivity
RMFT .DEGC          25.000                      : Mud filtrate sample temperature
RMC  .OHMM           0.180                      : Mud cake resistivity
RMCT .DEGC          25.000                      : Mud cake sample temperature
RMBT .OHMM           0.110                      : Mud Resistivity at BHT
BHT  .DEGC          39.000                      : Bottom Hole Temperature
TMAX .DEGC          39.000                      : Max recorded temperature
#
~Other Information
------------------------------------------------------------------------------------------------
Clients intervals and scales logged
Acquisition software: Weatherford Well Manager, version 24.03.1279
Cable used: CAMESA  size 15/32", type 7J46RXZ with  cable head and 8k weakpoint set
Depth wheel calibration factor used 0.6096
Depth Control Procedure for Multiple runs in the well followed.
Run2A: CBHC, MTAK, MBE, MBE, SHA, MCG, MBN, MTC-Y, MSS, MTC-X, SKJ, MUG, MLE, MLG, MTI, MGS,HFS 
Run2B: CBHC, MTAK, SHA, MCG, SKJ, MMR, MDN, MPD, HFS
Run2C: CBHC, MTAK, SHA, MCG, MISD, SKJ, MISE, SKJ, MISD, MSS, MISD, HFS logged in combination.
 Rm, Rmf, Rmc measured on samples from Mud Engineer given on 04.09.2024
Caliper measurements and averages from TD to casing:
   Total hole volume =  35.32 cubic meters
   Annular volume = 20.52 cubic meters, based on future casing size of 5.5 inches
   Average hole diameter = 8.49 inches (215.77 mm), based on XY caliper
------------------------------------------------------------------------------------------------
#
#          DEPT           CGXT           SMTU           GRGC           CCLG           NPRL           NPRL           CLDC           DCOR            DEN           PDPE           NPOR           NPOR           NPRS           NPRS           NPRD           NPRD           DPOR           DPOR           DPRL           DPRL           DPRS           DPRS           DPRD           DPRD           HDEN            BIT
#
~ASCII Log Data
# ...
          568.0      32.162878     909.374939     123.807877      -2.266667      33.038786       0.330388       8.407110       0.013898       2.417971       3.337169      31.339404       0.313394      38.748726       0.387487      30.062259       0.300623      17.077746       0.170777      17.077746       0.170777      14.062392       0.140624      24.172699       0.241727       2.418505       8.500000
          568.1      32.144146     909.999939     123.537388      -1.447017      32.989611       0.329896       8.410439       0.013137       2.415125       3.360837      31.295170       0.312952      38.704538       0.387045      30.017115       0.300171      17.244159       0.172442      17.244159       0.172442      14.234855       0.142349      24.324872       0.243249       2.416431       8.500000
          568.2      32.111986     910.624939     124.018276       0.832983      33.001001       0.330010       8.413394       0.013060       2.414532       3.410221      31.308394       0.313084      38.714703       0.387147      30.027556       0.300276      17.278841       0.172788      17.278841       0.172788      14.270798       0.142708      24.356586       0.243566       2.415278       8.500000
          568.3      32.110407     911.249939     124.401711       1.296667      33.101614       0.331016       8.415076       0.013051       2.413541       3.460678      31.405835       0.314058      38.804190       0.388042      30.119929       0.301199      17.336793       0.173368      17.336793       0.173368      14.330858       0.143309      24.409580       0.244096       2.412828       8.500000
          568.4      32.092108     911.249939     123.530857       0.383860      33.402191       0.334022       8.415514       0.012863       2.411798       3.504931      31.692250       0.316923      39.070395       0.390704      30.395982       0.303960      17.438706       0.174387      17.438706       0.174387      14.436478       0.144365      24.502774       0.245028       2.410625       8.500000
          568.5      32.085997     911.249939     122.650352      -0.277325      33.926590       0.339266       8.415374       0.012053       2.407048       3.530674      32.190241       0.321902      39.534157       0.395342      30.877645       0.308776      17.716506       0.177165      17.716506       0.177165      14.724379       0.147244      24.756805       0.247568       2.406639       8.500000
          568.6      32.115191     911.249939     121.904045       0.391447      34.374277       0.343743       8.415141       0.010810       2.400507       3.520660      32.614826       0.326148      39.929668       0.399297      31.288881       0.312889      18.098993       0.180990      18.098993       0.180990      15.120775       0.151208      25.106566       0.251066       2.400778       8.500000
          568.7      32.146307     911.249939     120.827442       0.492695      34.453634       0.344536       8.414919       0.009792       2.395604       3.487623      32.689384       0.326894      39.999308       0.399993      31.361820       0.313618      18.385744       0.183857      18.385744       0.183857      15.417953       0.154180      25.368782       0.253688       2.396476       8.500000
          568.8      32.165770     911.249939     119.923550      -0.429761      34.169392       0.341694       8.414774       0.009514       2.394086       3.452956      32.418129       0.324181      39.747736       0.397477      31.100780       0.311008      18.474496       0.184745      18.474496       0.184745      15.509932       0.155099      25.449940       0.254499       2.396004       8.500000
          568.9      32.138439     910.624939     119.806873      -1.398704      33.868322       0.338683       8.414299       0.010068       2.395039       3.422376      32.129715       0.321297      39.480282       0.394803      30.824377       0.308244      18.418788       0.184188      18.418788       0.184188      15.452199       0.154522      25.398998       0.253990       2.397210       8.500000
          569.0      32.128201     910.624939     120.604595      -0.708397      33.778126       0.337781       8.411036       0.010878       2.393976       3.383491      32.040180       0.320402      39.397718       0.393977      30.741768       0.307418      18.480930       0.184809      18.480930       0.184809      15.516600       0.155166      25.455824       0.254558       2.394668       8.500000
          569.1      32.143877     911.249939     121.062344       2.580833      33.912308       0.339123       8.402115       0.011675       2.390314       3.341349      32.163155       0.321632      39.513294       0.395133      30.865253       0.308653      18.695075       0.186951      18.695075       0.186951      15.738532       0.157385      25.651646       0.256516       2.389417       8.500000
          569.2      32.120182     911.249939     121.787689       1.355746      34.108852       0.341089       8.390950       0.012441       2.386299       3.297236      32.346369       0.323464      39.684923       0.396849      31.045931       0.310459      18.929868       0.189299      18.929868       0.189299      15.981863       0.159819      25.866350       0.258664       2.384376       8.500000
          569.3      32.130495     911.249939     123.507244      -2.372193      34.231417       0.342314       8.386364       0.013204       2.385501       3.270627      32.461775       0.324618      39.792294       0.397923      31.158554       0.311586      18.976576       0.189766      18.976576       0.189766      16.030270       0.160303      25.909061       0.259091       2.383297       8.500000
          569.4      32.142536     911.874939     125.442295      -0.096798      34.106556       0.341066       8.392542       0.013663       2.387786       3.275234      32.345200       0.323452      39.682907       0.396829      31.043770       0.310438      18.842916       0.188429      18.842916       0.188429      15.891748       0.158917      25.786837       0.257868       2.385988       8.500000
          569.5      32.108231     913.124939     126.956089       1.849008      33.688349       0.336883       8.404279       0.013690       2.392384       3.296733      31.952569       0.319526      39.316862       0.393169      30.659361       0.306594      18.574025       0.185740      18.574025       0.185740      15.613081       0.156131      25.540954       0.255410       2.391634       8.500000
          569.6      32.112494     913.749939     129.096619       0.784705      33.135225       0.331352       8.413695       0.013291       2.396726       3.330573      31.432876       0.314329      38.832533       0.388325      30.150980       0.301510      18.320095       0.183201      18.320095       0.183201      15.349917       0.153499      25.308750       0.253088       2.397262       8.500000
          569.7      32.167543     913.749939     131.696671       0.952522      32.758881       0.327589       8.418453       0.012534       2.398558       3.381239      31.080355       0.310804      38.503300       0.385033      29.805073       0.298051      18.213009       0.182130      18.213009       0.182130      15.238937       0.152389      25.210826       0.252108       2.399735       8.500000
          569.8      32.157484     913.749939     133.103508      -0.235187      32.698439       0.326984       8.420292       0.011493       2.396066       3.440007      31.026081       0.310261      38.451277       0.384513      29.749475       0.297495      18.358730       0.183587      18.358730       0.183587      15.389957       0.153900      25.344079       0.253441       2.397414       8.500000
          569.9      32.124847     913.749939     132.731842      -1.407890      32.852396       0.328524       8.420706       0.010654       2.391253       3.491997      31.173800       0.311738      38.588020       0.385880      29.890844       0.298908      18.640190       0.186402      18.640190       0.186402      15.681651       0.156817      25.601457       0.256015       2.392696       8.500000
