~Version Information
VERS .            2.00                          : CWLS Log ASCII Standard - Version 2.00
WRAP .            NO                            : One line per depth step
#
~Well Information
#MNEM.UNIT        DATA                          : DESCRIPTION
#----.----        ----                          : -----------
STRT .M            240.0                        : Start
STOP .M           1227.7                        : Stop
STEP .M              0.1                        : Step increment
NULL .            -999.250                      : Null value
COMP .            S.N.G.N. ROMGAZ S.A.          : Company
WELL .            209 NADES                     : Well
FLD  .            NADES                         : Field
PROV .            MURES                         : Province
CTRY .            Romania                       : State / Country
LOC  .            X = 529925.187 m              : Location
LOC2 .            Y = 477271.675 m              : Location 2
SRVC .            Weatherford                   : Service company
UWI  .                                          : Unique Well ID
LATI .            46 16'07.03" N                : Latitude
LONG .            24 42'12.69" E                : Longitude
UTME .                                          : Universal Transverse Mercator Easting
UTMN .                                          : Universal Transverse Mercator Northing
X    .                                          : X
Y    .                                          : Y
DATE .            04-Sep-2024                   : Logging Date
#
~Curve Information
#MNEM.UNIT        API CODES                     : CURVE DESCRIPTION
#----.----        ---------                     : -----------------
DEPT .M           00 001 00 00                  : Logged depth
CGXT .DEGC        30 660 01 00                  : MCG External Temperature
SMTU .LB          30 635 00 00                  : DST Uphole Tension
GRGC .GAPI        30 310 01 00                  : MCG Gamma Ray
CCLG .----        30 150 00 00                  : Casing Collar Locator
NPRL .PERC        42 890 01 00                  : Limestone Neutron Por.
NPRL .V/V         42 890 01 00                  : Limestone Neutron Por.
CLDC .IN          45 280 01 00                  : Density Caliper
DCOR .G/C3        42 356 01 00                  : Density Correction
DEN  .G/C3        42 350 01 00                  : Compensated Density
PDPE .B/E         45 358 01 00                  : PE
NPOR .PERC        42 890 04 00                  : Base Neutron Porosity
NPOR .V/V         42 890 04 00                  : Base Neutron Porosity
NPRS .PERC        42 890 03 00                  : Sandstone Neutron Por.
NPRS .V/V         42 890 03 00                  : Sandstone Neutron Por.
NPRD .PERC        42 890 02 00                  : Dolomite Neutron Por.
NPRD .V/V         42 890 02 00                  : Dolomite Neutron Por.
DPOR .PERC        45 890 13 00                  : Base Density Porosity
DPOR .V/V         45 890 13 00                  : Base Density Porosity
DPRL .PERC        45 890 10 00                  : Limestone Density Por.
DPRL .V/V         45 890 10 00                  : Limestone Density Por.
DPRS .PERC        45 890 12 00                  : Sandstone Density Por.
DPRS .V/V         45 890 12 00                  : Sandstone Density Por.
DPRD .PERC        45 890 11 00                  : Dolomite Density Por.
DPRD .V/V         45 890 11 00                  : Dolomite Density Por.
HDEN .G/C3        42 350 01 00                  : Vectar Processed Density
BIT  .IN          70 282 00 00                  : Bit size
#
~Parameter Information
#MNEM.UNIT        VALUE                         : DESCRIPTION
#----.----        -----                         : -----------
RNID .                                          : Run ID
SON  .            24220368                      : Job Number
DREF .            KB                            : Depth reference
EREF .M            484.710                      : Elevation of depth reference
GL   .M            480.210                      : Ground elevation
KB   .M            484.710                      : Kelly Bushing
DF   .M            484.710                      : Drill Floor
DDRF .            KB                            : Drilling Depth Reference
DERF .M            484.710                      : Elevation of Drilling Depth Reference
RUN  .            2A+2B                         : Run number
TDD  .M           1225.000                      : TD (driller)
TDL  .M           1226.000                      : TD (logger)
BS   .IN             8.500                      : Bit size
TIMC .                                          : Time circulation ended
TIML .                                          : Time logger at bottom
UNIT .            13347                         : Equipment ID
BASE .            PLO                           : Equipment base location
ENG  .            MALEA CRISTIAN                : Recording engineer
WIT  .            VASILE FARCAS                 : Witnessed by
CSGT .            SURFACE                       : Casing type
CSGS .IN            16.000                      : Casing size
CSGW .LB/FT          0.000                      : Casing weight
CSGD .M            250.000                      : Casing bottom (driller)
CSGL .M            249.500                      : Casing bottom (logger)
CSUP .M              0.000                      : Casing Stick Up GL
MUD  .            INHIBITIV                     : Mud type
MUDS .            FLOWLINE                      : Mud sample source
MUDD .G/C3           1.100                      : Mud density
MUDV .SEC/L         50.000                      : Mud viscosity
PH   .               9.500                      : Mud pH
FL   .ML/30MIN       4.100                      : Mud fluid loss rate
RM   .OHMM           0.150                      : Mud resistivity
RMT  .DEGC          25.000                      : Mud sample temperature
RMF  .OHMM           0.120                      : Mud filtrate resistivity
RMFT .DEGC          25.000                      : Mud filtrate sample temperature
RMC  .OHMM           0.180                      : Mud cake resistivity
RMCT .DEGC          25.000                      : Mud cake sample temperature
RMBT .OHMM           0.110                      : Mud Resistivity at BHT
BHT  .DEGC          39.000                      : Bottom Hole Temperature
TMAX .DEGC          39.000                      : Max recorded temperature
#
~Other Information
------------------------------------------------------------------------------------------------
Clients intervals and scales logged
Acquisition software: Weatherford Well Manager, version 24.03.1279
Cable used: CAMESA  size 15/32", type 7J46RXZ with  cable head and 8k weakpoint set
Depth wheel calibration factor used 0.6096
Depth Control Procedure for Multiple runs in the well followed.
Run2A: CBHC, MTAK, MBE, MBE, SHA, MCG, MBN, MTC-Y, MSS, MTC-X, SKJ, MUG, MLE, MLG, MTI, MGS,HFS 
Run2B: CBHC, MTAK, SHA, MCG, SKJ, MMR, MDN, MPD, HFS
Run2C: CBHC, MTAK, SHA, MCG, MISD, SKJ, MISE, SKJ, MISD, MSS, MISD, HFS logged in combination.
 Rm, Rmf, Rmc measured on samples from Mud Engineer given on 04.09.2024
Caliper measurements and averages from TD to casing:
   Total hole volume =  35.32 cubic meters
   Annular volume = 20.52 cubic meters, based on future casing size of 5.5 inches
   Average hole diameter = 8.49 inches (215.77 mm), based on XY caliper
------------------------------------------------------------------------------------------------
#
#          DEPT           CGXT           SMTU           GRGC           CCLG           NPRL           NPRL           CLDC           DCOR            DEN           PDPE           NPOR           NPOR           NPRS           NPRS           NPRD           NPRD           DPOR           DPOR           DPRL           DPRL           DPRS           DPRS           DPRD           DPRD           HDEN            BIT
#
~ASCII Log Data
# ...
          306.0      29.509814     658.749939      58.282797      -0.652814      29.606120       0.296061       8.431639       0.005133       2.218475       2.651547      28.197992       0.281980      35.619642       0.356196      26.912015       0.269120      28.744166       0.287442      28.744166       0.287442      26.153046       0.261530      34.840923       0.348409       2.218470       8.500000
          306.1      29.530231     658.749939      57.259583      -0.499167      30.001465       0.300015       8.434371       0.004798       2.219680       2.661154      28.577212       0.285772      35.984713       0.359847      27.274762       0.272748      28.673666       0.286737      28.673666       0.286737      26.079981       0.260800      34.776453       0.347765       2.219892       8.500000
          306.2      29.542912     659.374939      55.823767       0.622093      30.261033       0.302610       8.439335       0.004733       2.223328       2.671112      28.827643       0.288276      36.224205       0.362242      27.512925       0.275129      28.460359       0.284604      28.460359       0.284604      25.858916       0.258589      34.581396       0.345814       2.223553       8.500000
          306.3      29.520693     659.374939      54.453266       0.002837      30.365118       0.303651       8.445042       0.004718       2.227135       2.678036      28.929976       0.289300      36.319426       0.363194      27.608431       0.276084      28.237737       0.282377      28.237737       0.282377      25.628200       0.256282      34.377823       0.343778       2.227063       8.500000
          306.4      29.508517     658.749939      54.911655      -1.123199      30.494718       0.304947       8.449284       0.004804       2.232342       2.670231      29.056329       0.290563      36.436453       0.364365      27.727366       0.277274      27.933244       0.279332      27.933244       0.279332      25.312634       0.253126      34.099382       0.340994       2.231881       8.500000
          306.5      29.523777     658.749939      57.712048       0.014101      30.710850       0.307108       8.451097       0.005135       2.240667       2.669794      29.264489       0.292645      36.631327       0.366313      27.925708       0.279257      27.446354       0.274464      27.446354       0.274464      24.808040       0.248080      33.654152       0.336542       2.240679       8.500000
          306.6      29.520990     659.374939      61.811115       0.529506      30.952951       0.309530       8.451321       0.005678       2.251487       2.712217      29.496630       0.294966      36.850239       0.368502      28.147875       0.281479      26.813611       0.268136      26.813611       0.268136      24.152287       0.241523      33.075548       0.330755       2.251704       8.500000
          306.7      29.514538     659.999939      67.867214       0.975899      31.154367       0.311544       8.451320       0.006440       2.264497       2.803217      29.689544       0.296895      37.033213       0.370332      28.332696       0.283327      26.052805       0.260528      26.052805       0.260528      23.363815       0.233638      32.379838       0.323798       2.264425       8.500000
          306.8      29.521453     659.999939      76.270210      -0.166804      31.332221       0.313322       8.451924       0.007597       2.282156       2.919495      29.859921       0.298599      37.195278       0.371953      28.495888       0.284959      25.020110       0.250201      25.020110       0.250201      22.293569       0.222936      31.435502       0.314355       2.281570       8.500000
          306.9      29.524448     659.999939      85.928177      -0.980000      31.591763       0.315918       8.453429       0.008996       2.303077       3.038214      30.108294       0.301083      37.427483       0.374275      28.734202       0.287342      23.796660       0.237967      23.796660       0.237967      21.025630       0.210256      30.316732       0.303167       2.303051       8.500000
          307.0      29.508220     659.999939      95.275928      -0.730000      32.057082       0.320571       8.455498       0.010197       2.321217       3.143690      30.553153       0.305532      37.837532       0.378375      29.161736       0.291617      22.735872       0.227359      22.735872       0.227359      19.926268       0.199263      29.346707       0.293467       2.322500       8.500000
          307.1      29.543821     659.999939     104.271866      -7.523596      32.854753       0.328548       8.457700       0.011374       2.331524       3.225341      31.315661       0.313157      38.538179       0.385382      29.894781       0.298948      22.133091       0.221331      22.133091       0.221331      19.301567       0.193016      28.795501       0.287955       2.335395       8.500000
          307.2      29.541199     659.999939     112.548649      -5.350263      33.936378       0.339364       8.459675       0.013773       2.335771       3.268741      32.350055       0.323501      39.488901       0.394889      30.888778       0.308888      21.884746       0.218847      21.884746       0.218847      19.044190       0.190442      28.568403       0.285684       2.339555       8.500000
          307.3      29.497758     660.624939     118.214241       8.283815      35.128021       0.351280       8.464890       0.017647       2.336459       3.278201      33.490238       0.334902      40.534842       0.405348      31.984049       0.319840      21.844522       0.218445      21.844522       0.218445      19.002503       0.190025      28.531621       0.285316       2.336965       8.500000
          307.4      29.502020     661.249939     120.676441       6.831383      36.254717       0.362547       8.475760       0.021296       2.332860       3.269507      34.568474       0.345685      41.517408       0.415174      33.020250       0.330203      22.054985       0.220550      22.054985       0.220550      19.220621       0.192206      28.724077       0.287241       2.329519       8.500000
          307.5      29.512273     661.874939     120.705841      -1.925985      37.020266       0.370203       8.485435       0.023089       2.326980       3.249599      35.301798       0.353018      42.178968       0.421790      33.724945       0.337249      22.398845       0.223988      22.398845       0.223988      19.576985       0.195770      29.038515       0.290385       2.322465       8.500000
          307.6      29.534149     663.124939     118.925125      -3.727787      37.284107       0.372841       8.488161       0.022667       2.323108       3.207204      35.556118       0.355561      42.403593       0.424036      33.968250       0.339683      22.625287       0.226253      22.625287       0.226253      19.811661       0.198117      29.245583       0.292456       2.318888       8.500000
          307.7      29.540885     663.749939     115.745178      -0.540901      37.031534       0.370315       8.485124       0.020239       2.321757       3.165056      35.317543       0.353175      42.182287       0.421823      33.736223       0.337362      22.704292       0.227043      22.704292       0.227043      19.893539       0.198935      29.317829       0.293178       2.320130       8.500000
          307.8      29.529067     663.749939     112.923656       2.378243      36.540218       0.365402       8.483882       0.017021       2.320749       3.151633      34.851212       0.348512      41.755920       0.417559      33.284281       0.332843      22.763192       0.227632      22.763192       0.227632      19.954582       0.199546      29.371690       0.293717       2.324323       8.500000
          307.9      29.514702     663.749939     111.722908       0.778244      36.044258       0.360443       8.487561       0.016001       2.322265       3.162998      34.381031       0.343810      41.327627       0.413276      32.827763       0.328278      22.674574       0.226746      22.674574       0.226746      19.862741       0.198627      29.290653       0.292907       2.328664       8.500000
