~Version Information
VERS .            2.00                          : CWLS Log ASCII Standard - Version 2.00
WRAP .            NO                            : One line per depth step
#
~Well Information
#MNEM.UNIT        DATA                          : DESCRIPTION
#----.----        ----                          : -----------
STRT .M            240.0                        : Start
STOP .M           1229.6                        : Stop
STEP .M              0.1                        : Step increment
NULL .            -999.250                      : Null value
COMP .            S.N.G.N. ROMGAZ S.A.          : Company
WELL .            209 NADES                     : Well
FLD  .            NADES                         : Field
PROV .            MURES                         : Province
CTRY .            Romania                       : State / Country
LOC  .            X = 529925.187 m              : Location
LOC2 .            Y = 477271.675 m              : Location 2
SRVC .            Weatherford                   : Service company
UWI  .                                          : Unique Well ID
LATI .            46 16'07.03" N                : Latitude
LONG .            24 42'12.69" E                : Longitude
UTME .                                          : Universal Transverse Mercator Easting
UTMN .                                          : Universal Transverse Mercator Northing
X    .                                          : X
Y    .                                          : Y
DATE .            04-Sep-2024                   : Logging Date
#
~Curve Information
#MNEM.UNIT        API CODES                     : CURVE DESCRIPTION
#----.----        ---------                     : -----------------
DEPT .M           00 001 00 00                  : Logged depth
CGXT .DEGC        30 660 01 00                  : MCG External Temperature
SMTU .LB          30 635 00 00                  : DST Uphole Tension
CCLG .----        30 150 00 00                  : Casing Collar Locator
DSLL .OHMM        11 220 09 00                  : Shallow Laterolog
DDLL .OHMM        11 220 10 00                  : Deep Laterolog
DGLL .OHMM        11 211 00 00                  : Groningen Laterolog
SPDL .MV          30 010 00 00                  : Spontaneous Potential
GRGM .GAPI        30 310 01 00                  : MGS Gamma Ray
MRRS .OHMM        15 252 00 00                  : MicroRes Resistance (S)
MATC .IN          15 280 01 00                  : MMR Caliper
BIT  .IN          70 282 00 00                  : Bit size
#
~Parameter Information
#MNEM.UNIT        VALUE                         : DESCRIPTION
#----.----        -----                         : -----------
RNID .                                          : Run ID
SON  .            24220368                      : Job Number
DREF .            KB                            : Depth reference
EREF .M            484.710                      : Elevation of depth reference
GL   .M            480.210                      : Ground elevation
KB   .M            484.710                      : Kelly Bushing
DF   .M            484.710                      : Drill Floor
DDRF .            KB                            : Drilling Depth Reference
DERF .M            484.710                      : Elevation of Drilling Depth Reference
RUN  .            2A+2B                         : Run number
TDD  .M           1225.000                      : TD (driller)
TDL  .M           1226.000                      : TD (logger)
BS   .IN             8.500                      : Bit size
TIMC .                                          : Time circulation ended
TIML .                                          : Time logger at bottom
UNIT .            13347                         : Equipment ID
BASE .            PLO                           : Equipment base location
ENG  .            MALEA CRISTIAN                : Recording engineer
WIT  .            VASILE FARCAS                 : Witnessed by
CSGT .            SURFACE                       : Casing type
CSGS .IN            16.000                      : Casing size
CSGW .LB/FT          0.000                      : Casing weight
CSGD .M            250.000                      : Casing bottom (driller)
CSGL .M            249.500                      : Casing bottom (logger)
CSUP .M              0.000                      : Casing Stick Up GL
MUD  .            INHIBITIV                     : Mud type
MUDS .            FLOWLINE                      : Mud sample source
MUDD .G/C3           1.100                      : Mud density
MUDV .SEC/L         50.000                      : Mud viscosity
PH   .               9.500                      : Mud pH
FL   .ML/30MIN       4.100                      : Mud fluid loss rate
RM   .OHMM           0.150                      : Mud resistivity
RMT  .DEGC          25.000                      : Mud sample temperature
RMF  .OHMM           0.120                      : Mud filtrate resistivity
RMFT .DEGC          25.000                      : Mud filtrate sample temperature
RMC  .OHMM           0.180                      : Mud cake resistivity
RMCT .DEGC          25.000                      : Mud cake sample temperature
RMBT .OHMM           0.110                      : Mud Resistivity at BHT
BHT  .DEGC          39.000                      : Bottom Hole Temperature
TMAX .DEGC          39.000                      : Max recorded temperature
#
~Other Information
------------------------------------------------------------------------------------------------
Clients intervals and scales logged
Acquisition software: Weatherford Well Manager, version 24.03.1279
Cable used: CAMESA  size 15/32", type 7J46RXZ with  cable head and 8k weakpoint set
Depth wheel calibration factor used 0.6096
Depth Control Procedure for Multiple runs in the well followed.
Run2A: CBHC, MTAK, MBE, MBE, SHA, MCG, MBN, MTC-Y, MSS, MTC-X, SKJ, MUG, MLE, MLG, MTI, MGS,HFS 
Run2B: CBHC, MTAK, SHA, MCG, SKJ, MMR, MDN, MPD, HFS
Run2C: CBHC, MTAK, SHA, MCG, MISD, SKJ, MISE, SKJ, MISD, MSS, MISD, HFS logged in combination.
 Rm, Rmf, Rmc measured on samples from Mud Engineer given on 04.09.2024
Caliper measurements and averages from TD to casing:
   Total hole volume =  35.32 cubic meters
   Annular volume = 20.52 cubic meters, based on future casing size of 5.5 inches
   Average hole diameter = 8.49 inches (215.77 mm), based on XY caliper
------------------------------------------------------------------------------------------------
#
#          DEPT           CGXT           SMTU           CCLG           DSLL           DDLL           DGLL           SPDL           GRGM           MRRS           MATC            BIT
#
~ASCII Log Data
# ...
          433.5      31.678454    1202.500000       3.433952       7.926759       9.288863       9.137065     -85.577471     103.740656       1.381270       8.460359       8.500000
          433.6      31.691237    1202.500000       1.595517       7.982307       9.384100       9.237388     -85.777015     105.451890       1.499867       8.460287       8.500000
          433.7      31.678257    1202.500000      -1.118517       8.018901       9.444024       9.302074     -85.963596     106.739187       1.582340       8.459465       8.500000
          433.8      31.607117    1203.100000      -1.158036       8.022656       9.437502       9.298508     -85.954202     107.318691       1.611057       8.457704       8.500000
          433.9      31.591926    1205.300000      -0.686896       7.992315       9.393141       9.254281     -85.739793     106.745319       1.590492       8.455516       8.500000
          434.0      31.651463    1206.550000       0.373118       7.931842       9.357724       9.217903     -85.362658     105.330043       1.565715       8.451872       8.500000
          434.1      31.651545    1207.500000       0.152024       7.849602       9.319954       9.180752     -84.847252     102.572015       1.463816       8.448694       8.500000
          434.2      31.666544    1207.800000      -1.095341       7.773593       9.262627       9.125988     -84.338430     100.314894       1.349494       8.445929       8.500000
          434.3      31.655998    1208.750000      -0.420962       7.726549       9.210832       9.076370     -83.955611      98.776176       1.250136       8.446575       8.500000
          434.4      31.631880    1208.750000       0.079753       7.705236       9.162793       9.027767     -83.772793      98.057626       1.218706       8.450364       8.500000
          434.5      31.653590    1208.750000       0.067160       7.706625       9.086141       8.947881     -83.842253      97.811926       1.216403       8.454635       8.500000
          434.6      31.686748    1209.350000       2.264378       7.728800       8.995145       8.851433     -84.110361      99.423711       1.288788       8.457243       8.500000
          434.7      31.678006    1211.550000       1.105916       7.737744       8.922187       8.770978     -84.419235     102.164940       1.409630       8.458139       8.500000
          434.8      31.704445    1212.200000      -1.788357       7.702735       8.855031       8.697187     -84.691172     104.989409       1.556557       8.461429       8.500000
          434.9      31.737228    1210.950000      -1.449139       7.639816       8.780044       8.619710     -84.903293     107.112100       1.638569       8.465730       8.500000
          435.0      31.675207    1210.000000       1.304929       7.570411       8.713874       8.554786     -85.016838     109.364417       1.657079       8.468925       8.500000
          435.1      31.694311    1210.000000       0.276549       7.497696       8.662129       8.508682     -85.027129     110.577510       1.634163       8.470154       8.500000
          435.2      31.716977    1209.700000      -0.026760       7.430695       8.612857       8.470377     -84.979216     110.095033       1.610384       8.472653       8.500000
          435.3      31.627959    1208.450000      -0.699718       7.380855       8.557988       8.429105     -84.949698     108.401851       1.579667       8.476147       8.500000
          435.4      31.639632    1207.500000      -2.095446       7.342274       8.502458       8.387202     -84.935446     107.404778       1.566073       8.481108       8.500000
          435.5      31.614019    1207.500000       0.900830       7.300027       8.459145       8.355450     -84.920301     107.148020       1.574376       8.486368       8.500000
          435.6      31.667610    1207.500000       1.247336       7.247405       8.430446       8.333183     -84.847317     107.303011       1.602585       8.493786       8.500000
          435.7      31.653652    1207.200000      -1.423909       7.195425       8.412617       8.316206     -84.732289     108.082360       1.585549       8.498127       8.500000
          435.8      31.600830    1206.250000      -0.004683       7.162382       8.417300       8.319255     -84.712074     109.593943       1.527286       8.496561       8.500000
          435.9      31.664030    1205.950000       1.227635       7.153809       8.456147       8.355974     -84.809014     110.955540       1.468354       8.485495       8.500000
          436.0      31.673880    1204.700000      -0.949895       7.169886       8.514338       8.412011     -85.012914     111.376647       1.453220       8.469720       8.500000
          436.1      31.675752    1203.450000       0.838843       7.211063       8.564904       8.460918     -85.440710     110.719890       1.466198       8.459070       8.500000
          436.2      31.643891    1202.800000      -0.229742       7.264357       8.593915       8.488640     -86.141341     109.506073       1.538088       8.453322       8.500000
          436.3      31.632340    1203.750000      -1.167288       7.307216       8.592111       8.484891     -86.872361     108.045639       1.642999       8.452602       8.500000
          436.4      31.672155    1203.450000       1.170153       7.328938       8.552314       8.442033     -87.599865     106.865443       1.719571       8.453918       8.500000
          436.5      31.683591    1202.200000       1.327011       7.335307       8.491420       8.377526     -88.394134     106.725904       1.719852       8.457610       8.500000
          436.6      31.682586    1201.550000      -0.353612       7.331508       8.442486       8.324421     -89.148679     107.786626       1.698766       8.464761       8.500000
          436.7      31.650731    1203.100000      -1.715583       7.320069       8.421633       8.299737     -89.744986     109.945528       1.705007       8.468650       8.500000
          436.8      31.661584    1205.000000       0.855372       7.310771       8.429480       8.306093     -90.213895     112.071564       1.728325       8.470520       8.500000
          436.9      31.634428    1205.300000       0.218431       7.313100       8.465302       8.341899     -90.597520     113.008222       1.773175       8.468945       8.500000
          437.0      31.709332    1206.250000      -1.601808       7.328091       8.518252       8.393940     -90.870353     113.708232       1.833065       8.466423       8.500000
          437.1      31.700604    1206.850000       0.944225       7.357628       8.580578       8.454660     -91.017861     114.590686       1.885647       8.459666       8.500000
          437.2      31.693732    1208.750000       0.194085       7.410339       8.669446       8.541050     -91.009148     115.165305       1.892733       8.443983       8.500000
          437.3      31.695037    1208.750000      -0.533098       7.505202       8.828696       8.695213     -90.778941     114.604510       1.896095       8.436315       8.500000
          437.4      31.690356    1209.050000       0.100470       7.646229       9.072593       8.933795     -90.206599     113.692902       1.885223       8.441570       8.500000
          437.5      31.702605    1210.000000       0.242969       7.798982       9.354646       9.214009     -89.218786     111.768366       1.854094       8.454042       8.500000
          437.6      31.676338    1209.700000       1.316882       7.925606       9.637365       9.496986     -87.859403     108.683621       1.781981       8.456265       8.500000
          437.7      31.647536    1209.050000      -1.043118       7.997899       9.857328       9.718058     -86.301531     103.015005       1.629877       8.447250       8.500000
          437.8      31.677455    1210.000000      -0.861178       7.989909       9.906850       9.771788     -84.764096      96.878149       1.404873       8.436598       8.500000
          437.9      31.649370    1210.300000       1.244937       7.912446       9.796597       9.667730     -83.465735      89.492429       1.155686       8.428912       8.500000
