~Version Information
VERS .            2.00                          : CWLS Log ASCII Standard - Version 2.00
WRAP .            NO                            : One line per depth step
#
~Well Information
#MNEM.UNIT        DATA                          : DESCRIPTION
#----.----        ----                          : -----------
STRT .M            240.0                        : Start
STOP .M           1227.7                        : Stop
STEP .M              0.1                        : Step increment
NULL .            -999.250                      : Null value
COMP .            S.N.G.N. ROMGAZ S.A.          : Company
WELL .            209 NADES                     : Well
FLD  .            NADES                         : Field
PROV .            MURES                         : Province
CTRY .            Romania                       : State / Country
LOC  .            X = 529925.187 m              : Location
LOC2 .            Y = 477271.675 m              : Location 2
SRVC .            Weatherford                   : Service company
UWI  .                                          : Unique Well ID
LATI .            46 16'07.03" N                : Latitude
LONG .            24 42'12.69" E                : Longitude
UTME .                                          : Universal Transverse Mercator Easting
UTMN .                                          : Universal Transverse Mercator Northing
X    .                                          : X
Y    .                                          : Y
DATE .            04-Sep-2024                   : Logging Date
#
~Curve Information
#MNEM.UNIT        API CODES                     : CURVE DESCRIPTION
#----.----        ---------                     : -----------------
DEPT .M           00 001 00 00                  : Logged depth
CGXT .DEGC        30 660 01 00                  : MCG External Temperature
SMTU .LB          30 635 00 00                  : DST Uphole Tension
GRGC .GAPI        30 310 01 00                  : MCG Gamma Ray
CCLG .----        30 150 00 00                  : Casing Collar Locator
NPRL .PERC        42 890 01 00                  : Limestone Neutron Por.
NPRL .V/V         42 890 01 00                  : Limestone Neutron Por.
CLDC .IN          45 280 01 00                  : Density Caliper
DCOR .G/C3        42 356 01 00                  : Density Correction
DEN  .G/C3        42 350 01 00                  : Compensated Density
PDPE .B/E         45 358 01 00                  : PE
NPOR .PERC        42 890 04 00                  : Base Neutron Porosity
NPOR .V/V         42 890 04 00                  : Base Neutron Porosity
NPRS .PERC        42 890 03 00                  : Sandstone Neutron Por.
NPRS .V/V         42 890 03 00                  : Sandstone Neutron Por.
NPRD .PERC        42 890 02 00                  : Dolomite Neutron Por.
NPRD .V/V         42 890 02 00                  : Dolomite Neutron Por.
DPOR .PERC        45 890 13 00                  : Base Density Porosity
DPOR .V/V         45 890 13 00                  : Base Density Porosity
DPRL .PERC        45 890 10 00                  : Limestone Density Por.
DPRL .V/V         45 890 10 00                  : Limestone Density Por.
DPRS .PERC        45 890 12 00                  : Sandstone Density Por.
DPRS .V/V         45 890 12 00                  : Sandstone Density Por.
DPRD .PERC        45 890 11 00                  : Dolomite Density Por.
DPRD .V/V         45 890 11 00                  : Dolomite Density Por.
HDEN .G/C3        42 350 01 00                  : Vectar Processed Density
BIT  .IN          70 282 00 00                  : Bit size
#
~Parameter Information
#MNEM.UNIT        VALUE                         : DESCRIPTION
#----.----        -----                         : -----------
RNID .                                          : Run ID
SON  .            24220368                      : Job Number
DREF .            KB                            : Depth reference
EREF .M            484.710                      : Elevation of depth reference
GL   .M            480.210                      : Ground elevation
KB   .M            484.710                      : Kelly Bushing
DF   .M            484.710                      : Drill Floor
DDRF .            KB                            : Drilling Depth Reference
DERF .M            484.710                      : Elevation of Drilling Depth Reference
RUN  .            2A+2B                         : Run number
TDD  .M           1225.000                      : TD (driller)
TDL  .M           1226.000                      : TD (logger)
BS   .IN             8.500                      : Bit size
TIMC .                                          : Time circulation ended
TIML .                                          : Time logger at bottom
UNIT .            13347                         : Equipment ID
BASE .            PLO                           : Equipment base location
ENG  .            MALEA CRISTIAN                : Recording engineer
WIT  .            VASILE FARCAS                 : Witnessed by
CSGT .            SURFACE                       : Casing type
CSGS .IN            16.000                      : Casing size
CSGW .LB/FT          0.000                      : Casing weight
CSGD .M            250.000                      : Casing bottom (driller)
CSGL .M            249.500                      : Casing bottom (logger)
CSUP .M              0.000                      : Casing Stick Up GL
MUD  .            INHIBITIV                     : Mud type
MUDS .            FLOWLINE                      : Mud sample source
MUDD .G/C3           1.100                      : Mud density
MUDV .SEC/L         50.000                      : Mud viscosity
PH   .               9.500                      : Mud pH
FL   .ML/30MIN       4.100                      : Mud fluid loss rate
RM   .OHMM           0.150                      : Mud resistivity
RMT  .DEGC          25.000                      : Mud sample temperature
RMF  .OHMM           0.120                      : Mud filtrate resistivity
RMFT .DEGC          25.000                      : Mud filtrate sample temperature
RMC  .OHMM           0.180                      : Mud cake resistivity
RMCT .DEGC          25.000                      : Mud cake sample temperature
RMBT .OHMM           0.110                      : Mud Resistivity at BHT
BHT  .DEGC          39.000                      : Bottom Hole Temperature
TMAX .DEGC          39.000                      : Max recorded temperature
#
~Other Information
------------------------------------------------------------------------------------------------
Clients intervals and scales logged
Acquisition software: Weatherford Well Manager, version 24.03.1279
Cable used: CAMESA  size 15/32", type 7J46RXZ with  cable head and 8k weakpoint set
Depth wheel calibration factor used 0.6096
Depth Control Procedure for Multiple runs in the well followed.
Run2A: CBHC, MTAK, MBE, MBE, SHA, MCG, MBN, MTC-Y, MSS, MTC-X, SKJ, MUG, MLE, MLG, MTI, MGS,HFS 
Run2B: CBHC, MTAK, SHA, MCG, SKJ, MMR, MDN, MPD, HFS
Run2C: CBHC, MTAK, SHA, MCG, MISD, SKJ, MISE, SKJ, MISD, MSS, MISD, HFS logged in combination.
 Rm, Rmf, Rmc measured on samples from Mud Engineer given on 04.09.2024
Caliper measurements and averages from TD to casing:
   Total hole volume =  35.32 cubic meters
   Annular volume = 20.52 cubic meters, based on future casing size of 5.5 inches
   Average hole diameter = 8.49 inches (215.77 mm), based on XY caliper
------------------------------------------------------------------------------------------------
#
#          DEPT           CGXT           SMTU           GRGC           CCLG           NPRL           NPRL           CLDC           DCOR            DEN           PDPE           NPOR           NPOR           NPRS           NPRS           NPRD           NPRD           DPOR           DPOR           DPRL           DPRL           DPRS           DPRS           DPRD           DPRD           HDEN            BIT
#
~ASCII Log Data
# ...
         1160.0      39.076134    1473.749878      91.250843      -0.753205      22.058853       0.220589       8.377775       0.009824       2.379815       3.032884      20.688068       0.206881      28.395642       0.283956      19.972604       0.199726      19.309072       0.193091      19.309072       0.193091      16.374856       0.163749      26.213109       0.262131       2.378670       8.500000
         1160.1      39.087952    1474.374878      96.286640      -1.269938      22.259705       0.222597       8.377771       0.009982       2.386060       3.078236      20.877212       0.208772      28.578314       0.285783      20.156491       0.201565      18.943860       0.189439      18.943860       0.189439      15.996363       0.159964      25.879145       0.258791       2.385577       8.500000
         1160.2      39.108458    1474.999878     104.368824       0.348651      23.416638       0.234166       8.377820       0.011321       2.402638       3.114195      21.967606       0.219676      29.689840       0.296898      21.219596       0.212196      17.974402       0.179744      17.974402       0.179744      14.991653       0.149917      24.992636       0.249926       2.402730       8.500000
         1160.3      39.085985    1475.624878     112.164494       2.266206      25.321297       0.253213       8.377867       0.012652       2.419535       3.133264      23.762639       0.237626      31.522596       0.315226      22.970163       0.229702      16.986255       0.169863      16.986255       0.169863      13.967573       0.139676      24.089036       0.240890       2.421446       8.500000
         1160.4      39.060429    1475.624878     116.989304      -0.986125      27.481742       0.274817       8.377860       0.013451       2.428484       3.108892      25.798748       0.257987      33.602551       0.336026      24.955940       0.249559      16.462912       0.164629      16.462912       0.164629      13.425200       0.134252      23.610471       0.236105       2.430834       8.500000
         1160.5      39.094852    1475.624878     117.208076      -2.731193      29.248023       0.292480       8.377814       0.013319       2.424738       3.050396      27.463586       0.274636      35.307465       0.353075      26.579567       0.265796      16.681999       0.166820      16.681999       0.166820      13.652254       0.136523      23.810812       0.238108       2.425312       8.500000
         1160.6      39.107788    1475.624878     113.073833       0.061930      29.992455       0.299925       8.377778       0.012159       2.409981       2.999418      28.165443       0.281654      36.031599       0.360316      27.264117       0.272641      17.544991       0.175450      17.544991       0.175450      14.546627       0.145466      24.599965       0.246000       2.409175       8.500000
         1160.7      39.082947    1476.249878     107.392159       0.533003      29.432122       0.294321       8.377745       0.010858       2.394065       2.983887      27.637595       0.276376      35.503172       0.355032      26.749646       0.267496      18.475702       0.184757      18.475702       0.184757      15.511182       0.155112      25.451043       0.254510       2.394005       8.500000
         1160.8      39.037359    1477.499878     103.055264       9.751826      27.863585       0.278636       8.377639       0.010036       2.381837       2.985580      26.159235       0.261592      34.008711       0.340087      25.308730       0.253087      19.190832       0.191908      19.190832       0.191908      16.252317       0.162523      26.104985       0.261050       2.382101       8.500000
         1160.9      39.059265    1476.874878     100.203445       8.721073      25.941109       0.259411       8.377460       0.009761       2.373526       2.991301      24.346959       0.243470      32.172484       0.321725      23.542484       0.235425      19.676871       0.196769      19.676871       0.196769      16.756030       0.167560      26.549438       0.265494       2.373165       8.500000
         1161.0      39.092812    1476.249878      97.881489      -6.689475      24.185802       0.241858       8.377292       0.009701       2.368942       3.010007      22.691726       0.226917      30.485312       0.304853      21.929438       0.219294      19.944932       0.199449      19.944932       0.199449      17.033838       0.170338      26.794563       0.267946       2.367555       8.500000
         1161.1      39.267288    1476.249878      96.437428      -4.657261      22.915573       0.229156       8.377203       0.009839       2.369226       3.033819      21.493491       0.214935      29.252172       0.292522      20.761696       0.207617      19.928285       0.199283      19.928285       0.199283      17.016585       0.170166      26.779340       0.267793       2.368221       8.500000
         1161.2      39.247244    1475.624878      96.901684      -7.544499      22.243667       0.222437       8.377187       0.010377       2.375737       3.044487      20.859667       0.208597      28.593858       0.285939      20.143732       0.201437      19.547519       0.195475      19.547519       0.195475      16.621974       0.166220      26.431153       0.264312       2.374899       8.500000
         1161.3      39.186085    1474.999878      98.207542      -7.818680      22.168684       0.221687       8.377196       0.011073       2.384836       3.040507      20.789443       0.207894      28.520255       0.285203      20.074796       0.200748      19.015454       0.190155      19.015454       0.190155      16.070563       0.160706      25.944613       0.259446       2.384504       8.500000
         1161.4      39.178946    1474.999878      99.540665       3.709875      22.516529       0.225165       8.377210       0.011689       2.393819       3.028120      21.118638       0.211186      28.867711       0.288677      20.395078       0.203951      18.490104       0.184901      18.490104       0.184901      15.526108       0.155261      25.464213       0.254642       2.394249       8.500000
         1161.5      38.989388    1474.999878     100.404682       3.271016      23.080347       0.230803       8.377191       0.011848       2.397289       2.997161      21.651526       0.216515      29.430817       0.294308      20.914193       0.209142      18.287184       0.182872      18.287184       0.182872      15.315808       0.153158      25.278655       0.252787       2.399102       8.500000
         1161.6      38.986155    1475.624878      99.785507       0.588323      23.550858       0.235509       8.377064       0.011520       2.392502       2.933666      22.096010       0.220960      29.899561       0.298996      21.347302       0.213473      18.567117       0.185671      18.567117       0.185671      15.605921       0.156059      25.534636       0.255346       2.394586       8.500000
         1161.7      39.015707    1476.249878      95.974979      -1.743955      23.617851       0.236179       8.376842       0.010831       2.380059       2.855073      22.159393       0.221594      29.959587       0.299596      21.408432       0.214084      19.294781       0.192948      19.294781       0.192948      16.360046       0.163600      26.200040       0.262000       2.381249       8.500000
         1161.8      39.063723    1476.874878      89.780750      -1.924009      23.087173       0.230872       8.376626       0.010077       2.364858       2.794832      21.658850       0.216588      29.409766       0.294098      20.918221       0.209182      20.183762       0.201838      20.183762       0.201838      17.281353       0.172814      27.012959       0.270130       2.364917       8.500000
         1161.9      39.088118    1478.124878      83.784992      -1.832238      22.033771       0.220338       8.376747       0.009481       2.351462       2.760609      20.665583       0.206656      28.326154       0.283262      19.945760       0.199458      20.967155       0.209672      20.967155       0.209672      18.093233       0.180932      27.729323       0.277293       2.350099       8.500000
