~Version Information
VERS .            2.00                          : CWLS Log ASCII Standard - Version 2.00
WRAP .            NO                            : One line per depth step
#
~Well Information
#MNEM.UNIT        DATA                          : DESCRIPTION
#----.----        ----                          : -----------
STRT .M            240.0                        : Start
STOP .M           1228.5                        : Stop
STEP .M              0.1                        : Step increment
NULL .            -999.250                      : Null value
COMP .            S.N.G.N. ROMGAZ S.A.          : Company
WELL .            209 NADES                     : Well
FLD  .            NADES                         : Field
PROV .            MURES                         : Province
CTRY .            Romania                       : State / Country
LOC  .            X = 529925.187 m              : Location
LOC2 .            Y = 477271.675 m              : Location 2
SRVC .            Weatherford                   : Service company
UWI  .                                          : Unique Well ID
LATI .            46 16'07.03" N                : Latitude
LONG .            24 42'12.69" E                : Longitude
UTME .                                          : Universal Transverse Mercator Easting
UTMN .                                          : Universal Transverse Mercator Northing
X    .                                          : X
Y    .                                          : Y
DATE .            04-Sep-2024                   : Logging Date
#
~Curve Information
#MNEM.UNIT        API CODES                     : CURVE DESCRIPTION
#----.----        ---------                     : -----------------
DEPT .M           00 001 00 00                  : Logged depth
CGXT .DEGC        30 660 01 00                  : MCG External Temperature
SMTU .LB          30 635 00 00                  : DST Uphole Tension
GRGC .GAPI        30 310 01 00                  : MCG Gamma Ray
CCLG .----        30 150 00 00                  : Casing Collar Locator
TR21 .US          60 520 30 00                  : 3' Transit Time
TR11 .US          60 520 04 00                  : 4' Transit Time
TR22 .US          60 520 50 00                  : 5' Transit Time
TR12 .US          60 520 60 00                  : 6' Transit Time
DT35 .US/F        60 520 32 00                  : 3-5' Compensated Sonic
BIT  .IN          70 282 00 00                  : Bit size
#
~Parameter Information
#MNEM.UNIT        VALUE                         : DESCRIPTION
#----.----        -----                         : -----------
RNID .                                          : Run ID
SON  .            24220368                      : Job Number
DREF .            KB                            : Depth reference
EREF .M            484.710                      : Elevation of depth reference
GL   .M            480.210                      : Ground elevation
KB   .M            484.710                      : Kelly Bushing
DF   .M            484.710                      : Drill Floor
DDRF .            KB                            : Drilling Depth Reference
DERF .M            484.710                      : Elevation of Drilling Depth Reference
RUN  .            2A+2B                         : Run number
TDD  .M           1225.000                      : TD (driller)
TDL  .M           1226.000                      : TD (logger)
BS   .IN             8.500                      : Bit size
TIMC .                                          : Time circulation ended
TIML .                                          : Time logger at bottom
UNIT .            13347                         : Equipment ID
BASE .            PLO                           : Equipment base location
ENG  .            MALEA CRISTIAN                : Recording engineer
WIT  .            VASILE FARCAS                 : Witnessed by
CSGT .            SURFACE                       : Casing type
CSGS .IN            16.000                      : Casing size
CSGW .LB/FT          0.000                      : Casing weight
CSGD .M            250.000                      : Casing bottom (driller)
CSGL .M            249.500                      : Casing bottom (logger)
CSUP .M              0.000                      : Casing Stick Up GL
MUD  .            INHIBITIV                     : Mud type
MUDS .            FLOWLINE                      : Mud sample source
MUDD .G/C3           1.100                      : Mud density
MUDV .SEC/L         50.000                      : Mud viscosity
PH   .               9.500                      : Mud pH
FL   .ML/30MIN       4.100                      : Mud fluid loss rate
RM   .OHMM           0.150                      : Mud resistivity
RMT  .DEGC          25.000                      : Mud sample temperature
RMF  .OHMM           0.120                      : Mud filtrate resistivity
RMFT .DEGC          25.000                      : Mud filtrate sample temperature
RMC  .OHMM           0.180                      : Mud cake resistivity
RMCT .DEGC          25.000                      : Mud cake sample temperature
RMBT .OHMM           0.110                      : Mud Resistivity at BHT
BHT  .DEGC          39.000                      : Bottom Hole Temperature
TMAX .DEGC          39.000                      : Max recorded temperature
#
~Other Information
------------------------------------------------------------------------------------------------
Clients intervals and scales logged
Acquisition software: Weatherford Well Manager, version 24.03.1279
Cable used: CAMESA  size 15/32", type 7J46RXZ with  cable head and 8k weakpoint set
Depth wheel calibration factor used 0.6096
Depth Control Procedure for Multiple runs in the well followed.
Run2A: CBHC, MTAK, MBE, MBE, SHA, MCG, MBN, MTC-Y, MSS, MTC-X, SKJ, MUG, MLE, MLG, MTI, MGS,HFS 
Run2B: CBHC, MTAK, SHA, MCG, SKJ, MMR, MDN, MPD, HFS
Run2C: CBHC, MTAK, SHA, MCG, MISD, SKJ, MISE, SKJ, MISD, MSS, MISD, HFS logged in combination.
 Rm, Rmf, Rmc measured on samples from Mud Engineer given on 04.09.2024
Caliper measurements and averages from TD to casing:
   Total hole volume =  35.32 cubic meters
   Annular volume = 20.52 cubic meters, based on future casing size of 5.5 inches
   Average hole diameter = 8.49 inches (215.77 mm), based on XY caliper
------------------------------------------------------------------------------------------------
#
#          DEPT           CGXT           SMTU           GRGC           CCLG           TR21           TR11           TR22           TR12           DT35            BIT
#
~ASCII Log Data
# ...
          563.4      33.050327    1338.749878     119.380600      -2.773973     472.082550     592.901733     709.331116     830.599731     121.774780       8.500000
          563.5      33.100132    1339.999878     119.212090      -0.868056     471.750885     590.393738     709.675842     833.072693     121.491844       8.500000
          563.6      33.096107    1339.999878     119.966568      -0.041096     467.750885     589.677673     709.413391     834.628906     121.045494       8.500000
          563.7      33.058105    1336.249878     119.012001      -1.277778     465.753601     588.846680     710.030212     835.818298     120.460609       8.500000
          563.8      33.040970    1333.749878     116.957222       0.424658     465.076324     586.855652     709.790649     836.630859     119.803001       8.500000
          563.9      32.970211    1334.999878     114.823776       2.855403     463.750885     586.516113     709.676331     836.589600     119.209801       8.500000
          564.0      33.044098    1334.999878     113.910522       0.171233     463.750885     586.718933     707.427917     836.215515     118.854301       8.500000
          564.1      32.999363    1334.999878     112.608246      -1.862348     463.750885     586.583496     706.816345     834.458191     118.818611       8.500000
          564.2      33.029465    1333.749878     110.928116       0.485283     463.750885     585.017273     706.698242     833.000854     119.059067       8.500000
          564.3      33.086781    1333.749878     110.741814       0.670568     463.904022     584.557861     705.979919     832.980042     119.457161       8.500000
          564.4      33.072323    1332.499878     111.662872      -0.345158     466.750885     584.364197     705.380676     830.896484     119.875053       8.500000
          564.5      33.016739    1332.499878     110.419304      -1.327287     467.750885     585.777893     704.402283     828.433777     120.227150       8.500000
          564.6      33.024250    1332.499878     108.413429       0.569445     468.750885     587.945801     703.750854     827.013367     120.445801       8.500000
          564.7      32.988930    1331.249878     108.125656       2.858109     469.750885     587.717041     705.239624     825.677307     120.586914       8.500000
          564.8      33.010239    1331.249878     108.684044      -3.141077     468.797699     587.367737     704.016724     825.397522     120.658516       8.500000
          564.9      32.983475    1331.249878     107.749413       0.640411     467.750885     587.403687     702.825562     826.291077     120.660240       8.500000
          565.0      33.029346    1329.999878     107.787285       2.638240     466.750885     585.725464     704.225647     828.183838     120.487648       8.500000
          565.1      33.023830    1331.249878     108.504005      -1.481960     465.750885     583.773254     704.972595     828.720276     120.138504       8.500000
          565.2      33.018406    1331.249878     109.736290      -0.713583     464.750885     583.900513     705.394409     828.906860     119.673737       8.500000
          565.3      33.066601    1332.499878     109.101128       0.672630     464.750885     585.622864     704.642517     828.530518     119.227737       8.500000
          565.4      33.014294    1332.499878     109.991684      -0.894691     465.110352     586.915161     704.769836     828.859192     118.960709       8.500000
          565.5      33.064396    1333.749878     109.993179      -0.272862     464.971436     586.340698     706.721008     829.304260     118.955444       8.500000
          565.6      33.097630    1333.749878     110.461815       1.548611     464.750885     585.932007     706.818604     830.608032     119.223518       8.500000
          565.7      33.034500    1334.999878     109.059570      -1.705480     463.750885     585.395203     706.738953     830.750854     119.627609       8.500000
          565.8      33.094917    1336.249878     111.093727       0.921423     464.075439     585.478149     706.368652     831.246460     120.037163       8.500000
          565.9      33.073009    1336.249878     112.725410      -1.465753     466.345734     585.506653     706.261536     831.206848     120.307236       8.500000
          566.0      33.048210    1337.499878     116.005997      -0.876712     467.282867     585.731445     705.675293     830.334961     120.450661       8.500000
          566.1      33.009407    1338.749878     117.501839       2.787671     466.750885     588.436340     705.647644     828.506165     120.503548       8.500000
          566.2      33.008572    1339.999878     120.471840      -0.537766     467.021484     588.624756     706.589783     827.484924     120.540489       8.500000
          566.3      33.040344    1338.749878     119.406700      -1.397630     466.750885     587.808228     706.860229     827.720886     120.557785       8.500000
          566.4      33.112679    1338.749878     116.844162      -1.702515     466.202972     586.405884     705.500854     829.284180     120.538338       8.500000
          566.5      33.027020    1337.499878     113.540451      -1.749249     466.103729     585.948669     704.512512     829.500854     120.442802       8.500000
          566.6      33.092381    1337.499878     112.228897       3.535848     465.750885     584.995056     704.791382     828.644653     120.219757       8.500000
          566.7      33.033520    1336.249878     111.282028       2.414003     464.750885     585.465149     703.850891     827.408752     119.889153       8.500000
          566.8      33.072353    1336.249878     109.780975      -2.437500     465.041595     584.777893     704.186279     826.783142     119.506493       8.500000
          566.9      33.067318    1336.249878     108.013603       0.641552     465.750885     584.690613     703.621826     825.931213     119.170639       8.500000
          567.0      33.049046    1332.499878     107.541977      -1.743056     464.038849     584.845276     702.865784     824.570557     118.887505       8.500000
          567.1      33.045647    1331.249878     107.340645       1.036530     463.750885     584.964233     701.862000     820.815369     118.697266       8.500000
          567.2      33.030716    1333.749878     106.820267       0.520834     464.047882     583.177856     698.940735     820.208008     118.540321       8.500000
          567.3      33.067913    1356.249878     105.861626      -0.454370     463.927002     580.966797     696.997131     821.076599     118.336426       8.500000
          567.4      33.103531    1343.749878     105.284203       0.934685     463.004761     578.203918     697.389404     821.167542     117.958237       8.500000
          567.5      32.994801    1343.749878     104.346344       2.920124     459.952484     578.744141     697.927002     820.018616     117.411148       8.500000
          567.6      33.029972    1342.499878     103.559601       3.217142     459.861847     579.555176     698.750854     818.334229     116.796486       8.500000
          567.7      33.017780    1339.999878     103.502274      -3.682839     460.750885     580.245361     698.161438     817.981201     116.270073       8.500000
          567.8      33.112053    1337.499878     105.681526      -2.379304     461.750885     580.404602     698.050293     818.706665     116.025711       8.500000
          567.9      33.107643    1337.499878     109.398071      -1.558183     462.797058     580.262634     698.530396     819.061890     116.183708       8.500000
          568.0      33.066422    1337.499878     112.381088       0.194373     463.750885     580.872009     698.379456     818.435059     116.729317       8.500000
          568.1      33.013878    1337.499878     114.127640       3.295816     463.046082     581.750854     698.860840     818.499817     117.444611       8.500000
          568.2      32.994770    1336.249878     113.056259      -1.491671     464.750885     581.831116     699.750854     818.416321     118.113358       8.500000
