~Version Information
VERS .            2.00                          : CWLS Log ASCII Standard - Version 2.00
WRAP .            NO                            : One line per depth step
#
~Well Information
#MNEM.UNIT        DATA                          : DESCRIPTION
#----.----        ----                          : -----------
STRT .M            240.0                        : Start
STOP .M           1228.5                        : Stop
STEP .M              0.1                        : Step increment
NULL .            -999.250                      : Null value
COMP .            S.N.G.N. ROMGAZ S.A.          : Company
WELL .            209 NADES                     : Well
FLD  .            NADES                         : Field
PROV .            MURES                         : Province
CTRY .            Romania                       : State / Country
LOC  .            X = 529925.187 m              : Location
LOC2 .            Y = 477271.675 m              : Location 2
SRVC .            Weatherford                   : Service company
UWI  .                                          : Unique Well ID
LATI .            46 16'07.03" N                : Latitude
LONG .            24 42'12.69" E                : Longitude
UTME .                                          : Universal Transverse Mercator Easting
UTMN .                                          : Universal Transverse Mercator Northing
X    .                                          : X
Y    .                                          : Y
DATE .            04-Sep-2024                   : Logging Date
#
~Curve Information
#MNEM.UNIT        API CODES                     : CURVE DESCRIPTION
#----.----        ---------                     : -----------------
DEPT .M           00 001 00 00                  : Logged depth
CGXT .DEGC        30 660 01 00                  : MCG External Temperature
SMTU .LB          30 635 00 00                  : DST Uphole Tension
GRGC .GAPI        30 310 01 00                  : MCG Gamma Ray
CCLG .----        30 150 00 00                  : Casing Collar Locator
TR21 .US          60 520 30 00                  : 3' Transit Time
TR11 .US          60 520 04 00                  : 4' Transit Time
TR22 .US          60 520 50 00                  : 5' Transit Time
TR12 .US          60 520 60 00                  : 6' Transit Time
DT35 .US/F        60 520 32 00                  : 3-5' Compensated Sonic
BIT  .IN          70 282 00 00                  : Bit size
#
~Parameter Information
#MNEM.UNIT        VALUE                         : DESCRIPTION
#----.----        -----                         : -----------
RNID .                                          : Run ID
SON  .            24220368                      : Job Number
DREF .            KB                            : Depth reference
EREF .M            484.710                      : Elevation of depth reference
GL   .M            480.210                      : Ground elevation
KB   .M            484.710                      : Kelly Bushing
DF   .M            484.710                      : Drill Floor
DDRF .            KB                            : Drilling Depth Reference
DERF .M            484.710                      : Elevation of Drilling Depth Reference
RUN  .            2A+2B                         : Run number
TDD  .M           1225.000                      : TD (driller)
TDL  .M           1226.000                      : TD (logger)
BS   .IN             8.500                      : Bit size
TIMC .                                          : Time circulation ended
TIML .                                          : Time logger at bottom
UNIT .            13347                         : Equipment ID
BASE .            PLO                           : Equipment base location
ENG  .            MALEA CRISTIAN                : Recording engineer
WIT  .            VASILE FARCAS                 : Witnessed by
CSGT .            SURFACE                       : Casing type
CSGS .IN            16.000                      : Casing size
CSGW .LB/FT          0.000                      : Casing weight
CSGD .M            250.000                      : Casing bottom (driller)
CSGL .M            249.500                      : Casing bottom (logger)
CSUP .M              0.000                      : Casing Stick Up GL
MUD  .            INHIBITIV                     : Mud type
MUDS .            FLOWLINE                      : Mud sample source
MUDD .G/C3           1.100                      : Mud density
MUDV .SEC/L         50.000                      : Mud viscosity
PH   .               9.500                      : Mud pH
FL   .ML/30MIN       4.100                      : Mud fluid loss rate
RM   .OHMM           0.150                      : Mud resistivity
RMT  .DEGC          25.000                      : Mud sample temperature
RMF  .OHMM           0.120                      : Mud filtrate resistivity
RMFT .DEGC          25.000                      : Mud filtrate sample temperature
RMC  .OHMM           0.180                      : Mud cake resistivity
RMCT .DEGC          25.000                      : Mud cake sample temperature
RMBT .OHMM           0.110                      : Mud Resistivity at BHT
BHT  .DEGC          39.000                      : Bottom Hole Temperature
TMAX .DEGC          39.000                      : Max recorded temperature
#
~Other Information
------------------------------------------------------------------------------------------------
Clients intervals and scales logged
Acquisition software: Weatherford Well Manager, version 24.03.1279
Cable used: CAMESA  size 15/32", type 7J46RXZ with  cable head and 8k weakpoint set
Depth wheel calibration factor used 0.6096
Depth Control Procedure for Multiple runs in the well followed.
Run2A: CBHC, MTAK, MBE, MBE, SHA, MCG, MBN, MTC-Y, MSS, MTC-X, SKJ, MUG, MLE, MLG, MTI, MGS,HFS 
Run2B: CBHC, MTAK, SHA, MCG, SKJ, MMR, MDN, MPD, HFS
Run2C: CBHC, MTAK, SHA, MCG, MISD, SKJ, MISE, SKJ, MISD, MSS, MISD, HFS logged in combination.
 Rm, Rmf, Rmc measured on samples from Mud Engineer given on 04.09.2024
Caliper measurements and averages from TD to casing:
   Total hole volume =  35.32 cubic meters
   Annular volume = 20.52 cubic meters, based on future casing size of 5.5 inches
   Average hole diameter = 8.49 inches (215.77 mm), based on XY caliper
------------------------------------------------------------------------------------------------
#
#          DEPT           CGXT           SMTU           GRGC           CCLG           TR21           TR11           TR22           TR12           DT35            BIT
#
~ASCII Log Data
# ...
          303.7      30.556868    1070.000000      65.861938       1.506757     461.750885     578.721558     695.215637     820.855347     112.164864       8.500000
          303.8      30.594570    1075.000000      66.164703      -0.831081     458.750885     573.920532     689.168152     813.908752     111.972412       8.500000
          303.9      30.502623    1077.500000      65.520317      -3.155405     456.276917     571.311401     681.615417     811.750854     112.176041       8.500000
          304.0      30.602976    1080.000000      65.452507       3.719363     457.864868     568.043152     676.517639     803.250854     112.337418       8.500000
          304.1      30.589235    1080.000000      64.795425       0.141891     457.170410     564.945313     674.858887     800.037231     112.185333       8.500000
          304.2      30.596657    1081.250000      64.224472      -4.326210     457.750885     567.950867     680.667969     799.793396     111.619476       8.500000
          304.3      30.565094    1081.250000      64.202309       1.601351     456.863647     568.160339     683.223328     801.228760     110.879379       8.500000
          304.4      30.644314    1081.250000      63.716198       1.032522     456.750885     569.124695     683.318176     802.414978     110.261620       8.500000
          304.5      30.556242    1081.250000      63.540363       1.939189     456.750885     569.836304     683.750854     802.179443     110.002419       8.500000
          304.6      30.610069    1081.250000      62.613941       2.250000     456.750885     569.299622     684.750854     801.658203     110.185951       8.500000
          304.7      30.612751    1082.500000      61.634628      -1.972973     456.787689     569.119385     684.750854     801.459839     110.788643       8.500000
          304.8      30.585331    1081.250000      59.800907      -1.128378     458.750885     569.750854     684.750854     802.753906     111.642227       8.500000
          304.9      30.499941    1081.250000      58.261234      -0.459459     459.872681     571.750854     685.750854     802.763916     112.534332       8.500000
          305.0      30.552128    1080.000000      58.296818      -2.756757     462.750885     573.750854     687.750854     801.931091     113.301880       8.500000
          305.1      30.585480    1080.000000      59.524277      -2.594224     464.750885     576.750854     688.750854     801.325623     113.918427       8.500000
          305.2      30.592901    1080.000000      61.831802       0.169630     467.750885     578.750854     689.946899     801.800415     114.406052       8.500000
          305.3      30.535229    1081.250000      63.757046       3.439270     468.750885     579.806091     691.750854     802.750854     114.768433       8.500000
          305.4      30.634598    1081.250000      65.977859       0.366316     468.750885     580.750854     693.750854     803.750854     114.967606       8.500000
          305.5      30.642675    1082.500000      66.942467      -0.615315     466.750885     581.750854     694.750854     804.778015     115.014793       8.500000
          305.6      30.587448    1082.500000      66.558220       2.013333     466.750885     581.971436     694.882813     806.750854     114.918617       8.500000
          305.7      30.573290    1081.250000      65.161911      -1.500000     466.750885     581.937378     695.750854     807.750854     114.747383       8.500000
          305.8      30.512339    1080.000000      63.480167      -2.535766     465.750885     581.750854     695.752136     808.927734     114.529572       8.500000
          305.9      30.558626    1078.750000      62.244389       0.108648     465.750885     580.750854     695.754700     810.750854     114.378853       8.500000
          306.0      30.654001    1078.750000      60.798611       1.429099     464.850067     579.992004     695.750854     813.750854     114.293449       8.500000
          306.1      30.585749    1077.500000      60.229794       2.695405     464.861084     579.750854     697.750854     816.750854     114.294922       8.500000
          306.2      30.646997    1076.250000      59.790245       3.588950     465.750885     579.750854     700.750854     819.750854     114.353363       8.500000
          306.3      30.596687    1076.250000      60.160660      -2.114310     465.750885     582.750854     703.750854     821.791809     114.573151       8.500000
          306.4      30.595018    1076.250000      60.144878      -2.788319     467.869293     586.750854     706.750854     826.928467     115.043663       8.500000
          306.5      30.524918    1075.000000      62.247978       2.085571     471.750885     590.750854     711.941040     834.750854     115.885086       8.500000
          306.6      30.615881    1072.500000      65.125198       3.322566     475.750885     593.750854     718.776978     844.029053     117.097908       8.500000
          306.7      30.546555    1072.500000      71.605812      -0.045586     477.837250     599.750854     729.750854     846.750854     118.679230       8.500000
          306.8      30.539761    1072.500000      79.928864      -2.254998     484.750885     606.750854     732.750854     846.750854     120.574501       8.500000
          306.9      30.497259    1072.500000      90.985062       0.283784     490.750885     616.750854     732.780090     848.750854     122.769653       8.500000
          307.0      30.533560    1071.250000     100.782135      -0.513514     501.851868     619.750854     734.750854     851.750854     125.083183       8.500000
          307.1      30.538507    1070.000000     109.824570       0.094594     505.750885     619.820190     737.750854     854.750854     127.244957       8.500000
          307.2      30.534157    1070.000000     116.148239      -2.209460     502.750885     622.750854     740.750854     860.817444     128.894760       8.500000
          307.3      30.563066    1072.500000     119.614189      -0.397816     501.750885     624.896179     746.750854     865.893982     129.735016       8.500000
          307.4      30.569654    1075.000000     118.992699       2.331081     501.750885     625.750854     751.750854     870.853821     129.590195       8.500000
          307.5      30.528822    1078.750000     116.055740      -0.890411     501.808167     627.750854     753.946594     876.951233     128.584991       8.500000
          307.6      30.566763    1081.250000     112.295731      -2.640781     503.750885     629.968384     755.750854     883.750854     127.256500       8.500000
          307.7      30.548790    1083.750000     107.958817       1.445206     504.750885     632.846069     759.750854     884.763794     126.144272       8.500000
          307.8      30.538717    1082.500000     105.099449       2.140781     500.750885     635.750854     761.750854     883.868408     125.656090       8.500000
          307.9      30.621126    1083.750000     104.978073      -1.217790     498.750885     639.750854     761.750854     885.859558     125.859703       8.500000
          308.0      30.571978    1081.250000     107.282768       1.000000     501.750885     631.750854     761.750854     892.824768     126.612328       8.500000
          308.1      30.545721    1081.250000     109.668037      -1.220566     503.750885     627.750854     759.750854     898.023621     127.509995       8.500000
          308.2      30.575972    1082.500000     112.145012      -2.695946     502.750885     628.007629     762.750854     892.808594     128.176865       8.500000
          308.3      30.561398    1082.500000     115.290627       0.691781     503.750885     633.750854     757.750854     883.890747     128.591354       8.500000
          308.4      30.550669    1081.250000     119.002327       1.383932     506.750885     639.759827     755.797180     882.750854     128.841583       8.500000
          308.5      30.624912    1082.500000     119.634926       0.739726     512.750854     635.027954     757.750854     881.750854     129.045547       8.500000
