~Version Information
VERS .            2.00                          : CWLS Log ASCII Standard - Version 2.00
WRAP .            NO                            : One line per depth step
#
~Well Information
#MNEM.UNIT        DATA                          : DESCRIPTION
#----.----        ----                          : -----------
STRT .M            240.0                        : Start
STOP .M           1229.6                        : Stop
STEP .M              0.1                        : Step increment
NULL .            -999.250                      : Null value
COMP .            S.N.G.N. ROMGAZ S.A.          : Company
WELL .            209 NADES                     : Well
FLD  .            NADES                         : Field
PROV .            MURES                         : Province
CTRY .            Romania                       : State / Country
LOC  .            X = 529925.187 m              : Location
LOC2 .            Y = 477271.675 m              : Location 2
SRVC .            Weatherford                   : Service company
UWI  .                                          : Unique Well ID
LATI .            46 16'07.03" N                : Latitude
LONG .            24 42'12.69" E                : Longitude
UTME .                                          : Universal Transverse Mercator Easting
UTMN .                                          : Universal Transverse Mercator Northing
X    .                                          : X
Y    .                                          : Y
DATE .            04-Sep-2024                   : Logging Date
#
~Curve Information
#MNEM.UNIT        API CODES                     : CURVE DESCRIPTION
#----.----        ---------                     : -----------------
DEPT .M           00 001 00 00                  : Logged depth
CGXT .DEGC        30 660 01 00                  : MCG External Temperature
SMTU .LB          30 635 00 00                  : DST Uphole Tension
CCLG .----        30 150 00 00                  : Casing Collar Locator
DSLL .OHMM        11 220 09 00                  : Shallow Laterolog
DDLL .OHMM        11 220 10 00                  : Deep Laterolog
DGLL .OHMM        11 211 00 00                  : Groningen Laterolog
SPDL .MV          30 010 00 00                  : Spontaneous Potential
GRGM .GAPI        30 310 01 00                  : MGS Gamma Ray
MRRS .OHMM        15 252 00 00                  : MicroRes Resistance (S)
MATC .IN          15 280 01 00                  : MMR Caliper
BIT  .IN          70 282 00 00                  : Bit size
#
~Parameter Information
#MNEM.UNIT        VALUE                         : DESCRIPTION
#----.----        -----                         : -----------
RNID .                                          : Run ID
SON  .            24220368                      : Job Number
DREF .            KB                            : Depth reference
EREF .M            484.710                      : Elevation of depth reference
GL   .M            480.210                      : Ground elevation
KB   .M            484.710                      : Kelly Bushing
DF   .M            484.710                      : Drill Floor
DDRF .            KB                            : Drilling Depth Reference
DERF .M            484.710                      : Elevation of Drilling Depth Reference
RUN  .            2A+2B                         : Run number
TDD  .M           1225.000                      : TD (driller)
TDL  .M           1226.000                      : TD (logger)
BS   .IN             8.500                      : Bit size
TIMC .                                          : Time circulation ended
TIML .                                          : Time logger at bottom
UNIT .            13347                         : Equipment ID
BASE .            PLO                           : Equipment base location
ENG  .            MALEA CRISTIAN                : Recording engineer
WIT  .            VASILE FARCAS                 : Witnessed by
CSGT .            SURFACE                       : Casing type
CSGS .IN            16.000                      : Casing size
CSGW .LB/FT          0.000                      : Casing weight
CSGD .M            250.000                      : Casing bottom (driller)
CSGL .M            249.500                      : Casing bottom (logger)
CSUP .M              0.000                      : Casing Stick Up GL
MUD  .            INHIBITIV                     : Mud type
MUDS .            FLOWLINE                      : Mud sample source
MUDD .G/C3           1.100                      : Mud density
MUDV .SEC/L         50.000                      : Mud viscosity
PH   .               9.500                      : Mud pH
FL   .ML/30MIN       4.100                      : Mud fluid loss rate
RM   .OHMM           0.150                      : Mud resistivity
RMT  .DEGC          25.000                      : Mud sample temperature
RMF  .OHMM           0.120                      : Mud filtrate resistivity
RMFT .DEGC          25.000                      : Mud filtrate sample temperature
RMC  .OHMM           0.180                      : Mud cake resistivity
RMCT .DEGC          25.000                      : Mud cake sample temperature
RMBT .OHMM           0.110                      : Mud Resistivity at BHT
BHT  .DEGC          39.000                      : Bottom Hole Temperature
TMAX .DEGC          39.000                      : Max recorded temperature
#
~Other Information
------------------------------------------------------------------------------------------------
Clients intervals and scales logged
Acquisition software: Weatherford Well Manager, version 24.03.1279
Cable used: CAMESA  size 15/32", type 7J46RXZ with  cable head and 8k weakpoint set
Depth wheel calibration factor used 0.6096
Depth Control Procedure for Multiple runs in the well followed.
Run2A: CBHC, MTAK, MBE, MBE, SHA, MCG, MBN, MTC-Y, MSS, MTC-X, SKJ, MUG, MLE, MLG, MTI, MGS,HFS 
Run2B: CBHC, MTAK, SHA, MCG, SKJ, MMR, MDN, MPD, HFS
Run2C: CBHC, MTAK, SHA, MCG, MISD, SKJ, MISE, SKJ, MISD, MSS, MISD, HFS logged in combination.
 Rm, Rmf, Rmc measured on samples from Mud Engineer given on 04.09.2024
Caliper measurements and averages from TD to casing:
   Total hole volume =  35.32 cubic meters
   Annular volume = 20.52 cubic meters, based on future casing size of 5.5 inches
   Average hole diameter = 8.49 inches (215.77 mm), based on XY caliper
------------------------------------------------------------------------------------------------
#
#          DEPT           CGXT           SMTU           CCLG           DSLL           DDLL           DGLL           SPDL           GRGM           MRRS           MATC            BIT
#
~ASCII Log Data
# ...
         1086.0      38.289776    1860.899878      -1.147365       4.460645       4.274886       4.296006    -116.806078      92.558179       2.989160       8.473095       8.500000
         1086.1      38.305112    1863.149878       1.186915       4.619915       4.454330       4.476382    -116.763964      89.700671       2.972025       8.471073       8.500000
         1086.2      38.295334    1860.649878       2.005924       4.747264       4.594966       4.618416    -116.768446      84.783385       2.843462       8.472439       8.500000
         1086.3      38.287542    1858.749878      -0.709888       4.818562       4.669021       4.694190    -116.774662      80.730457       2.693244       8.474478       8.500000
         1086.4      38.292948    1858.449878      -2.955849       4.805827       4.647017       4.674102    -116.748783      77.243447       2.523765       8.476265       8.500000
         1086.5      38.328853    1857.799878      -2.061629       4.704999       4.527729       4.556476    -116.717848      77.790003       2.398372       8.477322       8.500000
         1086.6      38.250146    1858.449878       2.193849       4.536367       4.337026       4.366654    -116.667152      81.541699       2.328447       8.478901       8.500000
         1086.7      38.265052    1857.499878       2.552339       4.323811       4.103287       4.132929    -116.605757      86.811620       2.312216       8.481376       8.500000
         1086.8      38.272326    1858.099878      -1.061395       4.096204       3.857148       3.885388    -116.617913      92.756896       2.327861       8.483808       8.500000
         1086.9      38.309749    1859.399878       0.072868       3.885447       3.633930       3.659123    -116.743698      98.370594       2.357560       8.486337       8.500000
         1087.0      38.318764    1857.499878       0.300926       3.714581       3.458989       3.481051    -116.907713     103.457446       2.406385       8.488256       8.500000
         1087.1      38.284613    1857.199878       1.419465       3.593324       3.337460       3.357261    -117.104468     105.913825       2.428265       8.490404       8.500000
         1087.2      38.305824    1855.049878       0.167853       3.516681       3.260225       3.278240    -117.273316     107.585329       2.426593       8.492764       8.500000
         1087.3      38.267829    1851.549878      -0.379267       3.472222       3.214874       3.231841    -117.283766     108.675793       2.427450       8.492454       8.500000
         1087.4      38.337065    1852.199878       0.360800       3.449671       3.191333       3.207734    -117.154955     109.767546       2.476429       8.492026       8.500000
         1087.5      38.306935    1850.949878      -2.671445       3.440525       3.181553       3.196283    -117.014017     109.251103       2.520074       8.496658       8.500000
         1087.6      38.362721    1850.299878       1.428600       3.437356       3.178193       3.189774    -116.899617     109.112099       2.560914       8.511948       8.500000
         1087.7      38.288372    1850.949878       3.050912       3.437514       3.179224       3.187483    -116.823198     109.714393       2.562231       8.523611       8.500000
         1087.8      38.246372    1849.399878      -2.798352       3.441403       3.187587       3.193404    -116.815193     110.672617       2.499893       8.517535       8.500000
         1087.9      38.369289    1853.799878      -2.848746       3.449963       3.204353       3.209079    -116.817905     110.787180       2.432357       8.496337       8.500000
         1088.0      38.333464    1874.649878      -0.626782       3.465570       3.230378       3.235787    -116.826717     110.821686       2.359530       8.478355       8.500000
         1088.1      38.294093    1878.099878       0.121265       3.491068       3.270634       3.278251    -116.805364     109.788328       2.338581       8.474065       8.500000
         1088.2      38.253435    1874.899878      -1.041024       3.526401       3.326519       3.336308    -116.776209     107.360637       2.330965       8.480468       8.500000
         1088.3      38.290797    1858.149878      -0.559780       3.566528       3.388276       3.399083    -116.799734     103.782255       2.386603       8.490447       8.500000
         1088.4      38.290587    1856.249878       2.719716       3.605395       3.444388       3.455598    -116.861347     100.952176       2.460016       8.495628       8.500000
         1088.5      38.242605    1856.549878       0.093662       3.636432       3.488177       3.499591    -116.934578      99.056164       2.546412       8.497842       8.500000
         1088.6      38.291318    1857.499878       0.458908       3.650865       3.511866       3.523155    -116.966752      98.303216       2.592074       8.495856       8.500000
         1088.7      38.362831    1857.199878       1.179081       3.644385       3.508593       3.519853    -116.915067      98.996573       2.636934       8.500721       8.500000
         1088.8      38.351500    1855.949878      -0.591667       3.623922       3.484423       3.496005    -116.876185     101.570680       2.647022       8.508061       8.500000
         1088.9      38.334395    1855.299878       1.391319       3.600773       3.457248       3.469186    -116.886042     104.472756       2.622932       8.511313       8.500000
         1089.0      38.311334    1856.249878      -1.259994       3.588062       3.452718       3.464530    -116.848120     107.372795       2.573154       8.505544       8.500000
         1089.1      38.324771    1855.949878      -1.592617       3.618219       3.508843       3.519352    -116.819309     108.832980       2.563175       8.495308       8.500000
         1089.2      38.341103    1854.999878      -0.424368       3.737570       3.661553       3.670163    -116.834481     108.456617       2.712763       8.489004       8.500000
         1089.3      38.289642    1854.699878       0.556898       3.963711       3.911631       3.919287    -116.780508     104.743945       3.201750       8.483086       8.500000
         1089.4      38.295932    1853.749878       0.059860       4.266162       4.218066       4.225761    -116.680319      98.693009       4.126573       8.468880       8.500000
         1089.5      38.283418    1853.149878      -2.413524       4.591770       4.521145       4.529485    -116.597471      90.343595       5.527816       8.454770       8.500000
         1089.6      38.333177    1850.949878       0.996046       4.858602       4.730028       4.740550    -116.497194      83.657209       6.822386       8.447580       8.500000
         1089.7      38.306597    1850.299878       3.553210       4.955964       4.747925       4.761550    -116.403257      79.111855       7.207999       8.451252       8.500000
         1089.8      38.287899    1851.549878       2.432555       4.835409       4.569184       4.583768    -116.330493      80.002664       6.199018       8.454980       8.500000
         1089.9      38.323181    1852.199878      -1.112865       4.557789       4.276492       4.289069    -116.274163      83.609243       4.734107       8.458226       8.500000
         1090.0      38.349029    1851.249878       0.293405       4.228779       3.957133       3.967092    -116.243493      90.040651       3.533100       8.473551       8.500000
         1090.1      38.297244    1851.249878       1.909784       3.930730       3.676872       3.685199    -116.225258      95.528275       2.827656       8.491079       8.500000
         1090.2      38.328624    1851.549878      -3.156771       3.702877       3.472816       3.480054    -116.224950     101.021014       2.525775       8.490799       8.500000
         1090.3      38.318049    1852.799878      -2.744886       3.550323       3.344846       3.351103    -116.254478     104.504784       2.495756       8.479052       8.500000
         1090.4      38.318523    1853.449878       0.788800       3.462974       3.275453       3.281148    -116.243837     107.009373       2.580826       8.475316       8.500000
