~Version Information
VERS .            2.00                          : CWLS Log ASCII Standard - Version 2.00
WRAP .            NO                            : One line per depth step
#
~Well Information
#MNEM.UNIT        DATA                          : DESCRIPTION
#----.----        ----                          : -----------
STRT .M            240.0                        : Start
STOP .M           1227.7                        : Stop
STEP .M              0.1                        : Step increment
NULL .            -999.250                      : Null value
COMP .            S.N.G.N. ROMGAZ S.A.          : Company
WELL .            209 NADES                     : Well
FLD  .            NADES                         : Field
PROV .            MURES                         : Province
CTRY .            Romania                       : State / Country
LOC  .            X = 529925.187 m              : Location
LOC2 .            Y = 477271.675 m              : Location 2
SRVC .            Weatherford                   : Service company
UWI  .                                          : Unique Well ID
LATI .            46 16'07.03" N                : Latitude
LONG .            24 42'12.69" E                : Longitude
UTME .                                          : Universal Transverse Mercator Easting
UTMN .                                          : Universal Transverse Mercator Northing
X    .                                          : X
Y    .                                          : Y
DATE .            04-Sep-2024                   : Logging Date
#
~Curve Information
#MNEM.UNIT        API CODES                     : CURVE DESCRIPTION
#----.----        ---------                     : -----------------
DEPT .M           00 001 00 00                  : Logged depth
CGXT .DEGC        30 660 01 00                  : MCG External Temperature
SMTU .LB          30 635 00 00                  : DST Uphole Tension
GRGC .GAPI        30 310 01 00                  : MCG Gamma Ray
CCLG .----        30 150 00 00                  : Casing Collar Locator
NPRL .PERC        42 890 01 00                  : Limestone Neutron Por.
NPRL .V/V         42 890 01 00                  : Limestone Neutron Por.
CLDC .IN          45 280 01 00                  : Density Caliper
DCOR .G/C3        42 356 01 00                  : Density Correction
DEN  .G/C3        42 350 01 00                  : Compensated Density
PDPE .B/E         45 358 01 00                  : PE
NPOR .PERC        42 890 04 00                  : Base Neutron Porosity
NPOR .V/V         42 890 04 00                  : Base Neutron Porosity
NPRS .PERC        42 890 03 00                  : Sandstone Neutron Por.
NPRS .V/V         42 890 03 00                  : Sandstone Neutron Por.
NPRD .PERC        42 890 02 00                  : Dolomite Neutron Por.
NPRD .V/V         42 890 02 00                  : Dolomite Neutron Por.
DPOR .PERC        45 890 13 00                  : Base Density Porosity
DPOR .V/V         45 890 13 00                  : Base Density Porosity
DPRL .PERC        45 890 10 00                  : Limestone Density Por.
DPRL .V/V         45 890 10 00                  : Limestone Density Por.
DPRS .PERC        45 890 12 00                  : Sandstone Density Por.
DPRS .V/V         45 890 12 00                  : Sandstone Density Por.
DPRD .PERC        45 890 11 00                  : Dolomite Density Por.
DPRD .V/V         45 890 11 00                  : Dolomite Density Por.
HDEN .G/C3        42 350 01 00                  : Vectar Processed Density
BIT  .IN          70 282 00 00                  : Bit size
#
~Parameter Information
#MNEM.UNIT        VALUE                         : DESCRIPTION
#----.----        -----                         : -----------
RNID .                                          : Run ID
SON  .            24220368                      : Job Number
DREF .            KB                            : Depth reference
EREF .M            484.710                      : Elevation of depth reference
GL   .M            480.210                      : Ground elevation
KB   .M            484.710                      : Kelly Bushing
DF   .M            484.710                      : Drill Floor
DDRF .            KB                            : Drilling Depth Reference
DERF .M            484.710                      : Elevation of Drilling Depth Reference
RUN  .            2A+2B                         : Run number
TDD  .M           1225.000                      : TD (driller)
TDL  .M           1226.000                      : TD (logger)
BS   .IN             8.500                      : Bit size
TIMC .                                          : Time circulation ended
TIML .                                          : Time logger at bottom
UNIT .            13347                         : Equipment ID
BASE .            PLO                           : Equipment base location
ENG  .            MALEA CRISTIAN                : Recording engineer
WIT  .            VASILE FARCAS                 : Witnessed by
CSGT .            SURFACE                       : Casing type
CSGS .IN            16.000                      : Casing size
CSGW .LB/FT          0.000                      : Casing weight
CSGD .M            250.000                      : Casing bottom (driller)
CSGL .M            249.500                      : Casing bottom (logger)
CSUP .M              0.000                      : Casing Stick Up GL
MUD  .            INHIBITIV                     : Mud type
MUDS .            FLOWLINE                      : Mud sample source
MUDD .G/C3           1.100                      : Mud density
MUDV .SEC/L         50.000                      : Mud viscosity
PH   .               9.500                      : Mud pH
FL   .ML/30MIN       4.100                      : Mud fluid loss rate
RM   .OHMM           0.150                      : Mud resistivity
RMT  .DEGC          25.000                      : Mud sample temperature
RMF  .OHMM           0.120                      : Mud filtrate resistivity
RMFT .DEGC          25.000                      : Mud filtrate sample temperature
RMC  .OHMM           0.180                      : Mud cake resistivity
RMCT .DEGC          25.000                      : Mud cake sample temperature
RMBT .OHMM           0.110                      : Mud Resistivity at BHT
BHT  .DEGC          39.000                      : Bottom Hole Temperature
TMAX .DEGC          39.000                      : Max recorded temperature
#
~Other Information
------------------------------------------------------------------------------------------------
Clients intervals and scales logged
Acquisition software: Weatherford Well Manager, version 24.03.1279
Cable used: CAMESA  size 15/32", type 7J46RXZ with  cable head and 8k weakpoint set
Depth wheel calibration factor used 0.6096
Depth Control Procedure for Multiple runs in the well followed.
Run2A: CBHC, MTAK, MBE, MBE, SHA, MCG, MBN, MTC-Y, MSS, MTC-X, SKJ, MUG, MLE, MLG, MTI, MGS,HFS 
Run2B: CBHC, MTAK, SHA, MCG, SKJ, MMR, MDN, MPD, HFS
Run2C: CBHC, MTAK, SHA, MCG, MISD, SKJ, MISE, SKJ, MISD, MSS, MISD, HFS logged in combination.
 Rm, Rmf, Rmc measured on samples from Mud Engineer given on 04.09.2024
Caliper measurements and averages from TD to casing:
   Total hole volume =  35.32 cubic meters
   Annular volume = 20.52 cubic meters, based on future casing size of 5.5 inches
   Average hole diameter = 8.49 inches (215.77 mm), based on XY caliper
------------------------------------------------------------------------------------------------
#
#          DEPT           CGXT           SMTU           GRGC           CCLG           NPRL           NPRL           CLDC           DCOR            DEN           PDPE           NPOR           NPOR           NPRS           NPRS           NPRD           NPRD           DPOR           DPOR           DPRL           DPRL           DPRS           DPRS           DPRD           DPRD           HDEN            BIT
#
~ASCII Log Data
# ...
         1028.0      37.858524    1362.499878     103.680580      -3.876582      25.154634       0.251546       8.427641       0.035987       2.475610       3.002159      23.693516       0.236935      31.485642       0.314856      22.823722       0.228237      13.707045       0.137070      13.707045       0.137070      10.569119       0.105691      21.090400       0.210904       2.473919       8.500000
         1028.1      37.902323    1360.624878     101.434135      -3.006329      25.181336       0.251813       8.404047       0.030882       2.465571       3.007387      23.709410       0.237094      31.512129       0.315121      22.848297       0.228483      14.294084       0.142941      14.294084       0.142941      11.177505       0.111775      21.627211       0.216272       2.465108       8.500000
         1028.2      37.854412    1359.999878      99.086449       1.253165      25.070573       0.250706       8.406224       0.023995       2.449138       3.030987      23.601021       0.236010      31.403543       0.314035      22.746465       0.227465      15.255106       0.152551      15.255106       0.152551      12.173473       0.121735      22.506005       0.225060       2.451073       8.500000
         1028.3      37.803072    1359.374878      98.458912       3.436709      24.973610       0.249736       8.423126       0.018338       2.432406       3.053862      23.511102       0.235111      31.308028       0.313080      22.657297       0.226573      16.233550       0.162335      16.233550       0.162335      13.187497       0.131875      23.400732       0.234007       2.435665       8.500000
         1028.4      37.833294    1358.124878     100.129440       5.215190      24.948409       0.249484       8.432760       0.016168       2.422970       3.073895      23.492889       0.234929      31.282428       0.312824      22.634077       0.226341      16.785370       0.167854      16.785370       0.167854      13.759383       0.137594      23.905338       0.239053       2.423772       8.500000
         1028.5      37.822432    1356.249878     102.139980       2.686709      25.083755       0.250838       8.439540       0.016645       2.421124       3.104570      23.626388       0.236264      31.412840       0.314128      22.758391       0.227584      16.893320       0.168933      16.893320       0.168933      13.871259       0.138713      24.004052       0.240041       2.420318       8.500000
         1028.6      37.858852    1366.874878     102.260509      -2.462025      25.337697       0.253377       8.451320       0.019234       2.428181       3.134194      23.868780       0.238688      31.658574       0.316586      22.991693       0.229917      16.480619       0.164806      16.480619       0.164806      13.443551       0.134436      23.626662       0.236267       2.427718       8.500000
         1028.7      37.956804    1368.124878     100.110180      -4.593476      25.596147       0.255961       8.455150       0.023200       2.440833       3.147608      24.111860       0.241119      31.909192       0.319092      23.229165       0.232292      15.740769       0.157408      15.740769       0.157408      12.676796       0.126768      22.950114       0.229501       2.441240       8.500000
         1028.8      37.967325    1353.749878      95.921917      -1.011198      25.584804       0.255848       8.443257       0.026998       2.452349       3.143440      24.097215       0.240972      31.894553       0.318946      23.218503       0.232185      15.067327       0.150673      15.067327       0.150673      11.978866       0.119789      22.334293       0.223343       2.452274       8.500000
         1028.9      37.889849    1355.624878      90.893814       0.894109      25.155839       0.251558       8.423858       0.028902       2.456658       3.131779      23.685811       0.236858      31.467231       0.314672      22.823618       0.228236      14.815293       0.148153      14.815293       0.148153      11.717668       0.117177      22.103825       0.221038       2.454829       8.500000
         1029.0      37.841551    1356.874878      86.382950      -1.878043      24.257200       0.242572       8.416709       0.027938       2.452744       3.121529      22.829440       0.228294      30.568152       0.305682      21.996025       0.219960      15.044224       0.150442      15.044224       0.150442      11.954923       0.119549      22.313168       0.223132       2.449622       8.500000
         1029.1      37.914692    1349.999878      83.637508       0.556800      22.951983       0.229520       8.413092       0.024734       2.447013       3.126573      21.589401       0.215894      29.250710       0.292507      20.793013       0.207930      15.379349       0.153793      15.379349       0.153793      12.302234       0.123022      22.619618       0.226196       2.444337       8.500000
         1029.2      37.914633    1356.249878      82.351242       2.031483      21.389015       0.213890       8.400972       0.020638       2.445937       3.156448      20.107173       0.201072      27.653724       0.276537      19.350771       0.193508      15.442278       0.154423      15.442278       0.154423      12.367452       0.123675      22.677164       0.226772       2.445588       8.500000
         1029.3      37.878107    1363.124878      82.336113      -3.885914      19.867858       0.198679       8.394706       0.017285       2.451228       3.209353      18.665849       0.186658      26.083939       0.260839      17.945796       0.179458      15.132843       0.151328      15.132843       0.151328      12.046765       0.120468      22.394204       0.223942       2.453320       8.500000
         1029.4      37.901325    1353.749878      85.200619      -4.781483      18.796636       0.187966       8.396522       0.015547       2.459399       3.254230      17.650891       0.176509      24.968926       0.249689      16.955614       0.169556      14.655002       0.146550      14.655002       0.146550      11.551548       0.115515      21.957248       0.219572       2.463004       8.500000
         1029.5      37.905661    1361.249878      91.817417       4.012619      18.488668       0.184887       8.398233       0.015587       2.466976       3.263841      17.358077       0.173581      24.642338       0.246423      16.670428       0.166704      14.211941       0.142119      14.211941       0.142119      11.092375       0.110924      21.552095       0.215521       2.470237       8.500000
         1029.6      37.862026    1364.999878      99.987892       3.622242      19.139942       0.191399       8.396794       0.016391       2.469476       3.247192      17.972139       0.179721      25.303308       0.253033      17.271014       0.172710      14.065760       0.140658      14.065760       0.140658      10.940878       0.109409      21.418422       0.214184       2.471082       8.500000
         1029.7      37.839523    1353.124878     106.764347      -5.596804      20.658229       0.206582       8.392152       0.016944       2.465076       3.239399      19.405377       0.194054      26.850472       0.268505      18.671797       0.186718      14.323015       0.143230      14.323015       0.143230      11.207489       0.112075      21.653666       0.216537       2.463964       8.500000
         1029.8      37.931858    1368.124878     111.198807      -2.844532      22.771619       0.227716       8.387176       0.016682       2.456715       3.246989      21.400614       0.214006      28.992273       0.289923      20.620972       0.206210      14.811982       0.148120      14.811982       0.148120      11.714236       0.117142      22.100797       0.221008       2.453978       8.500000
         1029.9      37.896660    1374.374878     113.145157       3.270894      25.093581       0.250936       8.384426       0.015762       2.449986       3.263486      23.592269       0.235923      31.313756       0.313138      22.760558       0.227606      15.205526       0.152055      15.205526       0.152055      12.122091       0.121221      22.460668       0.224607       2.448490       8.500000
