~Version Information
VERS .            2.00                          : CWLS Log ASCII Standard - Version 2.00
WRAP .            NO                            : One line per depth step
#
~Well Information
#MNEM.UNIT        DATA                          : DESCRIPTION
#----.----        ----                          : -----------
STRT .M            240.0                        : Start
STOP .M           1227.7                        : Stop
STEP .M              0.1                        : Step increment
NULL .            -999.250                      : Null value
COMP .            S.N.G.N. ROMGAZ S.A.          : Company
WELL .            209 NADES                     : Well
FLD  .            NADES                         : Field
PROV .            MURES                         : Province
CTRY .            Romania                       : State / Country
LOC  .            X = 529925.187 m              : Location
LOC2 .            Y = 477271.675 m              : Location 2
SRVC .            Weatherford                   : Service company
UWI  .                                          : Unique Well ID
LATI .            46 16'07.03" N                : Latitude
LONG .            24 42'12.69" E                : Longitude
UTME .                                          : Universal Transverse Mercator Easting
UTMN .                                          : Universal Transverse Mercator Northing
X    .                                          : X
Y    .                                          : Y
DATE .            04-Sep-2024                   : Logging Date
#
~Curve Information
#MNEM.UNIT        API CODES                     : CURVE DESCRIPTION
#----.----        ---------                     : -----------------
DEPT .M           00 001 00 00                  : Logged depth
CGXT .DEGC        30 660 01 00                  : MCG External Temperature
SMTU .LB          30 635 00 00                  : DST Uphole Tension
GRGC .GAPI        30 310 01 00                  : MCG Gamma Ray
CCLG .----        30 150 00 00                  : Casing Collar Locator
NPRL .PERC        42 890 01 00                  : Limestone Neutron Por.
NPRL .V/V         42 890 01 00                  : Limestone Neutron Por.
CLDC .IN          45 280 01 00                  : Density Caliper
DCOR .G/C3        42 356 01 00                  : Density Correction
DEN  .G/C3        42 350 01 00                  : Compensated Density
PDPE .B/E         45 358 01 00                  : PE
NPOR .PERC        42 890 04 00                  : Base Neutron Porosity
NPOR .V/V         42 890 04 00                  : Base Neutron Porosity
NPRS .PERC        42 890 03 00                  : Sandstone Neutron Por.
NPRS .V/V         42 890 03 00                  : Sandstone Neutron Por.
NPRD .PERC        42 890 02 00                  : Dolomite Neutron Por.
NPRD .V/V         42 890 02 00                  : Dolomite Neutron Por.
DPOR .PERC        45 890 13 00                  : Base Density Porosity
DPOR .V/V         45 890 13 00                  : Base Density Porosity
DPRL .PERC        45 890 10 00                  : Limestone Density Por.
DPRL .V/V         45 890 10 00                  : Limestone Density Por.
DPRS .PERC        45 890 12 00                  : Sandstone Density Por.
DPRS .V/V         45 890 12 00                  : Sandstone Density Por.
DPRD .PERC        45 890 11 00                  : Dolomite Density Por.
DPRD .V/V         45 890 11 00                  : Dolomite Density Por.
HDEN .G/C3        42 350 01 00                  : Vectar Processed Density
BIT  .IN          70 282 00 00                  : Bit size
#
~Parameter Information
#MNEM.UNIT        VALUE                         : DESCRIPTION
#----.----        -----                         : -----------
RNID .                                          : Run ID
SON  .            24220368                      : Job Number
DREF .            KB                            : Depth reference
EREF .M            484.710                      : Elevation of depth reference
GL   .M            480.210                      : Ground elevation
KB   .M            484.710                      : Kelly Bushing
DF   .M            484.710                      : Drill Floor
DDRF .            KB                            : Drilling Depth Reference
DERF .M            484.710                      : Elevation of Drilling Depth Reference
RUN  .            2A+2B                         : Run number
TDD  .M           1225.000                      : TD (driller)
TDL  .M           1226.000                      : TD (logger)
BS   .IN             8.500                      : Bit size
TIMC .                                          : Time circulation ended
TIML .                                          : Time logger at bottom
UNIT .            13347                         : Equipment ID
BASE .            PLO                           : Equipment base location
ENG  .            MALEA CRISTIAN                : Recording engineer
WIT  .            VASILE FARCAS                 : Witnessed by
CSGT .            SURFACE                       : Casing type
CSGS .IN            16.000                      : Casing size
CSGW .LB/FT          0.000                      : Casing weight
CSGD .M            250.000                      : Casing bottom (driller)
CSGL .M            249.500                      : Casing bottom (logger)
CSUP .M              0.000                      : Casing Stick Up GL
MUD  .            INHIBITIV                     : Mud type
MUDS .            FLOWLINE                      : Mud sample source
MUDD .G/C3           1.100                      : Mud density
MUDV .SEC/L         50.000                      : Mud viscosity
PH   .               9.500                      : Mud pH
FL   .ML/30MIN       4.100                      : Mud fluid loss rate
RM   .OHMM           0.150                      : Mud resistivity
RMT  .DEGC          25.000                      : Mud sample temperature
RMF  .OHMM           0.120                      : Mud filtrate resistivity
RMFT .DEGC          25.000                      : Mud filtrate sample temperature
RMC  .OHMM           0.180                      : Mud cake resistivity
RMCT .DEGC          25.000                      : Mud cake sample temperature
RMBT .OHMM           0.110                      : Mud Resistivity at BHT
BHT  .DEGC          39.000                      : Bottom Hole Temperature
TMAX .DEGC          39.000                      : Max recorded temperature
#
~Other Information
------------------------------------------------------------------------------------------------
Clients intervals and scales logged
Acquisition software: Weatherford Well Manager, version 24.03.1279
Cable used: CAMESA  size 15/32", type 7J46RXZ with  cable head and 8k weakpoint set
Depth wheel calibration factor used 0.6096
Depth Control Procedure for Multiple runs in the well followed.
Run2A: CBHC, MTAK, MBE, MBE, SHA, MCG, MBN, MTC-Y, MSS, MTC-X, SKJ, MUG, MLE, MLG, MTI, MGS,HFS 
Run2B: CBHC, MTAK, SHA, MCG, SKJ, MMR, MDN, MPD, HFS
Run2C: CBHC, MTAK, SHA, MCG, MISD, SKJ, MISE, SKJ, MISD, MSS, MISD, HFS logged in combination.
 Rm, Rmf, Rmc measured on samples from Mud Engineer given on 04.09.2024
Caliper measurements and averages from TD to casing:
   Total hole volume =  35.32 cubic meters
   Annular volume = 20.52 cubic meters, based on future casing size of 5.5 inches
   Average hole diameter = 8.49 inches (215.77 mm), based on XY caliper
------------------------------------------------------------------------------------------------
#
#          DEPT           CGXT           SMTU           GRGC           CCLG           NPRL           NPRL           CLDC           DCOR            DEN           PDPE           NPOR           NPOR           NPRS           NPRS           NPRD           NPRD           DPOR           DPOR           DPRL           DPRL           DPRS           DPRS           DPRD           DPRD           HDEN            BIT
#
~ASCII Log Data
# ...
          964.0      36.919601    1306.874878      68.265926      -0.101888      17.325639       0.173256       8.339154       0.009246       2.296206       2.734096      16.242054       0.162421      23.408763       0.234088      15.594229       0.155942      24.198494       0.241985      24.198494       0.241985      21.442076       0.214421      30.684184       0.306842       2.295854       8.500000
          964.1      36.908426    1306.249878      67.670773      -0.126752      17.422089       0.174221       8.339136       0.008849       2.288031       2.723707      16.333421       0.163334      23.512858       0.235129      15.683743       0.156837      24.676544       0.246765      24.676544       0.246765      21.937510       0.219375      31.121331       0.311213       2.287875       8.500000
          964.2      36.932568    1306.249878      67.043121      -0.810791      17.436486       0.174365       8.339136       0.008652       2.283099       2.716322      16.347026       0.163470      23.528110       0.235281      15.697070       0.156971      24.964947       0.249649      24.964947       0.249649      22.236400       0.222364      31.385058       0.313851       2.282499       8.500000
          964.3      36.925846    1306.249878      67.199528      -0.067840      17.343091       0.173431       8.339174       0.008563       2.280864       2.704568      16.258557       0.162586      23.426792       0.234268      15.610329       0.156103      25.095665       0.250957      25.095665       0.250957      22.371872       0.223719      31.504593       0.315046       2.280068       8.500000
          964.4      36.926651    1306.249878      68.243507      -0.188653      17.221476       0.172215       8.339196       0.008422       2.279964       2.686574      16.143385       0.161434      23.295242       0.232952      15.497426       0.154974      25.148327       0.251483      25.148327       0.251483      22.426448       0.224264      31.552748       0.315527       2.279477       8.500000
          964.5      36.952969    1306.249878      69.186390      -0.965610      17.239820       0.172398       8.339175       0.008345       2.281394       2.662055      16.160641       0.161606      23.314872       0.233149      15.514427       0.155144      25.064672       0.250647      25.064672       0.250647      22.339750       0.223398      31.476250       0.314762       2.281025       8.500000
          964.6      36.947931    1306.874878      69.040638       0.223044      17.510124       0.175101       8.339133       0.008414       2.285654       2.634524      16.416312       0.164163      23.606791       0.236068      15.765300       0.157653      24.815579       0.248156      24.815579       0.248156      22.081601       0.220816      31.248471       0.312485       2.285247       8.500000
          964.7      36.935204    1307.499878      68.323414       0.419814      17.947983       0.179480       8.339120       0.008461       2.290946       2.612215      16.830512       0.168305      24.080632       0.240806      16.171790       0.161718      24.506067       0.245061      24.506067       0.245061      21.760834       0.217608      30.965442       0.309654       2.290446       8.500000
          964.8      36.947170    1308.124878      67.802231       0.460612      18.298362       0.182984       8.339121       0.008422       2.296345       2.607176      17.161939       0.171619      24.460915       0.244609      16.497189       0.164972      24.190358       0.241904      24.190358       0.241904      21.433643       0.214336      30.676744       0.306767       2.296221       8.500000
          964.9      36.939690    1309.999878      67.187878       0.768071      18.381726       0.183817       8.339098       0.008461       2.303050       2.621171      17.240710       0.172407      24.552408       0.245524      16.574720       0.165747      23.798258       0.237983      23.798258       0.237983      21.027285       0.210273      30.318192       0.303182       2.303208       8.500000
          965.0      36.955873    1311.249878      66.763393      -0.687734      18.185966       0.181860       8.339080       0.008653       2.310713       2.645756      17.055385       0.170554      24.341879       0.243419      16.393128       0.163931      23.350135       0.233501      23.350135       0.233501      20.562867       0.205629      29.908412       0.299084       2.311347       8.500000
          965.1      36.982132    1312.499878      66.956528       0.081039      17.846250       0.178462       8.339078       0.008794       2.315858       2.676368      16.733922       0.167339      23.976339       0.239763      16.077980       0.160780      23.049232       0.230492      23.049232       0.230492      20.251022       0.202510      29.633255       0.296333       2.317051       8.500000
          965.2      36.971134    1313.749878      67.610741       1.289793      17.572952       0.175730       8.339088       0.008854       2.317047       2.711728      16.475340       0.164753      23.682500       0.236825      15.824474       0.158245      22.979715       0.229797      22.979715       0.229797      20.178977       0.201790      29.569686       0.295697       2.318295       8.500000
          965.3      36.962236    1313.749878      68.245476       0.236014      17.607175       0.176072       8.339104       0.008929       2.315760       2.756024      16.507667       0.165077      23.717032       0.237170      15.855986       0.158560      23.054998       0.230550      23.054998       0.230550      20.256998       0.202570      29.638528       0.296385       2.315972       8.500000
          965.4      36.939795    1314.374878      70.014595      -0.165584      18.068869       0.180689       8.339119       0.009094       2.314582       2.800452      16.944380       0.169444      24.205366       0.242054      16.283425       0.162834      23.123854       0.231239      23.123854       0.231239      20.328357       0.203284      29.701491       0.297015       2.313957       8.500000
          965.5      36.963058    1315.624878      73.971413       0.409328      18.839099       0.188391       8.339128       0.009203       2.314387       2.831772      17.672953       0.176730      25.020270       0.250203      16.996537       0.169965      23.135238       0.231352      23.135238       0.231352      20.340155       0.203402      29.711902       0.297119       2.313224       8.500000
          965.6      36.985367    1316.249878      78.852314      -0.171133      19.683158       0.196832       8.339125       0.009118       2.315441       2.852239      18.471305       0.184713      25.913101       0.259131      17.777981       0.177780      23.073626       0.230736      23.073626       0.230736      20.276302       0.202763      29.655561       0.296556       2.313914       8.500000
          965.7      36.935234    1314.999878      82.584156      -0.685967      20.426196       0.204262       8.339117       0.008816       2.318876       2.886471      19.173995       0.191740      26.698511       0.266985      18.465829       0.184658      22.872733       0.228727      22.872733       0.228727      20.068105       0.200681      29.471858       0.294719       2.316874       8.500000
          965.8      36.946962    1313.124878      85.396164       1.113033      21.023282       0.210233       8.339118       0.008484       2.326544       2.949668      19.738521       0.197385      27.325939       0.273259      19.018204       0.190182      22.424346       0.224243      22.424346       0.224243      19.603413       0.196034      29.061835       0.290618       2.325517       8.500000
          965.9      36.973728    1312.499878      88.674397       0.461509      21.511148       0.215111       8.339122       0.008391       2.339797       3.019394      20.199590       0.201996      27.830477       0.278305      19.468796       0.194688      21.649270       0.216493      21.649270       0.216493      18.800152       0.188002      28.353075       0.283531       2.339791       8.500000
