~Version Information
VERS .            2.00                          : CWLS Log ASCII Standard - Version 2.00
WRAP .            NO                            : One line per depth step
#
~Well Information
#MNEM.UNIT        DATA                          : DESCRIPTION
#----.----        ----                          : -----------
STRT .M            240.0                        : Start
STOP .M           1228.5                        : Stop
STEP .M              0.1                        : Step increment
NULL .            -999.250                      : Null value
COMP .            S.N.G.N. ROMGAZ S.A.          : Company
WELL .            209 NADES                     : Well
FLD  .            NADES                         : Field
PROV .            MURES                         : Province
CTRY .            Romania                       : State / Country
LOC  .            X = 529925.187 m              : Location
LOC2 .            Y = 477271.675 m              : Location 2
SRVC .            Weatherford                   : Service company
UWI  .                                          : Unique Well ID
LATI .            46 16'07.03" N                : Latitude
LONG .            24 42'12.69" E                : Longitude
UTME .                                          : Universal Transverse Mercator Easting
UTMN .                                          : Universal Transverse Mercator Northing
X    .                                          : X
Y    .                                          : Y
DATE .            04-Sep-2024                   : Logging Date
#
~Curve Information
#MNEM.UNIT        API CODES                     : CURVE DESCRIPTION
#----.----        ---------                     : -----------------
DEPT .M           00 001 00 00                  : Logged depth
CGXT .DEGC        30 660 01 00                  : MCG External Temperature
SMTU .LB          30 635 00 00                  : DST Uphole Tension
GRGC .GAPI        30 310 01 00                  : MCG Gamma Ray
CCLG .----        30 150 00 00                  : Casing Collar Locator
TR21 .US          60 520 30 00                  : 3' Transit Time
TR11 .US          60 520 04 00                  : 4' Transit Time
TR22 .US          60 520 50 00                  : 5' Transit Time
TR12 .US          60 520 60 00                  : 6' Transit Time
DT35 .US/F        60 520 32 00                  : 3-5' Compensated Sonic
BIT  .IN          70 282 00 00                  : Bit size
#
~Parameter Information
#MNEM.UNIT        VALUE                         : DESCRIPTION
#----.----        -----                         : -----------
RNID .                                          : Run ID
SON  .            24220368                      : Job Number
DREF .            KB                            : Depth reference
EREF .M            484.710                      : Elevation of depth reference
GL   .M            480.210                      : Ground elevation
KB   .M            484.710                      : Kelly Bushing
DF   .M            484.710                      : Drill Floor
DDRF .            KB                            : Drilling Depth Reference
DERF .M            484.710                      : Elevation of Drilling Depth Reference
RUN  .            2A+2B                         : Run number
TDD  .M           1225.000                      : TD (driller)
TDL  .M           1226.000                      : TD (logger)
BS   .IN             8.500                      : Bit size
TIMC .                                          : Time circulation ended
TIML .                                          : Time logger at bottom
UNIT .            13347                         : Equipment ID
BASE .            PLO                           : Equipment base location
ENG  .            MALEA CRISTIAN                : Recording engineer
WIT  .            VASILE FARCAS                 : Witnessed by
CSGT .            SURFACE                       : Casing type
CSGS .IN            16.000                      : Casing size
CSGW .LB/FT          0.000                      : Casing weight
CSGD .M            250.000                      : Casing bottom (driller)
CSGL .M            249.500                      : Casing bottom (logger)
CSUP .M              0.000                      : Casing Stick Up GL
MUD  .            INHIBITIV                     : Mud type
MUDS .            FLOWLINE                      : Mud sample source
MUDD .G/C3           1.100                      : Mud density
MUDV .SEC/L         50.000                      : Mud viscosity
PH   .               9.500                      : Mud pH
FL   .ML/30MIN       4.100                      : Mud fluid loss rate
RM   .OHMM           0.150                      : Mud resistivity
RMT  .DEGC          25.000                      : Mud sample temperature
RMF  .OHMM           0.120                      : Mud filtrate resistivity
RMFT .DEGC          25.000                      : Mud filtrate sample temperature
RMC  .OHMM           0.180                      : Mud cake resistivity
RMCT .DEGC          25.000                      : Mud cake sample temperature
RMBT .OHMM           0.110                      : Mud Resistivity at BHT
BHT  .DEGC          39.000                      : Bottom Hole Temperature
TMAX .DEGC          39.000                      : Max recorded temperature
#
~Other Information
------------------------------------------------------------------------------------------------
Clients intervals and scales logged
Acquisition software: Weatherford Well Manager, version 24.03.1279
Cable used: CAMESA  size 15/32", type 7J46RXZ with  cable head and 8k weakpoint set
Depth wheel calibration factor used 0.6096
Depth Control Procedure for Multiple runs in the well followed.
Run2A: CBHC, MTAK, MBE, MBE, SHA, MCG, MBN, MTC-Y, MSS, MTC-X, SKJ, MUG, MLE, MLG, MTI, MGS,HFS 
Run2B: CBHC, MTAK, SHA, MCG, SKJ, MMR, MDN, MPD, HFS
Run2C: CBHC, MTAK, SHA, MCG, MISD, SKJ, MISE, SKJ, MISD, MSS, MISD, HFS logged in combination.
 Rm, Rmf, Rmc measured on samples from Mud Engineer given on 04.09.2024
Caliper measurements and averages from TD to casing:
   Total hole volume =  35.32 cubic meters
   Annular volume = 20.52 cubic meters, based on future casing size of 5.5 inches
   Average hole diameter = 8.49 inches (215.77 mm), based on XY caliper
------------------------------------------------------------------------------------------------
#
#          DEPT           CGXT           SMTU           GRGC           CCLG           TR21           TR11           TR22           TR12           DT35            BIT
#
~ASCII Log Data
# ...
         1077.9      38.297890    1834.999878      98.864838       0.709459     409.833588     509.056610     603.750854     702.278381      96.616867       8.500000
         1078.0      38.196552    1833.749878     102.967270       0.406667     407.991852     503.115692     603.857544     703.040649      96.321831       8.500000
         1078.1      38.245403    1854.999878     106.048447      -2.851352     407.750885     501.098145     602.900452     704.750854      95.891411       8.500000
         1078.2      38.259441    1856.249878     105.692253      -1.599999     406.868652     502.106750     601.750854     704.056274      95.295761       8.500000
         1078.3      38.305431    1856.249878     102.388557       1.183964     406.845917     505.934784     601.882874     702.784363      94.724701       8.500000
         1078.4      38.225464    1844.999878      97.908554       3.197105     409.750885     507.846344     605.770020     700.750854      94.352821       8.500000
         1078.5      38.176823    1833.749878      93.651726       1.784386     412.750885     507.750885     606.750854     699.750854      94.442703       8.500000
         1078.6      38.197182    1833.749878      90.660782      -3.677632     412.750885     510.750885     604.750854     700.812256      95.049995       8.500000
         1078.7      38.212440    1852.499878      90.895409      -3.096728     413.750885     510.750885     604.750854     702.009216      96.053825       8.500000
         1078.8      38.251873    1851.249878      94.314369       2.736842     412.750885     509.036133     606.750854     702.038330      97.128746       8.500000
         1078.9      38.212856    1852.499878     100.115410       2.807254     413.896851     507.926239     606.750854     704.923401      97.957428       8.500000
         1079.0      38.226894    1853.749878     105.816399      -1.065789     415.750885     508.750885     607.770874     707.750854      98.375771       8.500000
         1079.1      38.200787    1856.249878     110.911629      -1.428246     417.750885     511.176697     609.750854     707.816223      98.347900       8.500000
         1079.2      38.267998    1857.499878     112.204201       2.009473     418.750885     515.750854     612.750854     708.750854      98.042130       8.500000
         1079.3      38.257027    1857.499878     110.320747       0.012883     418.750885     518.750854     616.750854     706.811096      97.664406       8.500000
         1079.4      38.246059    1859.999878     108.063065      -1.986666     420.750885     519.750854     615.750854     709.750854      97.515350       8.500000
         1079.5      38.203888    1857.499878     106.526047       0.685100     421.750885     519.750854     616.926025     712.862366      97.652802       8.500000
         1079.6      38.256996    1838.749878     106.893135      -0.293334     420.750885     517.750854     617.750854     714.122375      98.005104       8.500000
         1079.7      38.209400    1868.749878     107.936646      -0.678343     417.750885     517.904236     617.750854     714.750854      98.393257       8.500000
         1079.8      38.196972    1853.749878     109.102051       1.134325     418.750885     516.750854     616.750854     715.750854      98.672531       8.500000
         1079.9      38.193306    1848.749878     107.964554      -2.299640     419.750885     516.750854     616.750854     713.750854      98.764404       8.500000
         1080.0      38.177391    1851.249878     106.262421      -1.027027     420.750885     516.750854     613.750854     712.867065      98.603302       8.500000
         1080.1      38.289543    1851.249878     104.252029       1.860001     420.750885     517.907410     613.750854     711.966614      98.355385       8.500000
         1080.2      38.229549    1851.249878     105.101295       1.086036     421.750885     516.815979     614.847473     712.203918      98.053886       8.500000
         1080.3      38.229340    1852.499878     105.607658      -2.380000     419.750885     516.813110     615.750854     712.750854      97.846771       8.500000
         1080.4      38.255180    1851.249878     107.873619      -2.820000     417.750885     517.799133     616.750854     713.750854      97.654633       8.500000
         1080.5      38.233273    1854.999878     108.668831       0.057193     418.750885     517.750854     616.750854     711.750854      97.656837       8.500000
         1080.6      38.179298    1854.999878     109.440681      -0.401172     418.750885     516.750854     614.750854     710.750854      97.778091       8.500000
         1080.7      38.262897    1837.499878     107.397873      -0.930527     418.750885     515.801392     611.752869     709.750854      98.043587       8.500000
         1080.8      38.249458    1843.749878     106.672699       2.452703     418.750885     514.023071     608.789612     709.750854      98.271538       8.500000
         1080.9      38.196377    1854.999878     105.620567      -0.628684     416.867554     511.750885     609.750854     710.071167      98.355888       8.500000
         1081.0      38.157986    1851.249878     106.575638      -0.231532     415.750885     510.750885     610.750854     710.766785      98.097198       8.500000
         1081.1      38.239086    1852.499878     106.127052       5.495351     412.750885     511.750885     612.750854     712.750854      97.523338       8.500000
         1081.2      38.134502    1879.999878     106.889816       3.069369     414.750885     513.750854     614.750854     711.750854      96.813881       8.500000
         1081.3      38.221889    1863.749878     107.704025      -2.369639     415.750885     514.819702     614.750854     710.750854      96.289864       8.500000
         1081.4      38.218430    1859.999878     109.304741      -4.574325     415.750885     516.750854     613.040161     711.139099      96.190056       8.500000
         1081.5      38.248325    1838.749878     109.353539      -0.483694     414.750885     515.810608     613.750854     709.220825      96.654434       8.500000
         1081.6      38.226059    1837.499878     110.234604      -0.054053     413.935944     512.870544     612.750854     709.813477      97.505814       8.500000
         1081.7      38.206062    1866.249878     110.427155       0.186397     413.750885     511.750885     609.944519     710.904724      98.450729       8.500000
         1081.8      38.197182    1836.249878     109.524323       1.750000     414.963715     509.083221     609.186157     709.750854      99.120842       8.500000
         1081.9      38.220787    1832.499878     106.160080       0.813603     416.750885     509.750885     607.957520     705.750854      99.438774       8.500000
         1082.0      38.226448    1871.249878     102.253220       0.575675     416.750885     512.750854     606.084229     704.134277      99.380630       8.500000
         1082.1      38.239086    1854.999878      97.680428       2.700000     415.832977     513.958984     607.750854     702.750854      99.085556       8.500000
         1082.2      38.165409    1854.999878      94.254066      -6.139999     415.750885     511.750885     608.815918     703.107544      98.644058       8.500000
         1082.3      38.270439    1879.999878      92.086090      -3.559123     412.750885     510.750885     609.750854     705.777527      98.156822       8.500000
         1082.4      38.339943    1871.249878      89.780663       4.996757     411.750885     509.750885     609.044312     707.858276      97.634918       8.500000
         1082.5      38.197987    1854.999878      85.751381      -1.654211     407.874146     508.750885     609.750854     708.783997      97.124161       8.500000
         1082.6      38.199417    1858.749878      80.212761      -1.116756     407.750885     508.750885     608.824036     708.216919      96.705421       8.500000
         1082.7      38.248653    1856.249878      75.404930       2.513333     409.750885     505.361572     608.840393     707.879639      96.500870       8.500000
