~Version Information
VERS .            2.00                          : CWLS Log ASCII Standard - Version 2.00
WRAP .            NO                            : One line per depth step
#
~Well Information
#MNEM.UNIT        DATA                          : DESCRIPTION
#----.----        ----                          : -----------
STRT .M            240.0                        : Start
STOP .M           1228.5                        : Stop
STEP .M              0.1                        : Step increment
NULL .            -999.250                      : Null value
COMP .            S.N.G.N. ROMGAZ S.A.          : Company
WELL .            209 NADES                     : Well
FLD  .            NADES                         : Field
PROV .            MURES                         : Province
CTRY .            Romania                       : State / Country
LOC  .            X = 529925.187 m              : Location
LOC2 .            Y = 477271.675 m              : Location 2
SRVC .            Weatherford                   : Service company
UWI  .                                          : Unique Well ID
LATI .            46 16'07.03" N                : Latitude
LONG .            24 42'12.69" E                : Longitude
UTME .                                          : Universal Transverse Mercator Easting
UTMN .                                          : Universal Transverse Mercator Northing
X    .                                          : X
Y    .                                          : Y
DATE .            04-Sep-2024                   : Logging Date
#
~Curve Information
#MNEM.UNIT        API CODES                     : CURVE DESCRIPTION
#----.----        ---------                     : -----------------
DEPT .M           00 001 00 00                  : Logged depth
CGXT .DEGC        30 660 01 00                  : MCG External Temperature
SMTU .LB          30 635 00 00                  : DST Uphole Tension
GRGC .GAPI        30 310 01 00                  : MCG Gamma Ray
CCLG .----        30 150 00 00                  : Casing Collar Locator
TR21 .US          60 520 30 00                  : 3' Transit Time
TR11 .US          60 520 04 00                  : 4' Transit Time
TR22 .US          60 520 50 00                  : 5' Transit Time
TR12 .US          60 520 60 00                  : 6' Transit Time
DT35 .US/F        60 520 32 00                  : 3-5' Compensated Sonic
BIT  .IN          70 282 00 00                  : Bit size
#
~Parameter Information
#MNEM.UNIT        VALUE                         : DESCRIPTION
#----.----        -----                         : -----------
RNID .                                          : Run ID
SON  .            24220368                      : Job Number
DREF .            KB                            : Depth reference
EREF .M            484.710                      : Elevation of depth reference
GL   .M            480.210                      : Ground elevation
KB   .M            484.710                      : Kelly Bushing
DF   .M            484.710                      : Drill Floor
DDRF .            KB                            : Drilling Depth Reference
DERF .M            484.710                      : Elevation of Drilling Depth Reference
RUN  .            2A+2B                         : Run number
TDD  .M           1225.000                      : TD (driller)
TDL  .M           1226.000                      : TD (logger)
BS   .IN             8.500                      : Bit size
TIMC .                                          : Time circulation ended
TIML .                                          : Time logger at bottom
UNIT .            13347                         : Equipment ID
BASE .            PLO                           : Equipment base location
ENG  .            MALEA CRISTIAN                : Recording engineer
WIT  .            VASILE FARCAS                 : Witnessed by
CSGT .            SURFACE                       : Casing type
CSGS .IN            16.000                      : Casing size
CSGW .LB/FT          0.000                      : Casing weight
CSGD .M            250.000                      : Casing bottom (driller)
CSGL .M            249.500                      : Casing bottom (logger)
CSUP .M              0.000                      : Casing Stick Up GL
MUD  .            INHIBITIV                     : Mud type
MUDS .            FLOWLINE                      : Mud sample source
MUDD .G/C3           1.100                      : Mud density
MUDV .SEC/L         50.000                      : Mud viscosity
PH   .               9.500                      : Mud pH
FL   .ML/30MIN       4.100                      : Mud fluid loss rate
RM   .OHMM           0.150                      : Mud resistivity
RMT  .DEGC          25.000                      : Mud sample temperature
RMF  .OHMM           0.120                      : Mud filtrate resistivity
RMFT .DEGC          25.000                      : Mud filtrate sample temperature
RMC  .OHMM           0.180                      : Mud cake resistivity
RMCT .DEGC          25.000                      : Mud cake sample temperature
RMBT .OHMM           0.110                      : Mud Resistivity at BHT
BHT  .DEGC          39.000                      : Bottom Hole Temperature
TMAX .DEGC          39.000                      : Max recorded temperature
#
~Other Information
------------------------------------------------------------------------------------------------
Clients intervals and scales logged
Acquisition software: Weatherford Well Manager, version 24.03.1279
Cable used: CAMESA  size 15/32", type 7J46RXZ with  cable head and 8k weakpoint set
Depth wheel calibration factor used 0.6096
Depth Control Procedure for Multiple runs in the well followed.
Run2A: CBHC, MTAK, MBE, MBE, SHA, MCG, MBN, MTC-Y, MSS, MTC-X, SKJ, MUG, MLE, MLG, MTI, MGS,HFS 
Run2B: CBHC, MTAK, SHA, MCG, SKJ, MMR, MDN, MPD, HFS
Run2C: CBHC, MTAK, SHA, MCG, MISD, SKJ, MISE, SKJ, MISD, MSS, MISD, HFS logged in combination.
 Rm, Rmf, Rmc measured on samples from Mud Engineer given on 04.09.2024
Caliper measurements and averages from TD to casing:
   Total hole volume =  35.32 cubic meters
   Annular volume = 20.52 cubic meters, based on future casing size of 5.5 inches
   Average hole diameter = 8.49 inches (215.77 mm), based on XY caliper
------------------------------------------------------------------------------------------------
#
#          DEPT           CGXT           SMTU           GRGC           CCLG           TR21           TR11           TR22           TR12           DT35            BIT
#
~ASCII Log Data
# ...
          690.8      34.379082    1473.749878      99.170303       1.764077     461.273285     581.715149     697.435364     821.250854     120.142525       8.500000
          690.9      34.401611    1471.249878      98.361481       0.874028     462.750885     580.946289     697.846375     822.025208     120.410759       8.500000
          691.0      34.412701    1468.749878      98.890480      -4.722888     462.055664     578.909607     699.019287     820.193359     120.528435       8.500000
          691.1      34.370674    1466.249878     100.799095      -2.202795     460.750885     579.500854     699.039856     820.836121     120.516220       8.500000
          691.2      34.385517    1468.749878     104.095451       2.080433     459.750885     580.158936     699.349915     820.827820     120.337074       8.500000
          691.3      34.361347    1467.499878     106.509796       0.621714     460.750885     579.955139     699.346313     820.115234     120.091637       8.500000
          691.4      34.391182    1469.999878     107.243790       3.295233     460.750885     579.906982     698.229126     820.156555     119.793228       8.500000
          691.5      34.382805    1468.749878     105.020065       0.310811     458.950531     579.828369     697.404541     822.049927     119.521233       8.500000
          691.6      34.445724    1467.499878     103.261765      -3.079017     459.752228     578.994019     699.064087     821.875854     119.336113       8.500000
          691.7      34.506763    1466.249878     100.334358       0.279804     459.750885     576.421021     700.003418     821.827820     119.254097       8.500000
          691.8      34.414131    1467.499878      99.248413      -1.200758     458.796326     579.015442     698.737854     825.092529     119.298988       8.500000
          691.9      34.388649    1468.749878      97.344482      -1.604128     458.992706     580.985657     700.966370     826.116699     119.477592       8.500000
          692.0      34.378662    1471.249878      97.805496       1.302110     459.122955     580.600037     703.488586     825.731079     119.801399       8.500000
          692.1      34.340363    1471.249878      97.458244      -2.445946     459.750885     581.854553     705.315369     823.988953     120.242500       8.500000
          692.2      34.423580    1473.749878      98.205429      -0.013513     461.894043     581.761536     702.486572     823.976074     120.760506       8.500000
          692.3      34.406322    1473.749878      98.791733       2.755554     463.351288     584.663513     699.504578     822.439575     121.317070       8.500000
          692.4      34.413116    1474.999878     100.921120       0.074417     465.820709     583.533508     699.133606     821.828796     121.755974       8.500000
          692.5      34.428585    1477.499878     102.748573       0.269041     463.894073     580.819641     699.266785     819.863342     121.934555       8.500000
          692.6      34.382599    1477.499878     104.167801      -2.698630     459.750885     579.967224     699.183289     820.458191     121.753014       8.500000
          692.7      34.424236    1477.499878     104.044899       0.498082     458.750885     578.472290     698.143188     821.172546     121.224945       8.500000
          692.8      34.454964    1476.249878     104.207245       3.972603     457.253876     578.068726     697.803894     821.988342     120.415329       8.500000
          692.9      34.385937    1473.749878     103.943214      -2.239726     454.187927     577.802795     697.451660     821.953430     119.477608       8.500000
          693.0      34.412491    1471.249878     103.232964      -2.705480     454.421539     577.720337     697.233948     823.430542     118.679527       8.500000
          693.1      34.502831    1471.249878     102.287872      -1.269438     454.049377     575.660767     698.816895     823.553345     118.207603       8.500000
          693.2      34.454308    1472.499878     101.157295      -0.842465     452.552887     575.146423     697.880615     821.973083     118.131668       8.500000
          693.3      34.357292    1471.249878     101.087250       2.721492     454.319489     575.893738     697.309875     820.097839     118.375420       8.500000
          693.4      34.436424    1472.499878     100.255043       4.815068     455.292938     575.460083     695.683777     817.342285     118.843315       8.500000
          693.5      34.439198    1473.749878     100.088364      -1.411244     457.433655     576.721436     692.254150     816.071960     119.372925       8.500000
          693.6      34.413952    1472.499878      98.655357      -5.324972     457.404633     576.027588     692.846680     814.100891     119.789581       8.500000
          693.7      34.471622    1472.499878      98.448448       0.980833     457.110413     574.984192     692.756104     812.819824     119.986313       8.500000
          693.8      34.364208    1471.249878      97.411179      -0.229730     457.020966     573.792175     692.879700     815.202820     119.963066       8.500000
          693.9      34.311661    1472.499878      97.478683       0.430411     456.750885     574.274658     693.118713     815.381958     119.783295       8.500000
          694.0      34.434757    1471.249878      97.567451       0.006757     456.750885     574.703491     693.657837     816.371948     119.507111       8.500000
          694.1      34.486736    1469.999878      99.281288       1.808219     454.807068     576.641846     695.400024     816.507874     119.253365       8.500000
          694.2      34.407276    1468.749878     100.174019       1.871622     455.750885     576.557007     697.465149     817.654602     119.111397       8.500000
          694.3      34.388439    1467.499878      99.447578      -1.082192     456.848785     576.135010     699.013611     818.330750     119.123749       8.500000
          694.4      34.372345    1468.749878      97.620201       4.308933     458.300079     577.481812     696.673523     818.368347     119.228386       8.500000
          694.5      34.423012    1471.249878      95.698112      -3.954277     459.839752     579.768433     696.233337     818.007874     119.380119       8.500000
          694.6      34.433533    1472.499878      93.022575      -3.379186     460.863708     579.742920     697.469299     815.891907     119.469437       8.500000
          694.7      34.487717    1474.999878      91.237831       4.728249     459.750885     579.726990     697.499939     814.541321     119.444107       8.500000
          694.8      34.445515    1477.499878      90.429520       0.740297     458.846100     579.158142     696.970581     815.819702     119.224159       8.500000
          694.9      34.438629    1479.999878      92.055046       0.493151     458.750885     577.688354     696.188110     815.381104     118.890312       8.500000
          695.0      34.583481    1483.749878      93.934769       2.540525     458.144775     575.738342     694.491150     816.072998     118.455917       8.500000
          695.1      34.487331    1463.749878      96.476860      -1.445205     455.750885     575.506165     692.322327     817.121521     118.013260       8.500000
          695.2      34.459522    1479.999878      98.569061      -3.359219     454.750885     574.694641     693.417542     817.675110     117.635239       8.500000
          695.3      34.546703    1463.749878     101.622284      -0.130137     455.123108     571.578430     695.667542     815.997681     117.426399       8.500000
          695.4      34.544197    1472.499878     105.224052      -3.469548     455.160095     572.512756     693.579712     815.653564     117.406937       8.500000
          695.5      34.425247    1486.249878     108.351189       1.856164     457.750885     575.690796     692.511841     815.373291     117.567390       8.500000
          695.6      34.533527    1477.499878     109.006798       5.410959     460.110962     577.178162     693.411743     811.260193     117.842499       8.500000
