~Version Information
VERS .            2.00                          : CWLS Log ASCII Standard - Version 2.00
WRAP .            NO                            : One line per depth step
#
~Well Information
#MNEM.UNIT        DATA                          : DESCRIPTION
#----.----        ----                          : -----------
STRT .M            240.0                        : Start
STOP .M           1227.7                        : Stop
STEP .M              0.1                        : Step increment
NULL .            -999.250                      : Null value
COMP .            S.N.G.N. ROMGAZ S.A.          : Company
WELL .            209 NADES                     : Well
FLD  .            NADES                         : Field
PROV .            MURES                         : Province
CTRY .            Romania                       : State / Country
LOC  .            X = 529925.187 m              : Location
LOC2 .            Y = 477271.675 m              : Location 2
SRVC .            Weatherford                   : Service company
UWI  .                                          : Unique Well ID
LATI .            46 16'07.03" N                : Latitude
LONG .            24 42'12.69" E                : Longitude
UTME .                                          : Universal Transverse Mercator Easting
UTMN .                                          : Universal Transverse Mercator Northing
X    .                                          : X
Y    .                                          : Y
DATE .            04-Sep-2024                   : Logging Date
#
~Curve Information
#MNEM.UNIT        API CODES                     : CURVE DESCRIPTION
#----.----        ---------                     : -----------------
DEPT .M           00 001 00 00                  : Logged depth
CGXT .DEGC        30 660 01 00                  : MCG External Temperature
SMTU .LB          30 635 00 00                  : DST Uphole Tension
GRGC .GAPI        30 310 01 00                  : MCG Gamma Ray
CCLG .----        30 150 00 00                  : Casing Collar Locator
NPRL .PERC        42 890 01 00                  : Limestone Neutron Por.
NPRL .V/V         42 890 01 00                  : Limestone Neutron Por.
CLDC .IN          45 280 01 00                  : Density Caliper
DCOR .G/C3        42 356 01 00                  : Density Correction
DEN  .G/C3        42 350 01 00                  : Compensated Density
PDPE .B/E         45 358 01 00                  : PE
NPOR .PERC        42 890 04 00                  : Base Neutron Porosity
NPOR .V/V         42 890 04 00                  : Base Neutron Porosity
NPRS .PERC        42 890 03 00                  : Sandstone Neutron Por.
NPRS .V/V         42 890 03 00                  : Sandstone Neutron Por.
NPRD .PERC        42 890 02 00                  : Dolomite Neutron Por.
NPRD .V/V         42 890 02 00                  : Dolomite Neutron Por.
DPOR .PERC        45 890 13 00                  : Base Density Porosity
DPOR .V/V         45 890 13 00                  : Base Density Porosity
DPRL .PERC        45 890 10 00                  : Limestone Density Por.
DPRL .V/V         45 890 10 00                  : Limestone Density Por.
DPRS .PERC        45 890 12 00                  : Sandstone Density Por.
DPRS .V/V         45 890 12 00                  : Sandstone Density Por.
DPRD .PERC        45 890 11 00                  : Dolomite Density Por.
DPRD .V/V         45 890 11 00                  : Dolomite Density Por.
HDEN .G/C3        42 350 01 00                  : Vectar Processed Density
BIT  .IN          70 282 00 00                  : Bit size
#
~Parameter Information
#MNEM.UNIT        VALUE                         : DESCRIPTION
#----.----        -----                         : -----------
RNID .                                          : Run ID
SON  .            24220368                      : Job Number
DREF .            KB                            : Depth reference
EREF .M            484.710                      : Elevation of depth reference
GL   .M            480.210                      : Ground elevation
KB   .M            484.710                      : Kelly Bushing
DF   .M            484.710                      : Drill Floor
DDRF .            KB                            : Drilling Depth Reference
DERF .M            484.710                      : Elevation of Drilling Depth Reference
RUN  .            2A+2B                         : Run number
TDD  .M           1225.000                      : TD (driller)
TDL  .M           1226.000                      : TD (logger)
BS   .IN             8.500                      : Bit size
TIMC .                                          : Time circulation ended
TIML .                                          : Time logger at bottom
UNIT .            13347                         : Equipment ID
BASE .            PLO                           : Equipment base location
ENG  .            MALEA CRISTIAN                : Recording engineer
WIT  .            VASILE FARCAS                 : Witnessed by
CSGT .            SURFACE                       : Casing type
CSGS .IN            16.000                      : Casing size
CSGW .LB/FT          0.000                      : Casing weight
CSGD .M            250.000                      : Casing bottom (driller)
CSGL .M            249.500                      : Casing bottom (logger)
CSUP .M              0.000                      : Casing Stick Up GL
MUD  .            INHIBITIV                     : Mud type
MUDS .            FLOWLINE                      : Mud sample source
MUDD .G/C3           1.100                      : Mud density
MUDV .SEC/L         50.000                      : Mud viscosity
PH   .               9.500                      : Mud pH
FL   .ML/30MIN       4.100                      : Mud fluid loss rate
RM   .OHMM           0.150                      : Mud resistivity
RMT  .DEGC          25.000                      : Mud sample temperature
RMF  .OHMM           0.120                      : Mud filtrate resistivity
RMFT .DEGC          25.000                      : Mud filtrate sample temperature
RMC  .OHMM           0.180                      : Mud cake resistivity
RMCT .DEGC          25.000                      : Mud cake sample temperature
RMBT .OHMM           0.110                      : Mud Resistivity at BHT
BHT  .DEGC          39.000                      : Bottom Hole Temperature
TMAX .DEGC          39.000                      : Max recorded temperature
#
~Other Information
------------------------------------------------------------------------------------------------
Clients intervals and scales logged
Acquisition software: Weatherford Well Manager, version 24.03.1279
Cable used: CAMESA  size 15/32", type 7J46RXZ with  cable head and 8k weakpoint set
Depth wheel calibration factor used 0.6096
Depth Control Procedure for Multiple runs in the well followed.
Run2A: CBHC, MTAK, MBE, MBE, SHA, MCG, MBN, MTC-Y, MSS, MTC-X, SKJ, MUG, MLE, MLG, MTI, MGS,HFS 
Run2B: CBHC, MTAK, SHA, MCG, SKJ, MMR, MDN, MPD, HFS
Run2C: CBHC, MTAK, SHA, MCG, MISD, SKJ, MISE, SKJ, MISD, MSS, MISD, HFS logged in combination.
 Rm, Rmf, Rmc measured on samples from Mud Engineer given on 04.09.2024
Caliper measurements and averages from TD to casing:
   Total hole volume =  35.32 cubic meters
   Annular volume = 20.52 cubic meters, based on future casing size of 5.5 inches
   Average hole diameter = 8.49 inches (215.77 mm), based on XY caliper
------------------------------------------------------------------------------------------------
#
#          DEPT           CGXT           SMTU           GRGC           CCLG           NPRL           NPRL           CLDC           DCOR            DEN           PDPE           NPOR           NPOR           NPRS           NPRS           NPRD           NPRD           DPOR           DPOR           DPRL           DPRL           DPRS           DPRS           DPRD           DPRD           HDEN            BIT
#
~ASCII Log Data
# ...
          438.0      30.544588     779.999939      84.182838       1.434210      34.631609       0.346316       8.360425       0.010815       2.239736       2.745386      32.879896       0.328799      40.128418       0.401284      31.526374       0.315264      27.500814       0.275008      27.500814       0.275008      24.864480       0.248645      33.703953       0.337040       2.236899       8.500000
          438.1      30.584109     779.374939      75.219395      -1.395658      34.861591       0.348616       8.367266       0.010476       2.216749       2.644994      33.102877       0.331029      40.330603       0.403306      31.737694       0.317377      28.845112       0.288451      28.845112       0.288451      26.257661       0.262577      34.933229       0.349332       2.211372       8.500000
          438.2      30.557106     778.749939      70.766510      -1.500921      34.873381       0.348734       8.375788       0.009817       2.205010       2.642489      33.119162       0.331192      40.341642       0.403416      31.748469       0.317485      29.531555       0.295316      29.531555       0.295316      26.969067       0.269691      35.560940       0.355609       2.198692       8.500000
          438.3      30.525468     778.749939      71.309330       1.329869      34.784767       0.347848       8.383158       0.009191       2.209340       2.735581      33.039463       0.330395      40.264914       0.402649      31.666938       0.316669      29.278343       0.292783      29.278343       0.292783      26.706647       0.267066      35.329393       0.353294       2.205388       8.500000
          438.4      30.519955     778.749939      75.752556       2.836448      34.708668       0.347087       8.387635       0.008896       2.228087       2.865318      32.969790       0.329698      40.199793       0.401998      31.596855       0.315969      28.182056       0.281821      28.182056       0.281821      25.570496       0.255705      34.326908       0.343269       2.227531       8.500000
          438.5      30.544693     778.749939      83.283085      -0.467105      34.838226       0.348382       8.387868       0.008927       2.253566       2.978394      33.092783       0.330928      40.312946       0.403129      31.715975       0.317160      26.692060       0.266921      26.692060       0.266921      24.026317       0.240263      32.964397       0.329644       2.254826       8.500000
          438.6      30.583439     778.749939      91.934315      -3.342105      35.300877       0.353009       8.383324       0.009286       2.279466       3.059109      33.529427       0.335294      40.714066       0.407141      32.141596       0.321416      25.177404       0.251774      25.177404       0.251774      22.456583       0.224566      31.579338       0.315793       2.281708       8.500000
          438.7      30.574199     779.374939     100.279865      -1.819561      35.881283       0.358813       8.376061       0.009912       2.301712       3.098115      34.075869       0.340759      41.216389       0.412164      32.675627       0.326756      23.876482       0.238765      23.876482       0.238765      21.108355       0.211084      30.389724       0.303897       2.304578       8.500000
          438.8      30.594078     780.624939     106.381989      -1.349167      36.220528       0.362205       8.368268       0.010329       2.314119       3.099836      34.392338       0.343923      41.509218       0.415092      32.987846       0.329878      23.150950       0.231510      23.150950       0.231510      20.356440       0.203564      29.726270       0.297263       2.316624       8.500000
          438.9      30.598400     781.249939     109.519234      -6.256096      36.228626       0.362286       8.360691       0.010373       2.315888       3.091521      34.394613       0.343946      41.515387       0.415154      32.995394       0.329954      23.047462       0.230475      23.047462       0.230475      20.249187       0.202492      29.631636       0.296316       2.317105       8.500000
          439.0      30.566480     781.874939     109.958397      -5.894254      36.026842       0.360268       8.354373       0.010221       2.311142       3.104338      34.199152       0.341992      41.341167       0.413412      32.809715       0.328097      23.325025       0.233250      23.325025       0.233250      20.536843       0.205368      29.885449       0.298854       2.311771       8.500000
          439.1      30.578536     782.499939     108.586472       5.560188      35.720829       0.357208       8.351794       0.010245       2.306170       3.135367      33.907183       0.339072      41.078165       0.410782      32.527988       0.325280      23.615790       0.236158      23.615790       0.236158      20.838182       0.208382      30.151338       0.301513       2.306425       8.500000
          439.2      30.621202     783.124939     107.031532       6.274004      35.328285       0.353283       8.355076       0.010415       2.302059       3.154855      33.535614       0.335356      40.740225       0.407402      32.166636       0.321666      23.856223       0.238562      23.856223       0.238562      21.087359       0.210874      30.371200       0.303712       2.301952       8.500000
          439.3      30.621872     783.749939     105.088428      -1.862294      34.963737       0.349637       8.361903       0.010645       2.299286       3.141839      33.192764       0.331928      40.425158       0.404252      31.831178       0.318312      24.018383       0.240184      24.018383       0.240184      21.255416       0.212554      30.519485       0.305195       2.298508       8.500000
          439.4      30.560668     783.749939     102.297588       2.991903      34.702074       0.347021       8.368242       0.010806       2.298095       3.103630      32.948912       0.329489      40.197033       0.401970      31.590589       0.315906      24.088006       0.240880      24.088006       0.240880      21.327570       0.213276      30.583150       0.305831       2.296738       8.500000
          439.5      30.551310     784.374939      99.279335       5.139855      34.536156       0.345362       8.373681       0.010748       2.298591       3.046419      32.796141       0.327961      40.051020       0.400510      31.438152       0.314382      24.058985       0.240590      24.058985       0.240590      21.297493       0.212975      30.556611       0.305566       2.296775       8.500000
          439.6      30.567031     784.999939      97.046108      -2.277003      34.330265       0.343303       8.379595       0.010492       2.301325       2.982541      32.604013       0.326040      39.869465       0.398695      31.249015       0.312490      23.899118       0.238991      23.899118       0.238991      21.131813       0.211318      30.410423       0.304104       2.300149       8.500000
          439.7      30.558939     785.624939      96.143066      -0.561916      34.016937       0.340169       8.383684       0.010245       2.306580       2.923705      32.307615       0.323076      39.593695       0.395937      30.961139       0.309611      23.591802       0.235918      23.591802       0.235918      20.813322       0.208133      30.129402       0.301294       2.307073       8.500000
          439.8      30.567970     786.874939      96.759151       4.374751      33.637962       0.336380       8.381916       0.010167       2.312447       2.879481      31.946813       0.319468      39.259970       0.392600      30.612958       0.306130      23.248736       0.232487      23.248736       0.232487      20.457783       0.204578      29.815690       0.298157       2.314248       8.500000
          439.9      30.588073     788.124939      97.957748      -0.447793      33.292336       0.332923       8.375465       0.010193       2.315019       2.848747      31.616216       0.316162      38.955215       0.389552      30.295449       0.302954      23.098282       0.230983      23.098282       0.230983      20.301857       0.203019      29.678108       0.296781       2.317124       8.500000
