~Version Information
VERS .            2.00                          : CWLS Log ASCII Standard - Version 2.00
WRAP .            NO                            : One line per depth step
#
~Well Information
#MNEM.UNIT        DATA                          : DESCRIPTION
#----.----        ----                          : -----------
STRT .M            240.0                        : Start
STOP .M           1227.7                        : Stop
STEP .M              0.1                        : Step increment
NULL .            -999.250                      : Null value
COMP .            S.N.G.N. ROMGAZ S.A.          : Company
WELL .            209 NADES                     : Well
FLD  .            NADES                         : Field
PROV .            MURES                         : Province
CTRY .            Romania                       : State / Country
LOC  .            X = 529925.187 m              : Location
LOC2 .            Y = 477271.675 m              : Location 2
SRVC .            Weatherford                   : Service company
UWI  .                                          : Unique Well ID
LATI .            46 16'07.03" N                : Latitude
LONG .            24 42'12.69" E                : Longitude
UTME .                                          : Universal Transverse Mercator Easting
UTMN .                                          : Universal Transverse Mercator Northing
X    .                                          : X
Y    .                                          : Y
DATE .            04-Sep-2024                   : Logging Date
#
~Curve Information
#MNEM.UNIT        API CODES                     : CURVE DESCRIPTION
#----.----        ---------                     : -----------------
DEPT .M           00 001 00 00                  : Logged depth
CGXT .DEGC        30 660 01 00                  : MCG External Temperature
SMTU .LB          30 635 00 00                  : DST Uphole Tension
GRGC .GAPI        30 310 01 00                  : MCG Gamma Ray
CCLG .----        30 150 00 00                  : Casing Collar Locator
NPRL .PERC        42 890 01 00                  : Limestone Neutron Por.
NPRL .V/V         42 890 01 00                  : Limestone Neutron Por.
CLDC .IN          45 280 01 00                  : Density Caliper
DCOR .G/C3        42 356 01 00                  : Density Correction
DEN  .G/C3        42 350 01 00                  : Compensated Density
PDPE .B/E         45 358 01 00                  : PE
NPOR .PERC        42 890 04 00                  : Base Neutron Porosity
NPOR .V/V         42 890 04 00                  : Base Neutron Porosity
NPRS .PERC        42 890 03 00                  : Sandstone Neutron Por.
NPRS .V/V         42 890 03 00                  : Sandstone Neutron Por.
NPRD .PERC        42 890 02 00                  : Dolomite Neutron Por.
NPRD .V/V         42 890 02 00                  : Dolomite Neutron Por.
DPOR .PERC        45 890 13 00                  : Base Density Porosity
DPOR .V/V         45 890 13 00                  : Base Density Porosity
DPRL .PERC        45 890 10 00                  : Limestone Density Por.
DPRL .V/V         45 890 10 00                  : Limestone Density Por.
DPRS .PERC        45 890 12 00                  : Sandstone Density Por.
DPRS .V/V         45 890 12 00                  : Sandstone Density Por.
DPRD .PERC        45 890 11 00                  : Dolomite Density Por.
DPRD .V/V         45 890 11 00                  : Dolomite Density Por.
HDEN .G/C3        42 350 01 00                  : Vectar Processed Density
BIT  .IN          70 282 00 00                  : Bit size
#
~Parameter Information
#MNEM.UNIT        VALUE                         : DESCRIPTION
#----.----        -----                         : -----------
RNID .                                          : Run ID
SON  .            24220368                      : Job Number
DREF .            KB                            : Depth reference
EREF .M            484.710                      : Elevation of depth reference
GL   .M            480.210                      : Ground elevation
KB   .M            484.710                      : Kelly Bushing
DF   .M            484.710                      : Drill Floor
DDRF .            KB                            : Drilling Depth Reference
DERF .M            484.710                      : Elevation of Drilling Depth Reference
RUN  .            2A+2B                         : Run number
TDD  .M           1225.000                      : TD (driller)
TDL  .M           1226.000                      : TD (logger)
BS   .IN             8.500                      : Bit size
TIMC .                                          : Time circulation ended
TIML .                                          : Time logger at bottom
UNIT .            13347                         : Equipment ID
BASE .            PLO                           : Equipment base location
ENG  .            MALEA CRISTIAN                : Recording engineer
WIT  .            VASILE FARCAS                 : Witnessed by
CSGT .            SURFACE                       : Casing type
CSGS .IN            16.000                      : Casing size
CSGW .LB/FT          0.000                      : Casing weight
CSGD .M            250.000                      : Casing bottom (driller)
CSGL .M            249.500                      : Casing bottom (logger)
CSUP .M              0.000                      : Casing Stick Up GL
MUD  .            INHIBITIV                     : Mud type
MUDS .            FLOWLINE                      : Mud sample source
MUDD .G/C3           1.100                      : Mud density
MUDV .SEC/L         50.000                      : Mud viscosity
PH   .               9.500                      : Mud pH
FL   .ML/30MIN       4.100                      : Mud fluid loss rate
RM   .OHMM           0.150                      : Mud resistivity
RMT  .DEGC          25.000                      : Mud sample temperature
RMF  .OHMM           0.120                      : Mud filtrate resistivity
RMFT .DEGC          25.000                      : Mud filtrate sample temperature
RMC  .OHMM           0.180                      : Mud cake resistivity
RMCT .DEGC          25.000                      : Mud cake sample temperature
RMBT .OHMM           0.110                      : Mud Resistivity at BHT
BHT  .DEGC          39.000                      : Bottom Hole Temperature
TMAX .DEGC          39.000                      : Max recorded temperature
#
~Other Information
------------------------------------------------------------------------------------------------
Clients intervals and scales logged
Acquisition software: Weatherford Well Manager, version 24.03.1279
Cable used: CAMESA  size 15/32", type 7J46RXZ with  cable head and 8k weakpoint set
Depth wheel calibration factor used 0.6096
Depth Control Procedure for Multiple runs in the well followed.
Run2A: CBHC, MTAK, MBE, MBE, SHA, MCG, MBN, MTC-Y, MSS, MTC-X, SKJ, MUG, MLE, MLG, MTI, MGS,HFS 
Run2B: CBHC, MTAK, SHA, MCG, SKJ, MMR, MDN, MPD, HFS
Run2C: CBHC, MTAK, SHA, MCG, MISD, SKJ, MISE, SKJ, MISD, MSS, MISD, HFS logged in combination.
 Rm, Rmf, Rmc measured on samples from Mud Engineer given on 04.09.2024
Caliper measurements and averages from TD to casing:
   Total hole volume =  35.32 cubic meters
   Annular volume = 20.52 cubic meters, based on future casing size of 5.5 inches
   Average hole diameter = 8.49 inches (215.77 mm), based on XY caliper
------------------------------------------------------------------------------------------------
#
#          DEPT           CGXT           SMTU           GRGC           CCLG           NPRL           NPRL           CLDC           DCOR            DEN           PDPE           NPOR           NPOR           NPRS           NPRS           NPRD           NPRD           DPOR           DPOR           DPRL           DPRL           DPRS           DPRS           DPRD           DPRD           HDEN            BIT
#
~ASCII Log Data
# ...
         1226.0    -999.250000    1341.249878    -999.250000    -999.250000    -999.250000    -999.250000       5.441423       0.142764       2.393258       2.997319    -999.250000    -999.250000    -999.250000    -999.250000    -999.250000    -999.250000      18.522925       0.185229      18.522925       0.185229      15.560122       0.155601      25.494226       0.254942       2.393835    -999.250000
         1226.1    -999.250000    1236.249939    -999.250000    -999.250000    -999.250000    -999.250000       5.434361       0.143497       2.393832       3.011170    -999.250000    -999.250000    -999.250000    -999.250000    -999.250000    -999.250000      18.489358       0.184894      18.489358       0.184894      15.525335       0.155253      25.463531       0.254635       2.394407    -999.250000
         1226.2    -999.250000    1195.000000    -999.250000    -999.250000    -999.250000    -999.250000       5.429969       0.145481       2.397283       3.024670    -999.250000    -999.250000    -999.250000    -999.250000    -999.250000    -999.250000      18.287539       0.182875      18.287539       0.182875      15.316177       0.153162      25.278979       0.252790       2.397603    -999.250000
         1226.3    -999.250000    1194.375000    -999.250000    -999.250000    -999.250000    -999.250000    -999.250000       0.148366       2.403092       3.029986    -999.250000    -999.250000    -999.250000    -999.250000    -999.250000    -999.250000      17.947856       0.179479      17.947856       0.179479      14.964141       0.149641      24.968360       0.249684       2.402961    -999.250000
         1226.4    -999.250000    1192.500000    -999.250000    -999.250000    -999.250000    -999.250000    -999.250000       0.150637       2.407133       3.025891    -999.250000    -999.250000    -999.250000    -999.250000    -999.250000    -999.250000      17.711542       0.177115      17.711542       0.177115      14.719235       0.147192      24.752266       0.247523       2.405967    -999.250000
         1226.5    -999.250000    1190.000000    -999.250000    -999.250000    -999.250000    -999.250000    -999.250000       0.151641       2.407789       3.015632    -999.250000    -999.250000    -999.250000    -999.250000    -999.250000    -999.250000      17.673172       0.176732      17.673172       0.176732      14.679470       0.146795      24.717178       0.247172       2.405181    -999.250000
         1226.6    -999.250000    1187.500000    -999.250000    -999.250000    -999.250000    -999.250000    -999.250000       0.151451       2.405406       3.001940    -999.250000    -999.250000    -999.250000    -999.250000    -999.250000    -999.250000      17.812487       0.178125      17.812487       0.178125      14.823850       0.148239      24.844573       0.248446       2.400696    -999.250000
         1226.7    -999.250000    1185.625000    -999.250000    -999.250000    -999.250000    -999.250000    -999.250000       0.150500       2.401101       2.983958    -999.250000    -999.250000    -999.250000    -999.250000    -999.250000    -999.250000      18.064283       0.180643      18.064283       0.180643      15.084803       0.150848      25.074826       0.250748       2.394212    -999.250000
         1226.8    -999.250000    1185.000000    -999.250000    -999.250000    -999.250000    -999.250000    -999.250000       0.149766       2.398236       2.973711    -999.250000    -999.250000    -999.250000    -999.250000    -999.250000    -999.250000      18.231825       0.182318      18.231825       0.182318      15.258436       0.152584      25.228033       0.252280       2.390127    -999.250000
         1226.9    -999.250000    1172.500000    -999.250000    -999.250000    -999.250000    -999.250000    -999.250000       0.149766       2.398236       2.973711    -999.250000    -999.250000    -999.250000    -999.250000    -999.250000    -999.250000      18.231825       0.182318      18.231825       0.182318      15.258436       0.152584      25.228033       0.252280       2.390127    -999.250000
         1227.0    -999.250000    1156.875000    -999.250000    -999.250000    -999.250000    -999.250000    -999.250000       0.149766       2.398236       2.973711    -999.250000    -999.250000    -999.250000    -999.250000    -999.250000    -999.250000      18.231825       0.182318      18.231825       0.182318      15.258436       0.152584      25.228033       0.252280       2.390127    -999.250000
         1227.1    -999.250000    1152.500000    -999.250000    -999.250000    -999.250000    -999.250000    -999.250000       0.149766       2.398236       2.973711    -999.250000    -999.250000    -999.250000    -999.250000    -999.250000    -999.250000      18.231825       0.182318      18.231825       0.182318      15.258436       0.152584      25.228033       0.252280       2.390127    -999.250000
         1227.2    -999.250000    1149.375000    -999.250000    -999.250000    -999.250000    -999.250000    -999.250000       0.149766       2.398236       2.973711    -999.250000    -999.250000    -999.250000    -999.250000    -999.250000    -999.250000      18.231825       0.182318      18.231825       0.182318      15.258436       0.152584      25.228033       0.252280       2.390127    -999.250000
         1227.3    -999.250000    1145.000000    -999.250000    -999.250000    -999.250000    -999.250000    -999.250000       0.149766       2.398236       2.973711    -999.250000    -999.250000    -999.250000    -999.250000    -999.250000    -999.250000      18.231825       0.182318      18.231825       0.182318      15.258436       0.152584      25.228033       0.252280       2.390127    -999.250000
         1227.4    -999.250000    1140.000000    -999.250000    -999.250000    -999.250000    -999.250000    -999.250000       0.149766       2.398236       2.973711    -999.250000    -999.250000    -999.250000    -999.250000    -999.250000    -999.250000      18.231825       0.182318      18.231825       0.182318      15.258436       0.152584      25.228033       0.252280       2.390127    -999.250000
         1227.5    -999.250000    1135.000000    -999.250000    -999.250000    -999.250000    -999.250000    -999.250000       0.149766       2.398236       2.973711    -999.250000    -999.250000    -999.250000    -999.250000    -999.250000    -999.250000      18.231825       0.182318      18.231825       0.182318      15.258436       0.152584      25.228033       0.252280       2.390127    -999.250000
         1227.6    -999.250000    1118.125000    -999.250000    -999.250000    -999.250000    -999.250000    -999.250000       0.149766       2.398236       2.973711    -999.250000    -999.250000    -999.250000    -999.250000    -999.250000    -999.250000      18.231825       0.182318      18.231825       0.182318      15.258436       0.152584      25.228033       0.252280       2.390127    -999.250000
         1227.7    -999.250000    -999.250000    -999.250000    -999.250000    -999.250000    -999.250000    -999.250000       0.149766       2.398236       2.973711    -999.250000    -999.250000    -999.250000    -999.250000    -999.250000    -999.250000      18.231825       0.182318      18.231825       0.182318      15.258436       0.152584      25.228033       0.252280       2.390127    -999.250000
