~Version Information
VERS .            2.00                          : CWLS Log ASCII Standard - Version 2.00
WRAP .            NO                            : One line per depth step
#
~Well Information
#MNEM.UNIT        DATA                          : DESCRIPTION
#----.----        ----                          : -----------
STRT .M            240.0                        : Start
STOP .M           1229.6                        : Stop
STEP .M              0.1                        : Step increment
NULL .            -999.250                      : Null value
COMP .            S.N.G.N. ROMGAZ S.A.          : Company
WELL .            209 NADES                     : Well
FLD  .            NADES                         : Field
PROV .            MURES                         : Province
CTRY .            Romania                       : State / Country
LOC  .            X = 529925.187 m              : Location
LOC2 .            Y = 477271.675 m              : Location 2
SRVC .            Weatherford                   : Service company
UWI  .                                          : Unique Well ID
LATI .            46 16'07.03" N                : Latitude
LONG .            24 42'12.69" E                : Longitude
UTME .                                          : Universal Transverse Mercator Easting
UTMN .                                          : Universal Transverse Mercator Northing
X    .                                          : X
Y    .                                          : Y
DATE .            04-Sep-2024                   : Logging Date
#
~Curve Information
#MNEM.UNIT        API CODES                     : CURVE DESCRIPTION
#----.----        ---------                     : -----------------
DEPT .M           00 001 00 00                  : Logged depth
CGXT .DEGC        30 660 01 00                  : MCG External Temperature
SMTU .LB          30 635 00 00                  : DST Uphole Tension
CCLG .----        30 150 00 00                  : Casing Collar Locator
DSLL .OHMM        11 220 09 00                  : Shallow Laterolog
DDLL .OHMM        11 220 10 00                  : Deep Laterolog
DGLL .OHMM        11 211 00 00                  : Groningen Laterolog
SPDL .MV          30 010 00 00                  : Spontaneous Potential
GRGM .GAPI        30 310 01 00                  : MGS Gamma Ray
MRRS .OHMM        15 252 00 00                  : MicroRes Resistance (S)
MATC .IN          15 280 01 00                  : MMR Caliper
BIT  .IN          70 282 00 00                  : Bit size
#
~Parameter Information
#MNEM.UNIT        VALUE                         : DESCRIPTION
#----.----        -----                         : -----------
RNID .                                          : Run ID
SON  .            24220368                      : Job Number
DREF .            KB                            : Depth reference
EREF .M            484.710                      : Elevation of depth reference
GL   .M            480.210                      : Ground elevation
KB   .M            484.710                      : Kelly Bushing
DF   .M            484.710                      : Drill Floor
DDRF .            KB                            : Drilling Depth Reference
DERF .M            484.710                      : Elevation of Drilling Depth Reference
RUN  .            2A+2B                         : Run number
TDD  .M           1225.000                      : TD (driller)
TDL  .M           1226.000                      : TD (logger)
BS   .IN             8.500                      : Bit size
TIMC .                                          : Time circulation ended
TIML .                                          : Time logger at bottom
UNIT .            13347                         : Equipment ID
BASE .            PLO                           : Equipment base location
ENG  .            MALEA CRISTIAN                : Recording engineer
WIT  .            VASILE FARCAS                 : Witnessed by
CSGT .            SURFACE                       : Casing type
CSGS .IN            16.000                      : Casing size
CSGW .LB/FT          0.000                      : Casing weight
CSGD .M            250.000                      : Casing bottom (driller)
CSGL .M            249.500                      : Casing bottom (logger)
CSUP .M              0.000                      : Casing Stick Up GL
MUD  .            INHIBITIV                     : Mud type
MUDS .            FLOWLINE                      : Mud sample source
MUDD .G/C3           1.100                      : Mud density
MUDV .SEC/L         50.000                      : Mud viscosity
PH   .               9.500                      : Mud pH
FL   .ML/30MIN       4.100                      : Mud fluid loss rate
RM   .OHMM           0.150                      : Mud resistivity
RMT  .DEGC          25.000                      : Mud sample temperature
RMF  .OHMM           0.120                      : Mud filtrate resistivity
RMFT .DEGC          25.000                      : Mud filtrate sample temperature
RMC  .OHMM           0.180                      : Mud cake resistivity
RMCT .DEGC          25.000                      : Mud cake sample temperature
RMBT .OHMM           0.110                      : Mud Resistivity at BHT
BHT  .DEGC          39.000                      : Bottom Hole Temperature
TMAX .DEGC          39.000                      : Max recorded temperature
#
~Other Information
------------------------------------------------------------------------------------------------
Clients intervals and scales logged
Acquisition software: Weatherford Well Manager, version 24.03.1279
Cable used: CAMESA  size 15/32", type 7J46RXZ with  cable head and 8k weakpoint set
Depth wheel calibration factor used 0.6096
Depth Control Procedure for Multiple runs in the well followed.
Run2A: CBHC, MTAK, MBE, MBE, SHA, MCG, MBN, MTC-Y, MSS, MTC-X, SKJ, MUG, MLE, MLG, MTI, MGS,HFS 
Run2B: CBHC, MTAK, SHA, MCG, SKJ, MMR, MDN, MPD, HFS
Run2C: CBHC, MTAK, SHA, MCG, MISD, SKJ, MISE, SKJ, MISD, MSS, MISD, HFS logged in combination.
 Rm, Rmf, Rmc measured on samples from Mud Engineer given on 04.09.2024
Caliper measurements and averages from TD to casing:
   Total hole volume =  35.32 cubic meters
   Annular volume = 20.52 cubic meters, based on future casing size of 5.5 inches
   Average hole diameter = 8.49 inches (215.77 mm), based on XY caliper
------------------------------------------------------------------------------------------------
#
#          DEPT           CGXT           SMTU           CCLG           DSLL           DDLL           DGLL           SPDL           GRGM           MRRS           MATC            BIT
#
~ASCII Log Data
# ...
          370.5      31.038185    1149.700000       2.065771      10.176100      13.311474      12.963107     -78.548848      87.383860       1.113675       8.437048       8.500000
          370.6      31.079208    1149.050000       3.712977      10.314852      13.670254      13.313122     -77.486412      85.446438       1.112777       8.436182       8.500000
          370.7      31.017198    1150.000000      -0.821283      10.419924      13.976952      13.619040     -76.259398      83.616597       1.110528       8.434791       8.500000
          370.8      30.971500    1150.000000      -4.710128      10.465554      14.083054      13.730544     -74.913186      82.104044       1.091733       8.433486       8.500000
          370.9      30.925724    1150.300000       3.602692      10.450747      13.998592      13.654683     -73.472162      80.591933       1.055595       8.432898       8.500000
          371.0      31.011424    1150.950000       3.736255      10.427238      13.875284      13.538889     -71.819607      79.732362       0.999980       8.432955       8.500000
          371.1      31.043274    1150.000000      -4.532261      10.407386      13.776533      13.432921     -69.995610      80.258874       0.975997       8.432830       8.500000
          371.2      30.966036    1149.700000      -7.426409      10.360421      13.695839      13.328933     -68.255578      80.649641       0.976516       8.431971       8.500000
          371.3      31.021156    1148.450000      -2.603040      10.284072      13.633907      13.246114     -66.720210      80.358059       0.972788       8.430240       8.500000
          371.4      31.067131    1147.200000       6.763416      10.199497      13.590063      13.186331     -65.530191      80.029062       0.954837       8.428178       8.500000
          371.5      31.213095    1145.650000      -0.911842      10.101003      13.514612      13.093427     -64.898836      80.593798       0.945364       8.427306       8.500000
          371.6      31.105561    1143.150000      -5.586389       9.986903      13.383242      12.953430     -64.925364      83.183209       0.940208       8.428013       8.500000
          371.7      31.001183    1141.250000       2.833611       9.900084      13.273661      12.846822     -65.568896      87.446888       0.957244       8.430080       8.500000
          371.8      31.140057    1140.650000       4.635302       9.855071      13.194524      12.769622     -66.599771      92.042237       1.022655       8.433126       8.500000
          371.9      31.086342    1138.450000       5.321603       9.814692      13.069071      12.644835     -67.792191      95.499881       1.121411       8.435521       8.500000
          372.0      31.025474    1137.200000       4.904119       9.766800      12.934778      12.513142     -68.949742      98.301419       1.202049       8.436818       8.500000
          372.1      31.031405    1135.950000      -0.802738       9.715778      12.842684      12.423493     -69.792392     100.580182       1.259380       8.436342       8.500000
          372.2      30.982741    1135.000000      -3.973349       9.649259      12.724041      12.316883     -70.200565     102.322395       1.312365       8.434958       8.500000
          372.3      30.931632    1136.800000      -3.032113       9.588084      12.576190      12.196469     -70.164088     102.804216       1.309515       8.432337       8.500000
          372.4      30.962393    1148.200000       3.317747       9.600998      12.545913      12.193756     -69.674337     102.726616       1.267975       8.429893       8.500000
          372.5      31.013870    1160.550000       2.626198       9.729935      12.702759      12.368157     -68.858896     101.303391       1.213537       8.428699       8.500000
          372.6      31.028625    1142.500000      -5.741972       9.945065      12.969443      12.646721     -68.035289      97.050655       1.185377       8.430325       8.500000
          372.7      30.968102    1148.200000      -2.459718      10.181190      13.282800      12.960736     -67.336140      90.157931       1.131258       8.433222       8.500000
          372.8      31.016342    1161.450000      -0.373923      10.366504      13.617187      13.276598     -66.645831      82.271675       1.082040       8.435503       8.500000
          372.9      31.096321    1146.250000      -0.296438      10.430974      13.869959      13.505507     -66.134653      74.982961       1.025075       8.435595       8.500000
          373.0      31.103863    1146.250000       1.101529      10.374786      13.958730      13.583752     -65.920864      68.332355       0.971569       8.433239       8.500000
          373.1      31.077220    1146.250000       1.900101      10.272090      13.943587      13.572556     -65.660243      63.411800       0.891119       8.431527       8.500000
          373.2      31.039409    1145.950000      -0.482535      10.193756      13.915924      13.553803     -65.121094      61.221386       0.827615       8.432132       8.500000
          373.3      31.063144    1145.000000      -1.480845      10.212349      13.954727      13.599211     -64.360710      62.054720       0.790739       8.434909       8.500000
          373.4      31.003673    1145.000000       0.922253      10.372142      14.129600      13.775982     -63.463315      64.193723       0.802689       8.437788       8.500000
          373.5      31.082668    1145.000000       1.620986      10.614467      14.411037      14.052060     -62.510038      66.472376       0.841122       8.439075       8.500000
          373.6      31.044310    1145.300000      -2.601853      10.847486      14.681195      14.312518     -61.500550      68.030818       0.895237       8.438621       8.500000
          373.7      31.090163    1146.250000      -5.036466      10.993267      14.819837      14.453170     -60.426495      68.437840       0.943384       8.435536       8.500000
          373.8      30.993560    1146.550000       2.070585      10.989113      14.739888      14.396012     -59.501129      68.336043       0.983723       8.429357       8.500000
          373.9      31.118496    1147.500000       7.125911      10.855658      14.459277      14.142199     -58.788871      68.822558       1.002049       8.420198       8.500000
          374.0      31.118681    1147.800000       2.800495      10.684009      14.118104      13.816212     -58.022208      71.142322       1.006492       8.409986       8.500000
          374.1      31.080483    1149.050000      -0.944145      10.552755      13.881087      13.581697     -57.290321      75.184531       1.033948       8.402329       8.500000
          374.2      30.988966    1150.000000      -4.752938      10.506967      13.828049      13.518428     -56.721350      79.684854       1.086269       8.400454       8.500000
          374.3      31.021485    1150.300000      -2.367694      10.545950      13.910868      13.584366     -56.159854      84.133553       1.142538       8.407529       8.500000
          374.4      31.015562    1151.850000       1.690125      10.595814      14.000990      13.666203     -55.439339      86.788816       1.158818       8.420205       8.500000
          374.5      31.169433    1154.650000      -4.470370      10.573335      14.000573      13.668212     -54.513230      87.327351       1.141655       8.428425       8.500000
          374.6      31.086960    1158.400000      -1.307629      10.473160      13.903700      13.576788     -53.327730      85.180615       1.095974       8.427021       8.500000
          374.7      31.100781    1156.750000       3.533751      10.347997      13.752957      13.429139     -51.895333      82.233320       1.052503       8.420130       8.500000
          374.8      31.142057    1147.300000       1.463679      10.245874      13.638677      13.303921     -50.219534      78.118797       1.026184       8.416361       8.500000
          374.9      31.137743    1162.200000      -0.293509      10.210577      13.634727      13.282567     -48.293650      74.506089       1.022727       8.417783       8.500000
