~Version Information
VERS .            2.00                          : CWLS Log ASCII Standard - Version 2.00
WRAP .            NO                            : One line per depth step
#
~Well Information
#MNEM.UNIT        DATA                          : DESCRIPTION
#----.----        ----                          : -----------
STRT .M            240.0                        : Start
STOP .M           1227.7                        : Stop
STEP .M              0.1                        : Step increment
NULL .            -999.250                      : Null value
COMP .            S.N.G.N. ROMGAZ S.A.          : Company
WELL .            209 NADES                     : Well
FLD  .            NADES                         : Field
PROV .            MURES                         : Province
CTRY .            Romania                       : State / Country
LOC  .            X = 529925.187 m              : Location
LOC2 .            Y = 477271.675 m              : Location 2
SRVC .            Weatherford                   : Service company
UWI  .                                          : Unique Well ID
LATI .            46 16'07.03" N                : Latitude
LONG .            24 42'12.69" E                : Longitude
UTME .                                          : Universal Transverse Mercator Easting
UTMN .                                          : Universal Transverse Mercator Northing
X    .                                          : X
Y    .                                          : Y
DATE .            04-Sep-2024                   : Logging Date
#
~Curve Information
#MNEM.UNIT        API CODES                     : CURVE DESCRIPTION
#----.----        ---------                     : -----------------
DEPT .M           00 001 00 00                  : Logged depth
CGXT .DEGC        30 660 01 00                  : MCG External Temperature
SMTU .LB          30 635 00 00                  : DST Uphole Tension
GRGC .GAPI        30 310 01 00                  : MCG Gamma Ray
CCLG .----        30 150 00 00                  : Casing Collar Locator
NPRL .PERC        42 890 01 00                  : Limestone Neutron Por.
NPRL .V/V         42 890 01 00                  : Limestone Neutron Por.
CLDC .IN          45 280 01 00                  : Density Caliper
DCOR .G/C3        42 356 01 00                  : Density Correction
DEN  .G/C3        42 350 01 00                  : Compensated Density
PDPE .B/E         45 358 01 00                  : PE
NPOR .PERC        42 890 04 00                  : Base Neutron Porosity
NPOR .V/V         42 890 04 00                  : Base Neutron Porosity
NPRS .PERC        42 890 03 00                  : Sandstone Neutron Por.
NPRS .V/V         42 890 03 00                  : Sandstone Neutron Por.
NPRD .PERC        42 890 02 00                  : Dolomite Neutron Por.
NPRD .V/V         42 890 02 00                  : Dolomite Neutron Por.
DPOR .PERC        45 890 13 00                  : Base Density Porosity
DPOR .V/V         45 890 13 00                  : Base Density Porosity
DPRL .PERC        45 890 10 00                  : Limestone Density Por.
DPRL .V/V         45 890 10 00                  : Limestone Density Por.
DPRS .PERC        45 890 12 00                  : Sandstone Density Por.
DPRS .V/V         45 890 12 00                  : Sandstone Density Por.
DPRD .PERC        45 890 11 00                  : Dolomite Density Por.
DPRD .V/V         45 890 11 00                  : Dolomite Density Por.
HDEN .G/C3        42 350 01 00                  : Vectar Processed Density
BIT  .IN          70 282 00 00                  : Bit size
#
~Parameter Information
#MNEM.UNIT        VALUE                         : DESCRIPTION
#----.----        -----                         : -----------
RNID .                                          : Run ID
SON  .            24220368                      : Job Number
DREF .            KB                            : Depth reference
EREF .M            484.710                      : Elevation of depth reference
GL   .M            480.210                      : Ground elevation
KB   .M            484.710                      : Kelly Bushing
DF   .M            484.710                      : Drill Floor
DDRF .            KB                            : Drilling Depth Reference
DERF .M            484.710                      : Elevation of Drilling Depth Reference
RUN  .            2A+2B                         : Run number
TDD  .M           1225.000                      : TD (driller)
TDL  .M           1226.000                      : TD (logger)
BS   .IN             8.500                      : Bit size
TIMC .                                          : Time circulation ended
TIML .                                          : Time logger at bottom
UNIT .            13347                         : Equipment ID
BASE .            PLO                           : Equipment base location
ENG  .            MALEA CRISTIAN                : Recording engineer
WIT  .            VASILE FARCAS                 : Witnessed by
CSGT .            SURFACE                       : Casing type
CSGS .IN            16.000                      : Casing size
CSGW .LB/FT          0.000                      : Casing weight
CSGD .M            250.000                      : Casing bottom (driller)
CSGL .M            249.500                      : Casing bottom (logger)
CSUP .M              0.000                      : Casing Stick Up GL
MUD  .            INHIBITIV                     : Mud type
MUDS .            FLOWLINE                      : Mud sample source
MUDD .G/C3           1.100                      : Mud density
MUDV .SEC/L         50.000                      : Mud viscosity
PH   .               9.500                      : Mud pH
FL   .ML/30MIN       4.100                      : Mud fluid loss rate
RM   .OHMM           0.150                      : Mud resistivity
RMT  .DEGC          25.000                      : Mud sample temperature
RMF  .OHMM           0.120                      : Mud filtrate resistivity
RMFT .DEGC          25.000                      : Mud filtrate sample temperature
RMC  .OHMM           0.180                      : Mud cake resistivity
RMCT .DEGC          25.000                      : Mud cake sample temperature
RMBT .OHMM           0.110                      : Mud Resistivity at BHT
BHT  .DEGC          39.000                      : Bottom Hole Temperature
TMAX .DEGC          39.000                      : Max recorded temperature
#
~Other Information
------------------------------------------------------------------------------------------------
Clients intervals and scales logged
Acquisition software: Weatherford Well Manager, version 24.03.1279
Cable used: CAMESA  size 15/32", type 7J46RXZ with  cable head and 8k weakpoint set
Depth wheel calibration factor used 0.6096
Depth Control Procedure for Multiple runs in the well followed.
Run2A: CBHC, MTAK, MBE, MBE, SHA, MCG, MBN, MTC-Y, MSS, MTC-X, SKJ, MUG, MLE, MLG, MTI, MGS,HFS 
Run2B: CBHC, MTAK, SHA, MCG, SKJ, MMR, MDN, MPD, HFS
Run2C: CBHC, MTAK, SHA, MCG, MISD, SKJ, MISE, SKJ, MISD, MSS, MISD, HFS logged in combination.
 Rm, Rmf, Rmc measured on samples from Mud Engineer given on 04.09.2024
Caliper measurements and averages from TD to casing:
   Total hole volume =  35.32 cubic meters
   Annular volume = 20.52 cubic meters, based on future casing size of 5.5 inches
   Average hole diameter = 8.49 inches (215.77 mm), based on XY caliper
------------------------------------------------------------------------------------------------
#
#          DEPT           CGXT           SMTU           GRGC           CCLG           NPRL           NPRL           CLDC           DCOR            DEN           PDPE           NPOR           NPOR           NPRS           NPRS           NPRD           NPRD           DPOR           DPOR           DPRL           DPRL           DPRS           DPRS           DPRD           DPRD           HDEN            BIT
#
~ASCII Log Data
# ...
          634.0      32.938204     978.124939     101.741055      -2.484551      31.454831       0.314548       8.405271       0.010374       2.335774       2.990159      29.802804       0.298028      37.332260       0.373323      28.608092       0.286081      21.884558       0.218846      21.884558       0.218846      19.043996       0.190440      28.568232       0.285682       2.339604       8.500000
          634.1      32.969185     979.374939     104.713100      -0.309773      32.448532       0.324485       8.402081       0.010722       2.337109       2.955863      30.741643       0.307416      38.225489       0.382255      29.520377       0.295204      21.806479       0.218065      21.806479       0.218065      18.963078       0.189631      28.496834       0.284968       2.340626       8.500000
          634.2      32.932272     980.624939     103.922752       3.097365      33.308144       0.333081       8.396953       0.011022       2.329942       2.889539      31.553381       0.315534      38.992794       0.389928      30.309694       0.303097      22.225587       0.222256      22.225587       0.222256      19.397427       0.193974      28.880082       0.288801       2.330585       8.500000
          634.3      32.900291     981.874939     100.678162       1.726890      33.942146       0.339421       8.391728       0.010952       2.317214       2.832386      32.151163       0.321512      39.555487       0.395555      30.891912       0.308919      22.969940       0.229699      22.969940       0.229699      20.168848       0.201688      29.560748       0.295607       2.314804       8.500000
          634.4      32.929678     983.124939      96.465755       0.359784      34.339825       0.343398       8.388720       0.010596       2.306948       2.814097      32.524698       0.325247      39.908751       0.399088      31.257085       0.312571      23.570316       0.235703      23.570316       0.235703      20.791056       0.207911      30.109755       0.301098       2.303330       8.500000
          634.5      32.950958     984.374939      93.312370       0.251359      34.360561       0.343606       8.387209       0.010280       2.305829       2.841066      32.540541       0.325405      39.928110       0.399281      31.276072       0.312761      23.635736       0.236357      23.635736       0.236357      20.858853       0.208589      30.169576       0.301696       2.303268       8.500000
          634.6      32.974579     984.999939      93.289982      -0.118640      33.879766       0.338798       8.383633       0.010123       2.312544       2.905010      32.080837       0.320808      39.500368       0.395004      30.834532       0.308345      23.243063       0.232431      23.243063       0.232431      20.451901       0.204519      29.810501       0.298105       2.312725       8.500000
          634.7      33.000137     984.999939      95.476971      -0.006798      33.057789       0.330578       8.377293       0.010151       2.321078       2.966761      31.298228       0.312982      38.766724       0.387667      30.079772       0.300798      22.743994       0.227440      22.743994       0.227440      19.934685       0.199347      29.354134       0.293541       2.323606       8.500000
          634.8      32.979826     984.999939      97.064423      -0.247895      32.278679       0.322787       8.371889       0.010385       2.325380       2.999880      30.557309       0.305573      38.070286       0.380703      29.364426       0.293644      22.492399       0.224924      22.492399       0.224924      19.673942       0.196739      29.124066       0.291241       2.328963       8.500000
          634.9      32.955608     983.749939      96.643398       0.571184      31.827153       0.318272       8.371233       0.010731       2.322463       2.991211      30.128249       0.301282      37.666775       0.376668      28.949865       0.289499      22.662959       0.226630      22.662959       0.226630      19.850703       0.198507      29.280033       0.292800       2.324641       8.500000
          635.0      32.934149     982.499939      95.031906       0.073378      31.665785       0.316658       8.374297       0.010971       2.312372       2.961041      29.975609       0.299756      37.522537       0.375225      28.801715       0.288017      23.253108       0.232531      23.253108       0.232531      20.462312       0.204623      29.819688       0.298197       2.312546       8.500000
          635.1      32.950840     983.124939      93.219341      -1.131980      31.639652       0.316397       8.376889       0.011081       2.299796       2.923788      29.952363       0.299524      37.498861       0.374989      28.777750       0.287778      23.988560       0.239886      23.988560       0.239886      21.224507       0.212245      30.492212       0.304922       2.298443       8.500000
          635.2      32.969885     984.999939      91.974991      -0.048471      31.747568       0.317476       8.378047       0.011248       2.290447       2.891794      30.057032       0.300570      37.595858       0.375959      28.876840       0.288768      24.535235       0.245352      24.535235       0.245352      21.791062       0.217911      30.992113       0.309921       2.288888       8.500000
          635.3      32.950243     985.624939      91.826923      -0.016047      32.087687       0.320877       8.380490       0.011557       2.286295       2.862361      30.382287       0.303823      37.897623       0.378976      29.189316       0.291893      24.778053       0.247781      24.778053       0.247781      22.042709       0.220427      31.214155       0.312142       2.285416       8.500000
          635.4      32.945831     984.999939      91.706650       0.030630      32.572277       0.325723       8.385455       0.011902       2.285440       2.836224      30.844614       0.308446      38.324322       0.383243      29.634672       0.296347      24.828086       0.248281      24.828086       0.248281      22.094562       0.220946      31.259908       0.312599       2.284987       8.500000
          635.5      32.949348     984.999939      89.768841       1.660800      32.943317       0.329433       8.390819       0.012014       2.283626       2.811140      31.199048       0.311990      38.648813       0.386488      29.975794       0.299758      24.934134       0.249341      24.934134       0.249341      22.204466       0.222045      31.356881       0.313569       2.283656       8.500000
          635.6      32.941942     984.999939      85.327591       1.103630      33.063606       0.330636       8.394075       0.011742       2.278186       2.785963      31.315242       0.313152      38.752281       0.387523      30.086472       0.300865      25.252269       0.252523      25.252269       0.252523      22.534170       0.225342      31.647797       0.316478       2.278446       8.500000
          635.7      32.975264     985.624939      79.266594      -1.231896      32.882746       0.328827       8.395242       0.011698       2.271962       2.772859      31.145006       0.311450      38.588404       0.385884      29.920480       0.299205      25.616261       0.256163      25.616261       0.256163      22.911399       0.229114      31.980646       0.319806       2.272469       8.500000
          635.8      33.012997     985.624939      73.229237      -0.362675      32.348849       0.323488       8.395503       0.012231       2.267941       2.765970      30.638952       0.306390      38.111252       0.381113      29.430187       0.294302      25.851390       0.258514      25.851390       0.258514      23.155077       0.231551      32.195656       0.321957       2.268388       8.500000
          635.9      32.953568     986.249939      68.900879       0.300000      31.595088       0.315951       8.394828       0.013231       2.266411       2.760631      29.923556       0.299236      37.442074       0.374421      28.737786       0.287378      25.940873       0.259409      25.940873       0.259409      23.247814       0.232478      32.277483       0.322775       2.266870       8.500000
