~Version Information
VERS .            2.00                          : CWLS Log ASCII Standard - Version 2.00
WRAP .            NO                            : One line per depth step
#
~Well Information
#MNEM.UNIT        DATA                          : DESCRIPTION
#----.----        ----                          : -----------
STRT .M            240.0                        : Start
STOP .M           1229.6                        : Stop
STEP .M              0.1                        : Step increment
NULL .            -999.250                      : Null value
COMP .            S.N.G.N. ROMGAZ S.A.          : Company
WELL .            209 NADES                     : Well
FLD  .            NADES                         : Field
PROV .            MURES                         : Province
CTRY .            Romania                       : State / Country
LOC  .            X = 529925.187 m              : Location
LOC2 .            Y = 477271.675 m              : Location 2
SRVC .            Weatherford                   : Service company
UWI  .                                          : Unique Well ID
LATI .            46 16'07.03" N                : Latitude
LONG .            24 42'12.69" E                : Longitude
UTME .                                          : Universal Transverse Mercator Easting
UTMN .                                          : Universal Transverse Mercator Northing
X    .                                          : X
Y    .                                          : Y
DATE .            04-Sep-2024                   : Logging Date
#
~Curve Information
#MNEM.UNIT        API CODES                     : CURVE DESCRIPTION
#----.----        ---------                     : -----------------
DEPT .M           00 001 00 00                  : Logged depth
CGXT .DEGC        30 660 01 00                  : MCG External Temperature
SMTU .LB          30 635 00 00                  : DST Uphole Tension
CCLG .----        30 150 00 00                  : Casing Collar Locator
DSLL .OHMM        11 220 09 00                  : Shallow Laterolog
DDLL .OHMM        11 220 10 00                  : Deep Laterolog
DGLL .OHMM        11 211 00 00                  : Groningen Laterolog
SPDL .MV          30 010 00 00                  : Spontaneous Potential
GRGM .GAPI        30 310 01 00                  : MGS Gamma Ray
MRRS .OHMM        15 252 00 00                  : MicroRes Resistance (S)
MATC .IN          15 280 01 00                  : MMR Caliper
BIT  .IN          70 282 00 00                  : Bit size
#
~Parameter Information
#MNEM.UNIT        VALUE                         : DESCRIPTION
#----.----        -----                         : -----------
RNID .                                          : Run ID
SON  .            24220368                      : Job Number
DREF .            KB                            : Depth reference
EREF .M            484.710                      : Elevation of depth reference
GL   .M            480.210                      : Ground elevation
KB   .M            484.710                      : Kelly Bushing
DF   .M            484.710                      : Drill Floor
DDRF .            KB                            : Drilling Depth Reference
DERF .M            484.710                      : Elevation of Drilling Depth Reference
RUN  .            2A+2B                         : Run number
TDD  .M           1225.000                      : TD (driller)
TDL  .M           1226.000                      : TD (logger)
BS   .IN             8.500                      : Bit size
TIMC .                                          : Time circulation ended
TIML .                                          : Time logger at bottom
UNIT .            13347                         : Equipment ID
BASE .            PLO                           : Equipment base location
ENG  .            MALEA CRISTIAN                : Recording engineer
WIT  .            VASILE FARCAS                 : Witnessed by
CSGT .            SURFACE                       : Casing type
CSGS .IN            16.000                      : Casing size
CSGW .LB/FT          0.000                      : Casing weight
CSGD .M            250.000                      : Casing bottom (driller)
CSGL .M            249.500                      : Casing bottom (logger)
CSUP .M              0.000                      : Casing Stick Up GL
MUD  .            INHIBITIV                     : Mud type
MUDS .            FLOWLINE                      : Mud sample source
MUDD .G/C3           1.100                      : Mud density
MUDV .SEC/L         50.000                      : Mud viscosity
PH   .               9.500                      : Mud pH
FL   .ML/30MIN       4.100                      : Mud fluid loss rate
RM   .OHMM           0.150                      : Mud resistivity
RMT  .DEGC          25.000                      : Mud sample temperature
RMF  .OHMM           0.120                      : Mud filtrate resistivity
RMFT .DEGC          25.000                      : Mud filtrate sample temperature
RMC  .OHMM           0.180                      : Mud cake resistivity
RMCT .DEGC          25.000                      : Mud cake sample temperature
RMBT .OHMM           0.110                      : Mud Resistivity at BHT
BHT  .DEGC          39.000                      : Bottom Hole Temperature
TMAX .DEGC          39.000                      : Max recorded temperature
#
~Other Information
------------------------------------------------------------------------------------------------
Clients intervals and scales logged
Acquisition software: Weatherford Well Manager, version 24.03.1279
Cable used: CAMESA  size 15/32", type 7J46RXZ with  cable head and 8k weakpoint set
Depth wheel calibration factor used 0.6096
Depth Control Procedure for Multiple runs in the well followed.
Run2A: CBHC, MTAK, MBE, MBE, SHA, MCG, MBN, MTC-Y, MSS, MTC-X, SKJ, MUG, MLE, MLG, MTI, MGS,HFS 
Run2B: CBHC, MTAK, SHA, MCG, SKJ, MMR, MDN, MPD, HFS
Run2C: CBHC, MTAK, SHA, MCG, MISD, SKJ, MISE, SKJ, MISD, MSS, MISD, HFS logged in combination.
 Rm, Rmf, Rmc measured on samples from Mud Engineer given on 04.09.2024
Caliper measurements and averages from TD to casing:
   Total hole volume =  35.32 cubic meters
   Annular volume = 20.52 cubic meters, based on future casing size of 5.5 inches
   Average hole diameter = 8.49 inches (215.77 mm), based on XY caliper
------------------------------------------------------------------------------------------------
#
#          DEPT           CGXT           SMTU           CCLG           DSLL           DDLL           DGLL           SPDL           GRGM           MRRS           MATC            BIT
#
~ASCII Log Data
# ...
          564.0      33.033362    1334.999878      -0.316827       4.703398       4.723390       4.740298    -104.306196     118.865594       2.068026       8.478830       8.500000
          564.1      33.006587    1334.699878      -1.298917       4.716126       4.734579       4.750405    -104.341304     120.740413       2.099255       8.479347       8.500000
          564.2      33.043221    1333.749878       0.529751       4.703344       4.720300       4.735590    -104.421774     122.046700       2.120590       8.479560       8.500000
          564.3      33.083311    1333.449878       0.426793       4.680237       4.695103       4.709927    -104.470343     120.729073       2.128445       8.479580       8.500000
          564.4      33.058983    1332.499878      -0.580869       4.658194       4.668109       4.682646    -104.408300     117.837526       2.139580       8.479108       8.500000
          564.5      33.018542    1332.499878      -0.872071       4.643678       4.645155       4.659727    -104.252847     114.944987       2.153515       8.477193       8.500000
          564.6      33.015773    1332.199878       1.118724       4.643917       4.635521       4.649857    -104.130187     112.314070       2.187653       8.472698       8.500000
          564.7      32.994044    1331.249878       1.418304       4.661115       4.644907       4.658300    -104.048671     111.112154       2.216554       8.466288       8.500000
          564.8      33.003815    1331.249878      -2.233520       4.687223       4.667686       4.679564    -104.012994     111.931485       2.234538       8.461770       8.500000
          564.9      32.994484    1330.949878       1.119890       4.714076       4.696413       4.706558    -103.984675     114.258808       2.241391       8.461174       8.500000
          565.0      33.028023    1330.299878       1.649392       4.740981       4.728924       4.737444    -103.952870     114.640302       2.255953       8.466910       8.500000
          565.1      33.022529    1331.249878      -1.297550       4.767596       4.763511       4.770505    -103.923773     113.581999       2.246846       8.475927       8.500000
          565.2      33.029973    1331.549878      -0.380892       4.789002       4.796447       4.802154    -103.864081     112.051217       2.225149       8.486464       8.500000
          565.3      33.054047    1332.499878       0.296473       4.802756       4.825073       4.830657    -103.763674     112.435079       2.210673       8.494794       8.500000
          565.4      33.026318    1332.799878      -0.745452       4.810403       4.849038       4.856026    -103.614744     112.688286       2.210098       8.499079       8.500000
          565.5      33.072372    1333.749878       0.164292       4.810323       4.863868       4.872548    -103.430754     113.847257       2.197128       8.499857       8.500000
          565.6      33.082478    1334.049878       0.767629       4.797946       4.859977       4.869910    -103.301602     114.956174       2.174626       8.497808       8.500000
          565.7      33.049000    1335.299878      -1.075023       4.773519       4.836265       4.847961    -103.233226     116.067670       2.163030       8.494159       8.500000
          565.8      33.089659    1336.249878       0.348501       4.744234       4.803542       4.817531    -103.149179     115.016245       2.146282       8.489511       8.500000
          565.9      33.067058    1336.549878      -1.324383       4.716413       4.770390       4.786067    -103.107441     112.612372       2.125647       8.485582       8.500000
          566.0      33.038897    1337.799878       0.002740       4.691648       4.741202       4.758217    -103.201014     111.093264       2.115215       8.483168       8.500000
          566.1      33.009207    1339.049878       1.989566       4.673200       4.720478       4.739085    -103.266357     110.555470       2.128709       8.481617       8.500000
          566.2      33.016197    1339.699878      -0.744134       4.665215       4.709983       4.729759    -103.230936     110.518036       2.145360       8.478945       8.500000
          566.3      33.057704    1338.749878      -1.470802       4.665146       4.706959       4.727047    -103.233561     110.456536       2.160081       8.476399       8.500000
          566.4      33.092120    1338.449878      -1.713731       4.668201       4.706169       4.726319    -103.127815     111.437909       2.181190       8.476602       8.500000
          566.5      33.042706    1337.499878      -0.480826       4.673761       4.705610       4.726093    -102.956304     112.268035       2.192279       8.480865       8.500000
          566.6      33.078254    1337.199878       3.266605       4.681112       4.707670       4.728664    -102.850337     113.019172       2.207541       8.485998       8.500000
          566.7      33.042840    1336.249878       1.249643       4.686694       4.709853       4.731231    -102.769478     113.380336       2.217547       8.489205       8.500000
          566.8      33.071145    1336.249878      -1.698527       4.686603       4.701652       4.723222    -102.683383     114.063842       2.238434       8.489887       8.500000
          566.9      33.062933    1335.349878       0.069246       4.675976       4.678060       4.699565    -102.714603     114.660944       2.236778       8.490009       8.500000
          567.0      33.048230    1332.199878      -1.075956       4.651437       4.645066       4.665900    -102.787802     115.337758       2.239754       8.490109       8.500000
          567.1      33.042063    1331.849878       0.912763       4.617596       4.610416       4.629569    -102.801034     116.147292       2.218807       8.490078       8.500000
          567.2      33.039643    1339.149878       0.286785       4.584651       4.582064       4.598633    -102.836984     116.227309       2.194659       8.489826       8.500000
          567.3      33.076461    1353.249878      -0.120997       4.566292       4.574191       4.588184    -102.839392     115.641492       2.154001       8.489473       8.500000
          567.4      33.077436    1343.749878       1.411190       4.578070       4.598003       4.610140    -102.884742     114.138729       2.133553       8.489161       8.500000
          567.5      33.003242    1343.449878       2.991408       4.621239       4.646399       4.657652    -102.950745     112.045873       2.127812       8.489024       8.500000
          567.6      33.027046    1341.899878       1.561146       4.680421       4.702686       4.714523    -103.042280     110.498744       2.159754       8.489200       8.500000
          567.7      33.040406    1339.399878      -3.369991       4.739979       4.752285       4.766137    -103.222590     110.424551       2.207884       8.490227       8.500000
          567.8      33.110995    1337.499878      -2.182235       4.779034       4.775071       4.791186    -103.459629     111.217294       2.271568       8.492613       8.500000
          567.9      33.097750    1337.499878      -1.137569       4.770109       4.749850       4.767474    -103.571746     112.792870       2.299949       8.496511       8.500000
          568.0      33.053811    1337.499878       0.938719       4.707809       4.677194       4.695250    -103.563368     114.289959       2.321457       8.501721       8.500000
          568.1      33.009292    1337.199878       2.146819       4.614199       4.577739       4.595355    -103.544885     114.955462       2.323673       8.506752       8.500000
          568.2      33.003855    1336.249878      -2.032368       4.512930       4.472254       4.489434    -103.472643     113.413279       2.324891       8.510272       8.500000
          568.3      33.042688    1335.949878      -2.613267       4.422003       4.379610       4.397001    -103.414769     111.741668       2.314106       8.511724       8.500000
          568.4      33.055760    1335.299878       1.268730       4.358576       4.318741       4.336910    -103.497343     110.300526       2.327938       8.512521       8.500000
