~Version Information
VERS .            2.00                          : CWLS Log ASCII Standard - Version 2.00
WRAP .            NO                            : One line per depth step
#
~Well Information
#MNEM.UNIT        DATA                          : DESCRIPTION
#----.----        ----                          : -----------
STRT .M            240.0                        : Start
STOP .M           1228.5                        : Stop
STEP .M              0.1                        : Step increment
NULL .            -999.250                      : Null value
COMP .            S.N.G.N. ROMGAZ S.A.          : Company
WELL .            209 NADES                     : Well
FLD  .            NADES                         : Field
PROV .            MURES                         : Province
CTRY .            Romania                       : State / Country
LOC  .            X = 529925.187 m              : Location
LOC2 .            Y = 477271.675 m              : Location 2
SRVC .            Weatherford                   : Service company
UWI  .                                          : Unique Well ID
LATI .            46 16'07.03" N                : Latitude
LONG .            24 42'12.69" E                : Longitude
UTME .                                          : Universal Transverse Mercator Easting
UTMN .                                          : Universal Transverse Mercator Northing
X    .                                          : X
Y    .                                          : Y
DATE .            04-Sep-2024                   : Logging Date
#
~Curve Information
#MNEM.UNIT        API CODES                     : CURVE DESCRIPTION
#----.----        ---------                     : -----------------
DEPT .M           00 001 00 00                  : Logged depth
CGXT .DEGC        30 660 01 00                  : MCG External Temperature
SMTU .LB          30 635 00 00                  : DST Uphole Tension
GRGC .GAPI        30 310 01 00                  : MCG Gamma Ray
CCLG .----        30 150 00 00                  : Casing Collar Locator
TR21 .US          60 520 30 00                  : 3' Transit Time
TR11 .US          60 520 04 00                  : 4' Transit Time
TR22 .US          60 520 50 00                  : 5' Transit Time
TR12 .US          60 520 60 00                  : 6' Transit Time
DT35 .US/F        60 520 32 00                  : 3-5' Compensated Sonic
BIT  .IN          70 282 00 00                  : Bit size
#
~Parameter Information
#MNEM.UNIT        VALUE                         : DESCRIPTION
#----.----        -----                         : -----------
RNID .                                          : Run ID
SON  .            24220368                      : Job Number
DREF .            KB                            : Depth reference
EREF .M            484.710                      : Elevation of depth reference
GL   .M            480.210                      : Ground elevation
KB   .M            484.710                      : Kelly Bushing
DF   .M            484.710                      : Drill Floor
DDRF .            KB                            : Drilling Depth Reference
DERF .M            484.710                      : Elevation of Drilling Depth Reference
RUN  .            2A+2B                         : Run number
TDD  .M           1225.000                      : TD (driller)
TDL  .M           1226.000                      : TD (logger)
BS   .IN             8.500                      : Bit size
TIMC .                                          : Time circulation ended
TIML .                                          : Time logger at bottom
UNIT .            13347                         : Equipment ID
BASE .            PLO                           : Equipment base location
ENG  .            MALEA CRISTIAN                : Recording engineer
WIT  .            VASILE FARCAS                 : Witnessed by
CSGT .            SURFACE                       : Casing type
CSGS .IN            16.000                      : Casing size
CSGW .LB/FT          0.000                      : Casing weight
CSGD .M            250.000                      : Casing bottom (driller)
CSGL .M            249.500                      : Casing bottom (logger)
CSUP .M              0.000                      : Casing Stick Up GL
MUD  .            INHIBITIV                     : Mud type
MUDS .            FLOWLINE                      : Mud sample source
MUDD .G/C3           1.100                      : Mud density
MUDV .SEC/L         50.000                      : Mud viscosity
PH   .               9.500                      : Mud pH
FL   .ML/30MIN       4.100                      : Mud fluid loss rate
RM   .OHMM           0.150                      : Mud resistivity
RMT  .DEGC          25.000                      : Mud sample temperature
RMF  .OHMM           0.120                      : Mud filtrate resistivity
RMFT .DEGC          25.000                      : Mud filtrate sample temperature
RMC  .OHMM           0.180                      : Mud cake resistivity
RMCT .DEGC          25.000                      : Mud cake sample temperature
RMBT .OHMM           0.110                      : Mud Resistivity at BHT
BHT  .DEGC          39.000                      : Bottom Hole Temperature
TMAX .DEGC          39.000                      : Max recorded temperature
#
~Other Information
------------------------------------------------------------------------------------------------
Clients intervals and scales logged
Acquisition software: Weatherford Well Manager, version 24.03.1279
Cable used: CAMESA  size 15/32", type 7J46RXZ with  cable head and 8k weakpoint set
Depth wheel calibration factor used 0.6096
Depth Control Procedure for Multiple runs in the well followed.
Run2A: CBHC, MTAK, MBE, MBE, SHA, MCG, MBN, MTC-Y, MSS, MTC-X, SKJ, MUG, MLE, MLG, MTI, MGS,HFS 
Run2B: CBHC, MTAK, SHA, MCG, SKJ, MMR, MDN, MPD, HFS
Run2C: CBHC, MTAK, SHA, MCG, MISD, SKJ, MISE, SKJ, MISD, MSS, MISD, HFS logged in combination.
 Rm, Rmf, Rmc measured on samples from Mud Engineer given on 04.09.2024
Caliper measurements and averages from TD to casing:
   Total hole volume =  35.32 cubic meters
   Annular volume = 20.52 cubic meters, based on future casing size of 5.5 inches
   Average hole diameter = 8.49 inches (215.77 mm), based on XY caliper
------------------------------------------------------------------------------------------------
#
#          DEPT           CGXT           SMTU           GRGC           CCLG           TR21           TR11           TR22           TR12           DT35            BIT
#
~ASCII Log Data
# ...
          627.1      33.498768    1407.499878      94.982773       2.089041     452.750885     554.750854     659.750854     762.750854     107.409325       8.500000
          627.2      33.580284    1407.499878      95.014359       0.047945     450.750885     555.750854     657.910095     761.750854     107.532402       8.500000
          627.3      33.542671    1407.499878      94.008194      -0.136339     449.750885     555.009644     657.750854     764.750854     107.351860       8.500000
          627.4      33.513821    1407.499878      92.175491       2.027398     447.750885     553.921143     659.750854     769.750854     106.827705       8.500000
          627.5      33.568394    1407.499878      90.916710      -0.808867     445.867676     551.750854     664.750854     777.750854     105.750854       8.500000
          627.6      33.557930    1407.499878      87.717934      -2.288689     447.750885     552.750854     670.750854     786.750854     104.527977       8.500000
          627.7      33.525772    1406.249878      83.608116       1.369863     452.750885     557.750854     677.750854     784.044067     103.478745       8.500000
          627.8      33.581566    1406.249878      80.094276       0.363175     452.750885     567.868530     676.750854     779.750854     103.164345       8.500000
          627.9      33.573818    1406.249878      78.955788       0.423801     456.750885     580.750854     674.061401     779.078857     103.979103       8.500000
          628.0      33.539989    1404.999878      79.842812       2.630993     465.750885     574.750854     679.750854     781.108704     106.134300       8.500000
          628.1      33.565353    1404.999878      83.367348      -0.090278     468.750885     567.750854     678.750854     786.750854     109.158470       8.500000
          628.2      33.546070    1404.999878      89.493019      -0.232877     463.750885     567.961914     676.750854     791.060364     112.216621       8.500000
          628.3      33.544163    1404.999878      96.932755       0.255517     465.750885     571.750854     678.750854     787.750854     114.495239       8.500000
          628.4      33.536411    1404.999878     102.549332       0.185217     470.750885     573.750854     680.750854     784.810730     115.453835       8.500000
          628.5      33.561268    1403.749878     104.444801      -0.137462     475.750885     576.750854     681.750854     787.750854     115.025658       8.500000
          628.6      33.485027    1403.749878     103.417923      -3.203932     479.750885     580.750854     684.750854     795.945435     113.670876       8.500000
          628.7      33.541805    1403.749878     100.784744       0.918284     479.750885     584.750854     693.750854     806.790283     112.058365       8.500000
          628.8      33.586334    1404.999878      98.170265       3.292688     471.750885     587.750854     709.750854     804.750854     110.553314       8.500000
          628.9      33.572983    1406.249878      95.168434      -2.479452     462.858826     594.750854     708.750854     804.750854     109.497482       8.500000
          629.0      33.528873    1408.749878      92.684425      -1.801370     464.750885     597.750854     705.858337     807.818970     109.210785       8.500000
          629.1      33.513432    1411.249878      91.008698      -1.034247     477.750885     584.836182     697.750854     812.908691     109.799797       8.500000
          629.2      33.539333    1412.499878      90.866257       2.643836     473.750885     579.750854     689.750854     820.750854     110.992905       8.500000
          629.3      33.583652    1412.499878      91.518387       3.390138     467.750885     575.750854     695.750854     811.802124     112.260826       8.500000
          629.4      33.584545    1414.999878      93.492561      -3.958904     463.750885     576.750854     692.750854     797.750854     113.239082       8.500000
          629.5      33.501690    1414.999878      96.557991      -3.992877     463.750885     582.750854     687.750854     779.833069     113.520309       8.500000
          629.6      33.521839    1416.249878      99.696907       1.617960     473.750885     579.750854     669.750854     775.953430     113.116486       8.500000
          629.7      33.582611    1413.749878     101.132431       2.604498     477.750885     575.750854     663.750854     781.945129     111.896255       8.500000
          629.8      33.574444    1413.749878     102.735069       0.868618     476.750885     562.750854     669.750854     790.750854     110.273804       8.500000
          629.9      33.639030    1413.749878     104.632813      -0.933265     452.750885     561.750854     681.838684     787.750854     107.768845       8.500000
          630.0      33.552357    1413.749878     106.546387      -1.589318     440.750885     569.750854     687.750854     781.750854     105.440224       8.500000
          630.1      33.555843    1411.249878     104.506317       0.417808     444.750885     570.750854     681.750854     784.226868     103.113068       8.500000
          630.2      33.593399    1411.249878     100.274284       1.690670     456.750885     564.750854     672.822021     788.750854     102.428329       8.500000
          630.3      33.603294    1411.249878      93.102669      -1.116438     462.750885     557.076416     667.824707     791.750854     102.682991       8.500000
          630.4      33.614799    1412.499878      86.944321      -2.026287     452.750885     557.234070     668.750854     783.936584     104.916748       8.500000
          630.5      33.590122    1413.749878      83.428581      -0.401888     444.750885     563.098267     671.750854     780.750854     107.432411       8.500000
          630.6      33.617542    1413.749878      85.997040       1.924658     441.750885     561.750854     676.750854     781.750854     110.211227       8.500000
          630.7      33.580494    1414.999878      92.239914       1.408737     445.750885     558.750854     675.750854     786.123657     111.557816       8.500000
          630.8      33.637749    1416.249878     100.056763      -2.134857     466.791260     555.878235     672.750854     791.805481     112.344185       8.500000
          630.9      33.567558    1416.249878     107.886703       0.922344     475.750885     563.580688     670.155273     784.750854     112.463799       8.500000
          631.0      33.573193    1414.999878     114.721474       4.040540     471.750885     583.750854     672.826111     778.774170     112.718864       8.500000
          631.1      33.680847    1414.999878     119.161880       1.522862     466.750885     590.911621     689.089111     778.022644     112.954849       8.500000
          631.2      33.571522    1414.999878     121.031723      -5.823492     466.833618     581.750854     697.750854     785.863037     113.194023       8.500000
          631.3      33.523506    1413.749878     120.311241      -4.945206     464.750885     572.986450     693.750854     796.334900     113.137962       8.500000
          631.4      33.560196    1413.749878     116.580269       1.972603     459.830963     575.750854     681.051270     803.750854     112.485199       8.500000
          631.5      33.672382    1412.499878     110.666702       2.780452     459.750885     576.040527     680.297729     794.750854     111.236115       8.500000
          631.6      33.615215    1411.249878     104.812325      -2.130136     459.750885     568.750854     678.750854     787.103455     109.695557       8.500000
          631.7      33.592178    1408.749878     100.709305       1.637356     452.831024     566.750854     675.750854     782.352234     108.323929       8.500000
          631.8      33.536831    1408.749878      98.068672       1.366160     452.750885     562.750854     669.750854     767.434570     107.457977       8.500000
          631.9      33.671009    1408.749878      96.448654      -5.609589     448.750885     560.750854     652.943359     747.268555     107.197220       8.500000
