~Version Information
VERS .            2.00                          : CWLS Log ASCII Standard - Version 2.00
WRAP .            NO                            : One line per depth step
#
~Well Information
#MNEM.UNIT        DATA                          : DESCRIPTION
#----.----        ----                          : -----------
STRT .M            240.0                        : Start
STOP .M           1229.6                        : Stop
STEP .M              0.1                        : Step increment
NULL .            -999.250                      : Null value
COMP .            S.N.G.N. ROMGAZ S.A.          : Company
WELL .            209 NADES                     : Well
FLD  .            NADES                         : Field
PROV .            MURES                         : Province
CTRY .            Romania                       : State / Country
LOC  .            X = 529925.187 m              : Location
LOC2 .            Y = 477271.675 m              : Location 2
SRVC .            Weatherford                   : Service company
UWI  .                                          : Unique Well ID
LATI .            46 16'07.03" N                : Latitude
LONG .            24 42'12.69" E                : Longitude
UTME .                                          : Universal Transverse Mercator Easting
UTMN .                                          : Universal Transverse Mercator Northing
X    .                                          : X
Y    .                                          : Y
DATE .            04-Sep-2024                   : Logging Date
#
~Curve Information
#MNEM.UNIT        API CODES                     : CURVE DESCRIPTION
#----.----        ---------                     : -----------------
DEPT .M           00 001 00 00                  : Logged depth
CGXT .DEGC        30 660 01 00                  : MCG External Temperature
SMTU .LB          30 635 00 00                  : DST Uphole Tension
CCLG .----        30 150 00 00                  : Casing Collar Locator
DSLL .OHMM        11 220 09 00                  : Shallow Laterolog
DDLL .OHMM        11 220 10 00                  : Deep Laterolog
DGLL .OHMM        11 211 00 00                  : Groningen Laterolog
SPDL .MV          30 010 00 00                  : Spontaneous Potential
GRGM .GAPI        30 310 01 00                  : MGS Gamma Ray
MRRS .OHMM        15 252 00 00                  : MicroRes Resistance (S)
MATC .IN          15 280 01 00                  : MMR Caliper
BIT  .IN          70 282 00 00                  : Bit size
#
~Parameter Information
#MNEM.UNIT        VALUE                         : DESCRIPTION
#----.----        -----                         : -----------
RNID .                                          : Run ID
SON  .            24220368                      : Job Number
DREF .            KB                            : Depth reference
EREF .M            484.710                      : Elevation of depth reference
GL   .M            480.210                      : Ground elevation
KB   .M            484.710                      : Kelly Bushing
DF   .M            484.710                      : Drill Floor
DDRF .            KB                            : Drilling Depth Reference
DERF .M            484.710                      : Elevation of Drilling Depth Reference
RUN  .            2A+2B                         : Run number
TDD  .M           1225.000                      : TD (driller)
TDL  .M           1226.000                      : TD (logger)
BS   .IN             8.500                      : Bit size
TIMC .                                          : Time circulation ended
TIML .                                          : Time logger at bottom
UNIT .            13347                         : Equipment ID
BASE .            PLO                           : Equipment base location
ENG  .            MALEA CRISTIAN                : Recording engineer
WIT  .            VASILE FARCAS                 : Witnessed by
CSGT .            SURFACE                       : Casing type
CSGS .IN            16.000                      : Casing size
CSGW .LB/FT          0.000                      : Casing weight
CSGD .M            250.000                      : Casing bottom (driller)
CSGL .M            249.500                      : Casing bottom (logger)
CSUP .M              0.000                      : Casing Stick Up GL
MUD  .            INHIBITIV                     : Mud type
MUDS .            FLOWLINE                      : Mud sample source
MUDD .G/C3           1.100                      : Mud density
MUDV .SEC/L         50.000                      : Mud viscosity
PH   .               9.500                      : Mud pH
FL   .ML/30MIN       4.100                      : Mud fluid loss rate
RM   .OHMM           0.150                      : Mud resistivity
RMT  .DEGC          25.000                      : Mud sample temperature
RMF  .OHMM           0.120                      : Mud filtrate resistivity
RMFT .DEGC          25.000                      : Mud filtrate sample temperature
RMC  .OHMM           0.180                      : Mud cake resistivity
RMCT .DEGC          25.000                      : Mud cake sample temperature
RMBT .OHMM           0.110                      : Mud Resistivity at BHT
BHT  .DEGC          39.000                      : Bottom Hole Temperature
TMAX .DEGC          39.000                      : Max recorded temperature
#
~Other Information
------------------------------------------------------------------------------------------------
Clients intervals and scales logged
Acquisition software: Weatherford Well Manager, version 24.03.1279
Cable used: CAMESA  size 15/32", type 7J46RXZ with  cable head and 8k weakpoint set
Depth wheel calibration factor used 0.6096
Depth Control Procedure for Multiple runs in the well followed.
Run2A: CBHC, MTAK, MBE, MBE, SHA, MCG, MBN, MTC-Y, MSS, MTC-X, SKJ, MUG, MLE, MLG, MTI, MGS,HFS 
Run2B: CBHC, MTAK, SHA, MCG, SKJ, MMR, MDN, MPD, HFS
Run2C: CBHC, MTAK, SHA, MCG, MISD, SKJ, MISE, SKJ, MISD, MSS, MISD, HFS logged in combination.
 Rm, Rmf, Rmc measured on samples from Mud Engineer given on 04.09.2024
Caliper measurements and averages from TD to casing:
   Total hole volume =  35.32 cubic meters
   Annular volume = 20.52 cubic meters, based on future casing size of 5.5 inches
   Average hole diameter = 8.49 inches (215.77 mm), based on XY caliper
------------------------------------------------------------------------------------------------
#
#          DEPT           CGXT           SMTU           CCLG           DSLL           DDLL           DGLL           SPDL           GRGM           MRRS           MATC            BIT
#
~ASCII Log Data
          240.0      30.538011    1053.450000       2.086897       0.000869    5545.239609   10387.383789     -74.695247      56.029679       0.002095       8.866143      12.250000
          240.1      30.516401    1052.500000      -5.605861       0.000869    5513.232832   10372.543398     -72.957279      55.322140       0.001994       8.866746      12.250000
          240.2      30.482389    1052.500000      -8.646898       0.000869    5461.158457   10303.283906     -71.243826      54.883250       0.001959       8.867241      12.250000
          240.3      30.556397    1052.800000     -23.021077       0.000869    5401.667324   10218.161289     -69.606451      55.265562       0.001998       8.867266      12.250000
          240.4      30.522066    1053.750000     -15.847192       0.000869    5333.359844   10103.531445     -68.074487      56.962424       0.002151       8.865964      12.250000
          240.5      30.470507    1053.450000       4.287477       0.000869    5201.276582    9699.055000     -66.691890      58.579140       0.002342       8.864149      12.250000
          240.6      30.495045    1052.500000      -5.064458       0.000869    4980.104609    8843.225938     -65.479593      61.213890       0.002483       8.863109      12.250000
          240.7      30.477849    1052.500000     -14.114417       0.000869    4752.386641    7822.992695     -64.408470      62.438418       0.002519       8.863713      12.250000
          240.8      30.433660    1052.200000       2.295419       0.000869    4614.819961    7109.229414     -63.453645      63.165421       0.002514       8.864317      12.250000
          240.9      30.529732    1050.950000       1.004705       0.000869    4590.051289    6796.586875     -62.613318      62.599658       0.002370       8.864027      12.250000
          241.0      30.512881    1049.700000       9.908566       0.000869    4678.123223    6815.169687     -61.867521      62.176955       0.002198       8.864138      12.250000
          241.1      30.550395    1048.750000      35.568302       0.000869    4868.455977    7190.571250     -61.173499      61.805079       0.002000       8.865282      12.250000
          241.2      30.496983    1049.350000      10.786376       0.000869    5026.450762    7708.477363     -60.504117      61.593255       0.001928       8.866668      12.250000
          241.3      30.427795    1051.550000     -19.621621       0.000869    5006.251836    7741.142461     -59.867165      61.538454       0.001860       8.867133      12.250000
          241.4      30.481438    1052.500000     -19.702789       0.000869    4912.409160    7090.982656     -59.257940      61.634055       0.001866       8.866874      12.250000
          241.5      30.611329    1052.500000     -21.845383       0.000869    4890.044629    6293.409492     -58.656164      61.583860       0.001889       8.866530      12.250000
          241.6      30.548310    1049.500000      -8.210152       0.000869    4946.030957    5758.515723     -58.079984      60.954565       0.002107       8.866773      12.250000
          241.7      30.453900    1037.300000       6.318392       0.000869    5126.095098    5536.816895     -57.565106      60.300306       0.002397       8.867809      12.250000
          241.8      30.421097    1028.450000      33.899660       0.000869    5445.901562    5607.137246     -57.099624      60.319972       0.002867       8.867963      12.250000
          241.9      30.507060    1033.500000      36.898390       0.000869    5741.877246    5920.020508     -56.653307      60.476080       0.003505       8.867137      12.250000
          242.0      30.488728    1053.400000       4.690948       0.000869    5899.370176    6214.318223     -56.204644      61.012990       0.004160       8.864736      12.250000
          242.1      30.405732    1056.250000      -3.395126       0.000869    5946.219727    6211.292090     -55.742221      60.600123       0.003981       8.863218      12.250000
          242.2      30.406435    1056.250000     -19.517445       0.000869    5832.788281    6134.381582     -55.271022      60.731000       0.003394       8.862038      12.250000
          242.3      30.512060    1056.550000     -31.612710       0.000869    5562.400293    6246.619434     -54.806593      59.738869       0.002702       8.861762      12.250000
          242.4      30.478368    1057.500000       7.215773       0.000869    5348.666523    6481.464316     -54.384760      58.778963       0.002358       8.861161      12.250000
          242.5      30.485196    1057.800000      16.371041       0.000869    5277.482480    6851.357344     -54.025431      56.488270       0.002112       8.859679      12.250000
          242.6      30.458164    1058.450000     -18.056541       0.000869    5188.982520    7380.423516     -53.717819      54.862796       0.002404       8.858053      12.250000
          242.7      30.475330    1056.900000      -8.653864       0.000869    5022.395547    7715.521191     -53.451381      52.561524       0.003659       8.857016      12.250000
          242.8      30.510276    1054.700000      23.727866       0.000869    4826.768906    7629.680645     -53.216014      50.425279       0.006461       8.857510      12.250000
          242.9      30.493886    1055.250000      23.686412       0.000869    4581.572656    7378.977734     -52.974341      48.243223       0.010350       8.858397      12.250000
          243.0      30.471487    1057.600000       4.226106       0.000869    4361.840234    7136.512910     -52.690408      47.220765       0.013703       8.859161      12.250000
          243.1      30.539750    1053.600000      -1.843835       0.000869    4279.727910    6914.731797     -52.363999      46.898322       0.014734       8.859278      12.250000
          243.2      30.488736    1063.500000     -18.772041       0.000869    4340.740820    6766.863535     -52.014686      47.337375       0.011831       8.858818      12.250000
          243.3      30.515393    1058.150000     -25.748933       0.000869    4501.498965    6713.847461     -51.667969      48.694549       0.007705       8.858371      12.250000
          243.4      30.514221    1056.550000     -15.712795       0.000869    4672.351563    6667.898770     -51.336526      50.117460       0.004165       8.858413      12.250000
          243.5      30.541525    1057.800000      11.124537       0.000869    4719.884336    6566.692480     -51.038528      51.627497       0.002675       8.859909      12.250000
          243.6      30.477896    1059.050000      29.660725       0.000869    4661.347363    6435.003867     -50.784119      52.164278       0.002132       8.861732      12.250000
          243.7      30.478449    1060.000000       0.013970       0.000869    4605.741309    6266.114766     -50.555215      52.189492       0.002044       8.863168      12.250000
          243.8      30.498922    1060.000000     -50.739544       0.000869    4588.756348    6059.205859     -50.321513      50.666461       0.002045       8.863494      12.250000
          243.9      30.442289    1059.700000     -30.366286       0.000869    4588.756348    5900.443672     -50.083799      48.533522       0.002048       8.863770      12.250000
          244.0      30.493667    1058.450000      31.582349       0.000869    4592.344395    5810.908594     -49.848985      45.593511       0.002383       8.864571      12.250000
          244.1      30.485998    1057.200000     -23.896229       0.000869    4614.366387    5727.893574     -49.604959      43.569016       0.002510       8.865607      12.250000
          244.2      30.499515    1056.250000     -44.986916       0.000869    4658.885879    5696.616836     -49.363193      42.713477       0.002471       8.867655      12.250000
          244.3      30.515303    1055.350000       3.020295       0.000869    4696.638047    5777.708438     -49.128197      43.606849       0.002072       8.870329      12.250000
          244.4      30.488897    1051.900000     -20.229589       0.000869    4708.253691    5951.144043     -48.894004      44.989074       0.001970       8.873084      12.250000
