~Version Information
VERS .            2.00                          : CWLS Log ASCII Standard - Version 2.00
WRAP .            NO                            : One line per depth step
#
~Well Information
#MNEM.UNIT        DATA                          : DESCRIPTION
#----.----        ----                          : -----------
STRT .M            240.0                        : Start
STOP .M           1229.6                        : Stop
STEP .M              0.1                        : Step increment
NULL .            -999.250                      : Null value
COMP .            S.N.G.N. ROMGAZ S.A.          : Company
WELL .            209 NADES                     : Well
FLD  .            NADES                         : Field
PROV .            MURES                         : Province
CTRY .            Romania                       : State / Country
LOC  .            X = 529925.187 m              : Location
LOC2 .            Y = 477271.675 m              : Location 2
SRVC .            Weatherford                   : Service company
UWI  .                                          : Unique Well ID
LATI .            46 16'07.03" N                : Latitude
LONG .            24 42'12.69" E                : Longitude
UTME .                                          : Universal Transverse Mercator Easting
UTMN .                                          : Universal Transverse Mercator Northing
X    .                                          : X
Y    .                                          : Y
DATE .            04-Sep-2024                   : Logging Date
#
~Curve Information
#MNEM.UNIT        API CODES                     : CURVE DESCRIPTION
#----.----        ---------                     : -----------------
DEPT .M           00 001 00 00                  : Logged depth
CGXT .DEGC        30 660 01 00                  : MCG External Temperature
SMTU .LB          30 635 00 00                  : DST Uphole Tension
CCLG .----        30 150 00 00                  : Casing Collar Locator
DSLL .OHMM        11 220 09 00                  : Shallow Laterolog
DDLL .OHMM        11 220 10 00                  : Deep Laterolog
DGLL .OHMM        11 211 00 00                  : Groningen Laterolog
SPDL .MV          30 010 00 00                  : Spontaneous Potential
GRGM .GAPI        30 310 01 00                  : MGS Gamma Ray
MRRS .OHMM        15 252 00 00                  : MicroRes Resistance (S)
MATC .IN          15 280 01 00                  : MMR Caliper
BIT  .IN          70 282 00 00                  : Bit size
#
~Parameter Information
#MNEM.UNIT        VALUE                         : DESCRIPTION
#----.----        -----                         : -----------
RNID .                                          : Run ID
SON  .            24220368                      : Job Number
DREF .            KB                            : Depth reference
EREF .M            484.710                      : Elevation of depth reference
GL   .M            480.210                      : Ground elevation
KB   .M            484.710                      : Kelly Bushing
DF   .M            484.710                      : Drill Floor
DDRF .            KB                            : Drilling Depth Reference
DERF .M            484.710                      : Elevation of Drilling Depth Reference
RUN  .            2A+2B                         : Run number
TDD  .M           1225.000                      : TD (driller)
TDL  .M           1226.000                      : TD (logger)
BS   .IN             8.500                      : Bit size
TIMC .                                          : Time circulation ended
TIML .                                          : Time logger at bottom
UNIT .            13347                         : Equipment ID
BASE .            PLO                           : Equipment base location
ENG  .            MALEA CRISTIAN                : Recording engineer
WIT  .            VASILE FARCAS                 : Witnessed by
CSGT .            SURFACE                       : Casing type
CSGS .IN            16.000                      : Casing size
CSGW .LB/FT          0.000                      : Casing weight
CSGD .M            250.000                      : Casing bottom (driller)
CSGL .M            249.500                      : Casing bottom (logger)
CSUP .M              0.000                      : Casing Stick Up GL
MUD  .            INHIBITIV                     : Mud type
MUDS .            FLOWLINE                      : Mud sample source
MUDD .G/C3           1.100                      : Mud density
MUDV .SEC/L         50.000                      : Mud viscosity
PH   .               9.500                      : Mud pH
FL   .ML/30MIN       4.100                      : Mud fluid loss rate
RM   .OHMM           0.150                      : Mud resistivity
RMT  .DEGC          25.000                      : Mud sample temperature
RMF  .OHMM           0.120                      : Mud filtrate resistivity
RMFT .DEGC          25.000                      : Mud filtrate sample temperature
RMC  .OHMM           0.180                      : Mud cake resistivity
RMCT .DEGC          25.000                      : Mud cake sample temperature
RMBT .OHMM           0.110                      : Mud Resistivity at BHT
BHT  .DEGC          39.000                      : Bottom Hole Temperature
TMAX .DEGC          39.000                      : Max recorded temperature
#
~Other Information
------------------------------------------------------------------------------------------------
Clients intervals and scales logged
Acquisition software: Weatherford Well Manager, version 24.03.1279
Cable used: CAMESA  size 15/32", type 7J46RXZ with  cable head and 8k weakpoint set
Depth wheel calibration factor used 0.6096
Depth Control Procedure for Multiple runs in the well followed.
Run2A: CBHC, MTAK, MBE, MBE, SHA, MCG, MBN, MTC-Y, MSS, MTC-X, SKJ, MUG, MLE, MLG, MTI, MGS,HFS 
Run2B: CBHC, MTAK, SHA, MCG, SKJ, MMR, MDN, MPD, HFS
Run2C: CBHC, MTAK, SHA, MCG, MISD, SKJ, MISE, SKJ, MISD, MSS, MISD, HFS logged in combination.
 Rm, Rmf, Rmc measured on samples from Mud Engineer given on 04.09.2024
Caliper measurements and averages from TD to casing:
   Total hole volume =  35.32 cubic meters
   Annular volume = 20.52 cubic meters, based on future casing size of 5.5 inches
   Average hole diameter = 8.49 inches (215.77 mm), based on XY caliper
------------------------------------------------------------------------------------------------
#
#          DEPT           CGXT           SMTU           CCLG           DSLL           DDLL           DGLL           SPDL           GRGM           MRRS           MATC            BIT
#
~ASCII Log Data
# ...
          303.0      30.617484    1070.000000       0.458356      11.105536      16.252740      15.622511     -37.232105      71.749778       0.849684       8.481153       8.500000
          303.1      30.541463    1069.700000       0.922621      11.464086      16.760720      16.109991     -36.388190      71.128342       0.834698       8.478370       8.500000
          303.2      30.563653    1068.750000      -1.437453      11.838758      17.262776      16.590612     -35.686538      70.915303       0.841241       8.476381       8.500000
          303.3      30.588133    1068.450000      -0.755772      12.236521      17.806619      17.110531     -35.180498      69.519886       0.882694       8.475851       8.500000
          303.4      30.537270    1067.500000       1.217660      12.664703      18.449372      17.725065     -34.722990      68.242543       0.952365       8.475773       8.500000
          303.5      30.652754    1067.500000       0.816464      13.077658      19.125147      18.371627     -34.203722      65.858317       1.031581       8.476143       8.500000
          303.6      30.595466    1068.100000       0.623513      13.440915      19.787563      19.005911     -33.796419      63.722021       1.108363       8.476975       8.500000
          303.7      30.565916    1071.200000       0.945676      13.781047      20.489732      19.679337     -33.563030      62.021157       1.158160       8.475720       8.500000
          303.8      30.572503    1075.600000      -1.388919      14.113851      21.265534      20.427035     -33.689649      61.713511       1.179863       8.472531       8.500000
          303.9      30.526707    1078.100000      -1.505461      14.436855      22.092123      21.230632     -34.189257      62.310308       1.175105       8.469732       8.500000
          304.0      30.599678    1080.000000       2.860770      14.779791      22.957117      22.077012     -34.936445      63.109252       1.164737       8.470611       8.500000
          304.1      30.591016    1080.300000      -0.930453      15.149646      23.819999      22.922100     -35.755135      63.228195       1.139395       8.471639       8.500000
          304.2      30.589082    1081.250000      -2.903595      15.497773      24.616253      23.702110     -36.504236      62.901618       1.105148       8.467428       8.500000
          304.3      30.584107    1081.250000       1.464832      15.790962      25.354372      24.424987     -37.092659      63.657690       1.071659       8.460109       8.500000
          304.4      30.623177    1081.250000       1.250122      16.048547      26.138685      25.187970     -37.628527      64.909896       1.047207       8.454192       8.500000
          304.5      30.569161    1081.250000       2.013784      16.315339      27.086697      26.106017     -38.684438      65.854081       1.040002       8.451704       8.500000
          304.6      30.610713    1081.550000       1.236486      16.622971      28.251231      27.237583     -40.181255      65.819696       1.045803       8.448678       8.500000
          304.7      30.606170    1082.200000      -1.770270      16.968674      29.579314      28.531467     -41.608829      65.934791       1.055904       8.445650       8.500000
          304.8      30.564837    1081.250000      -0.967837      17.319342      30.884382      29.800566     -43.039836      65.029925       1.041975       8.444779       8.500000
          304.9      30.512466    1080.950000      -1.010811      17.618933      31.935048      30.817319     -44.293559      63.742328       1.008719       8.448993       8.500000
          305.0      30.560132    1080.000000      -2.717749      17.803911      32.579639      31.434955     -45.232747      62.272528       0.965082       8.455476       8.500000
          305.1      30.587261    1080.000000      -1.930899      17.843968      32.802280      31.639573     -46.116259      61.303001       0.923850       8.461731       8.500000
          305.2      30.579060    1080.300000       0.954344      17.761461      32.688336      31.516603     -46.975537      60.807195       0.887975       8.464546       8.500000
          305.3      30.559077    1081.250000       2.701761      17.602142      32.321461      31.150355     -47.764424      61.490367       0.861732       8.463934       8.500000
          305.4      30.636536    1081.550000       0.130724      17.398556      31.750885      30.591716     -48.706545      63.028200       0.844815       8.461311       8.500000
          305.5      30.629421    1082.500000       0.015560      17.164453      31.008855      29.871611     -49.489346      64.524069       0.833688       8.457579       8.500000
          305.6      30.584050    1082.200000       1.170133      16.894459      30.057208      28.949354     -50.062899      65.183716       0.826522       8.453442       8.500000
          305.7      30.558662    1080.950000      -1.748583      16.549897      28.846198      27.777734     -50.994944      65.091346       0.822675       8.447748       8.500000
          305.8      30.523448    1079.700000      -1.901106      16.050105      27.303586      26.291125     -52.073604      64.164571       0.823892       8.442627       8.500000
          305.9      30.581516    1078.750000       0.425556      15.302875      25.340520      24.402730     -53.035855      62.332281       0.828347       8.439667       8.500000
          306.0      30.637621    1078.450000       1.733012      14.276977      22.990174      22.141740     -54.080208      60.120493       0.835293       8.441882       8.500000
          306.1      30.600448    1077.200000       2.909856      13.051642      20.453422      19.701755     -55.220141      58.856508       0.841225       8.447794       8.500000
          306.2      30.634923    1076.250000       2.220168      11.801610      18.071814      17.410731     -56.384617      59.091611       0.842960       8.455065       8.500000
          306.3      30.596287    1076.250000      -2.276072      10.699683      16.120101      15.530660     -57.670236      60.171380       0.839944       8.461732       8.500000
          306.4      30.578194    1075.950000      -1.618586       9.836548      14.678465      14.139134     -59.159205      61.723743       0.836727       8.466751       8.500000
          306.5      30.546749    1074.400000       2.382450       9.239831      13.734674      13.225378     -60.973186      64.512210       0.844221       8.470077       8.500000
          306.6      30.599243    1072.500000       2.514209       8.902514      13.225657      12.727767     -62.882252      70.454635       0.883046       8.470246       8.500000
          306.7      30.544924    1072.500000      -0.575845       8.772659      12.973373      12.475579     -64.693792      78.631188       0.975161       8.466481       8.500000
          306.8      30.529560    1072.500000      -1.645690       8.767256      12.795916      12.297682     -66.621347      87.481870       1.133617       8.461401       8.500000
          306.9      30.505971    1072.200000       0.092433       8.813206      12.619682      12.125943     -68.723345      96.713517       1.348651       8.456512       8.500000
          307.0      30.534747    1070.950000      -0.367568       8.863259      12.402833      11.917907     -70.824253     105.751808       1.579488       8.451113       8.500000
          307.1      30.537463    1070.000000      -0.458379       8.868961      12.109665      11.637042     -72.593316     112.224539       1.737712       8.444663       8.500000
          307.2      30.541095    1070.600000      -1.774665       8.770726      11.717610      11.261674     -74.085316     115.442763       1.756150       8.437633       8.500000
          307.3      30.564648    1073.100000       0.257120       8.541046      11.201689      10.766045     -75.439624     117.210008       1.648062       8.428678       8.500000
          307.4      30.559855    1075.900000       1.557923       8.217102      10.616847      10.201132     -76.439554     117.512385       1.524054       8.418561       8.500000
