~Version Information
VERS .            2.00                          : CWLS Log ASCII Standard - Version 2.00
WRAP .            NO                            : One line per depth step
#
~Well Information
#MNEM.UNIT        DATA                          : DESCRIPTION
#----.----        ----                          : -----------
STRT .M            240.0                        : Start
STOP .M           1228.5                        : Stop
STEP .M              0.1                        : Step increment
NULL .            -999.250                      : Null value
COMP .            S.N.G.N. ROMGAZ S.A.          : Company
WELL .            209 NADES                     : Well
FLD  .            NADES                         : Field
PROV .            MURES                         : Province
CTRY .            Romania                       : State / Country
LOC  .            X = 529925.187 m              : Location
LOC2 .            Y = 477271.675 m              : Location 2
SRVC .            Weatherford                   : Service company
UWI  .                                          : Unique Well ID
LATI .            46 16'07.03" N                : Latitude
LONG .            24 42'12.69" E                : Longitude
UTME .                                          : Universal Transverse Mercator Easting
UTMN .                                          : Universal Transverse Mercator Northing
X    .                                          : X
Y    .                                          : Y
DATE .            04-Sep-2024                   : Logging Date
#
~Curve Information
#MNEM.UNIT        API CODES                     : CURVE DESCRIPTION
#----.----        ---------                     : -----------------
DEPT .M           00 001 00 00                  : Logged depth
CGXT .DEGC        30 660 01 00                  : MCG External Temperature
SMTU .LB          30 635 00 00                  : DST Uphole Tension
GRGC .GAPI        30 310 01 00                  : MCG Gamma Ray
CCLG .----        30 150 00 00                  : Casing Collar Locator
TR21 .US          60 520 30 00                  : 3' Transit Time
TR11 .US          60 520 04 00                  : 4' Transit Time
TR22 .US          60 520 50 00                  : 5' Transit Time
TR12 .US          60 520 60 00                  : 6' Transit Time
DT35 .US/F        60 520 32 00                  : 3-5' Compensated Sonic
BIT  .IN          70 282 00 00                  : Bit size
#
~Parameter Information
#MNEM.UNIT        VALUE                         : DESCRIPTION
#----.----        -----                         : -----------
RNID .                                          : Run ID
SON  .            24220368                      : Job Number
DREF .            KB                            : Depth reference
EREF .M            484.710                      : Elevation of depth reference
GL   .M            480.210                      : Ground elevation
KB   .M            484.710                      : Kelly Bushing
DF   .M            484.710                      : Drill Floor
DDRF .            KB                            : Drilling Depth Reference
DERF .M            484.710                      : Elevation of Drilling Depth Reference
RUN  .            2A+2B                         : Run number
TDD  .M           1225.000                      : TD (driller)
TDL  .M           1226.000                      : TD (logger)
BS   .IN             8.500                      : Bit size
TIMC .                                          : Time circulation ended
TIML .                                          : Time logger at bottom
UNIT .            13347                         : Equipment ID
BASE .            PLO                           : Equipment base location
ENG  .            MALEA CRISTIAN                : Recording engineer
WIT  .            VASILE FARCAS                 : Witnessed by
CSGT .            SURFACE                       : Casing type
CSGS .IN            16.000                      : Casing size
CSGW .LB/FT          0.000                      : Casing weight
CSGD .M            250.000                      : Casing bottom (driller)
CSGL .M            249.500                      : Casing bottom (logger)
CSUP .M              0.000                      : Casing Stick Up GL
MUD  .            INHIBITIV                     : Mud type
MUDS .            FLOWLINE                      : Mud sample source
MUDD .G/C3           1.100                      : Mud density
MUDV .SEC/L         50.000                      : Mud viscosity
PH   .               9.500                      : Mud pH
FL   .ML/30MIN       4.100                      : Mud fluid loss rate
RM   .OHMM           0.150                      : Mud resistivity
RMT  .DEGC          25.000                      : Mud sample temperature
RMF  .OHMM           0.120                      : Mud filtrate resistivity
RMFT .DEGC          25.000                      : Mud filtrate sample temperature
RMC  .OHMM           0.180                      : Mud cake resistivity
RMCT .DEGC          25.000                      : Mud cake sample temperature
RMBT .OHMM           0.110                      : Mud Resistivity at BHT
BHT  .DEGC          39.000                      : Bottom Hole Temperature
TMAX .DEGC          39.000                      : Max recorded temperature
#
~Other Information
------------------------------------------------------------------------------------------------
Clients intervals and scales logged
Acquisition software: Weatherford Well Manager, version 24.03.1279
Cable used: CAMESA  size 15/32", type 7J46RXZ with  cable head and 8k weakpoint set
Depth wheel calibration factor used 0.6096
Depth Control Procedure for Multiple runs in the well followed.
Run2A: CBHC, MTAK, MBE, MBE, SHA, MCG, MBN, MTC-Y, MSS, MTC-X, SKJ, MUG, MLE, MLG, MTI, MGS,HFS 
Run2B: CBHC, MTAK, SHA, MCG, SKJ, MMR, MDN, MPD, HFS
Run2C: CBHC, MTAK, SHA, MCG, MISD, SKJ, MISE, SKJ, MISD, MSS, MISD, HFS logged in combination.
 Rm, Rmf, Rmc measured on samples from Mud Engineer given on 04.09.2024
Caliper measurements and averages from TD to casing:
   Total hole volume =  35.32 cubic meters
   Annular volume = 20.52 cubic meters, based on future casing size of 5.5 inches
   Average hole diameter = 8.49 inches (215.77 mm), based on XY caliper
------------------------------------------------------------------------------------------------
#
#          DEPT           CGXT           SMTU           GRGC           CCLG           TR21           TR11           TR22           TR12           DT35            BIT
#
~ASCII Log Data
# ...
         1141.6      38.639332    1872.499878     124.583908       7.243934     428.750885     528.750854     627.853271     726.750854     101.496826       8.500000
         1141.7      38.594925    1874.999878     120.070801      -6.182431     428.750885     529.750854     628.750854     725.087158     101.622726       8.500000
         1141.8      38.580944    1872.499878     114.529907       2.602240     428.750885     529.750854     628.750854     724.750854     101.703354       8.500000
         1141.9      38.641537    1869.999878     110.205795      -0.545164     427.750885     529.750854     627.000427     724.819641     101.613945       8.500000
         1142.0      38.498299    1871.249878     108.138763      -0.178468     424.982758     527.750854     625.867493     724.966797     101.270882       8.500000
         1142.1      38.824093    1871.249878     109.395599      15.220839     427.750885     525.032410     624.924927     724.944824     100.718872       8.500000
         1142.2      38.471054    1872.499878     110.645836      -4.460000     425.750885     522.750854     623.750854     724.750854     100.042168       8.500000
         1142.3      38.840336    1872.499878     113.216095     -16.658558     419.841522     524.760742     621.750854     722.982422      99.315384       8.500000
         1142.4      38.874729    1872.499878     114.927467       5.719549     418.750885     522.911255     622.899292     722.087402      98.637970       8.500000
         1142.5      38.607979    1871.249878     116.306786       7.604505     418.750885     518.750854     622.750854     719.942078      98.118210       8.500000
         1142.6      38.581570    1869.999878     116.364113      -7.212883     418.869751     516.750854     617.750854     721.906799      97.834938       8.500000
         1142.7      38.832615    1871.249878     115.998405      -0.048365     418.750885     516.929749     615.750854     720.750854      97.764404       8.500000
         1142.8      38.723114    1871.249878     117.188263      -0.172252     418.750885     517.750854     615.750854     714.750854      97.835289       8.500000
         1142.9      38.724663    1871.249878     117.582291      -0.496140     417.897186     517.750854     614.945557     710.750854      97.991600       8.500000
         1143.0      38.741055    1871.249878     117.903740       9.033783     419.750885     516.750854     612.750854     711.750854      98.141884       8.500000
         1143.1      38.645828    1872.499878     116.711624       4.273334     420.750885     515.750854     612.750854     711.750854      98.193077       8.500000
         1143.2      38.615997    1873.749878     116.566551      -1.714865     419.750885     514.750854     612.750854     710.854187      98.091240       8.500000
         1143.3      38.809399    1874.999878     114.284782       1.831982     417.750885     515.786499     613.750854     710.112549      97.855148       8.500000
         1143.4      38.680611    1877.499878     112.771126      -1.325675     417.750885     515.750854     613.810608     709.817139      97.529716       8.500000
         1143.5      38.810261    1874.999878     111.945549      -7.598649     417.750885     515.750854     613.753601     710.750854      97.213730       8.500000
         1143.6      38.751488    1871.249878     113.185310      -3.135136     416.750885     515.750854     613.750854     711.028381      96.974030       8.500000
         1143.7      38.743023    1872.499878     114.286652       8.882433     417.750885     514.899475     613.750854     710.750854      96.894089       8.500000
         1143.8      38.650509    1873.749878     115.682877      -5.305856     417.750885     514.750854     612.750854     710.750854      97.004486       8.500000
         1143.9      38.746750    1873.749878     115.713493      -6.908460     416.750885     515.750854     612.750854     709.750854      97.238914       8.500000
         1144.0      38.767075    1869.999878     116.128174       1.130180     417.750885     514.750854     611.750854     709.036377      97.506668       8.500000
         1144.1      38.601570    1869.999878     115.412491       1.872694     418.750885     514.750854     611.750854     709.064148      97.725967       8.500000
         1144.2      38.578888    1869.999878     115.432701       1.695946     418.750885     514.036133     611.750854     710.027832      97.845490       8.500000
         1144.3      38.625683    1882.499878     115.523201      -5.540000     417.750885     514.939453     612.819824     709.750854      97.827530       8.500000
         1144.4      38.737480    1868.749878     114.978630       6.932432     417.750885     515.750854     612.786499     710.750854      97.710579       8.500000
         1144.5      38.660671    1868.749878     113.196907       7.706667     417.903900     516.750854     614.750854     711.750854      97.578079       8.500000
         1144.6      38.615101    1879.999878     112.313499       0.088108     418.750885     515.750854     614.917053     712.772766      97.480988       8.500000
         1144.7      38.782215    1897.499878     113.516846      -3.093333     417.750885     516.750854     615.750854     713.750854      97.487061       8.500000
         1144.8      38.790680    1874.999878     115.679207       0.880001     417.750885     516.750854     615.863464     713.836060      97.586479       8.500000
         1144.9      38.751221    1871.249878     117.890747       2.611081     418.750885     516.797852     616.750854     713.859741      97.784195       8.500000
         1145.0      38.677273    1869.999878     119.250824      -1.753334     418.750885     517.011902     616.750854     713.897278      97.975540       8.500000
         1145.1      38.793751    1869.999878     120.889885      -0.337838     419.772949     517.750854     615.915222     713.961609      98.162666       8.500000
         1145.2      38.729046    1871.249878     120.378639      -2.506666     420.750885     517.921265     615.834106     715.750854      98.309364       8.500000
         1145.3      38.741592    1872.499878     118.688271       0.226757     420.783356     518.750854     616.827454     716.750854      98.391281       8.500000
         1145.4      38.743290    1871.249878     118.496986       2.386486     420.750885     518.750854     619.750854     716.750854      98.382248       8.500000
         1145.5      38.806149    1869.999878     119.481056      -0.111892     420.750885     519.750854     620.750854     716.110718      98.291176       8.500000
         1145.6      38.791306    1869.999878     119.257858       0.331081     421.750885     521.750854     619.750854     716.750854      98.224617       8.500000
         1145.7      38.768387    1891.249878     117.122871      -0.141892     423.750885     521.750854     618.758301     716.750854      98.193626       8.500000
         1145.8      38.696079    1894.999878     115.452988      -5.662163     423.750885     520.884827     618.809631     716.943848      98.282173       8.500000
         1145.9      38.827579    1874.999878     114.337646       2.362551     423.750885     520.750854     618.919800     717.750854      98.429619       8.500000
         1146.0      38.758701    1876.249878     113.861214       5.707608     422.750885     520.750854     619.750854     717.112305      98.673729       8.500000
         1146.1      38.720818    1876.249878     113.966171      -2.720659     422.750885     520.750854     619.750854     716.980225      98.867897       8.500000
         1146.2      38.721237    1871.249878     115.884148       1.396987     422.764008     520.750854     619.750854     716.935486      98.988373       8.500000
         1146.3      38.858368    1868.749878     117.915970       3.412162     424.750885     520.750854     619.750854     716.750854      98.972580       8.500000
         1146.4      38.808178    1869.999878     118.831314      -7.178919     424.750885     520.839600     618.750854     715.109863      98.921974       8.500000
