~Version Information
VERS .            2.00                          : CWLS Log ASCII Standard - Version 2.00
WRAP .            NO                            : One line per depth step
#
~Well Information
#MNEM.UNIT        DATA                          : DESCRIPTION
#----.----        ----                          : -----------
STRT .M            240.0                        : Start
STOP .M           1229.6                        : Stop
STEP .M              0.1                        : Step increment
NULL .            -999.250                      : Null value
COMP .            S.N.G.N. ROMGAZ S.A.          : Company
WELL .            209 NADES                     : Well
FLD  .            NADES                         : Field
PROV .            MURES                         : Province
CTRY .            Romania                       : State / Country
LOC  .            X = 529925.187 m              : Location
LOC2 .            Y = 477271.675 m              : Location 2
SRVC .            Weatherford                   : Service company
UWI  .                                          : Unique Well ID
LATI .            46 16'07.03" N                : Latitude
LONG .            24 42'12.69" E                : Longitude
UTME .                                          : Universal Transverse Mercator Easting
UTMN .                                          : Universal Transverse Mercator Northing
X    .                                          : X
Y    .                                          : Y
DATE .            04-Sep-2024                   : Logging Date
#
~Curve Information
#MNEM.UNIT        API CODES                     : CURVE DESCRIPTION
#----.----        ---------                     : -----------------
DEPT .M           00 001 00 00                  : Logged depth
CGXT .DEGC        30 660 01 00                  : MCG External Temperature
SMTU .LB          30 635 00 00                  : DST Uphole Tension
CCLG .----        30 150 00 00                  : Casing Collar Locator
DSLL .OHMM        11 220 09 00                  : Shallow Laterolog
DDLL .OHMM        11 220 10 00                  : Deep Laterolog
DGLL .OHMM        11 211 00 00                  : Groningen Laterolog
SPDL .MV          30 010 00 00                  : Spontaneous Potential
GRGM .GAPI        30 310 01 00                  : MGS Gamma Ray
MRRS .OHMM        15 252 00 00                  : MicroRes Resistance (S)
MATC .IN          15 280 01 00                  : MMR Caliper
BIT  .IN          70 282 00 00                  : Bit size
#
~Parameter Information
#MNEM.UNIT        VALUE                         : DESCRIPTION
#----.----        -----                         : -----------
RNID .                                          : Run ID
SON  .            24220368                      : Job Number
DREF .            KB                            : Depth reference
EREF .M            484.710                      : Elevation of depth reference
GL   .M            480.210                      : Ground elevation
KB   .M            484.710                      : Kelly Bushing
DF   .M            484.710                      : Drill Floor
DDRF .            KB                            : Drilling Depth Reference
DERF .M            484.710                      : Elevation of Drilling Depth Reference
RUN  .            2A+2B                         : Run number
TDD  .M           1225.000                      : TD (driller)
TDL  .M           1226.000                      : TD (logger)
BS   .IN             8.500                      : Bit size
TIMC .                                          : Time circulation ended
TIML .                                          : Time logger at bottom
UNIT .            13347                         : Equipment ID
BASE .            PLO                           : Equipment base location
ENG  .            MALEA CRISTIAN                : Recording engineer
WIT  .            VASILE FARCAS                 : Witnessed by
CSGT .            SURFACE                       : Casing type
CSGS .IN            16.000                      : Casing size
CSGW .LB/FT          0.000                      : Casing weight
CSGD .M            250.000                      : Casing bottom (driller)
CSGL .M            249.500                      : Casing bottom (logger)
CSUP .M              0.000                      : Casing Stick Up GL
MUD  .            INHIBITIV                     : Mud type
MUDS .            FLOWLINE                      : Mud sample source
MUDD .G/C3           1.100                      : Mud density
MUDV .SEC/L         50.000                      : Mud viscosity
PH   .               9.500                      : Mud pH
FL   .ML/30MIN       4.100                      : Mud fluid loss rate
RM   .OHMM           0.150                      : Mud resistivity
RMT  .DEGC          25.000                      : Mud sample temperature
RMF  .OHMM           0.120                      : Mud filtrate resistivity
RMFT .DEGC          25.000                      : Mud filtrate sample temperature
RMC  .OHMM           0.180                      : Mud cake resistivity
RMCT .DEGC          25.000                      : Mud cake sample temperature
RMBT .OHMM           0.110                      : Mud Resistivity at BHT
BHT  .DEGC          39.000                      : Bottom Hole Temperature
TMAX .DEGC          39.000                      : Max recorded temperature
#
~Other Information
------------------------------------------------------------------------------------------------
Clients intervals and scales logged
Acquisition software: Weatherford Well Manager, version 24.03.1279
Cable used: CAMESA  size 15/32", type 7J46RXZ with  cable head and 8k weakpoint set
Depth wheel calibration factor used 0.6096
Depth Control Procedure for Multiple runs in the well followed.
Run2A: CBHC, MTAK, MBE, MBE, SHA, MCG, MBN, MTC-Y, MSS, MTC-X, SKJ, MUG, MLE, MLG, MTI, MGS,HFS 
Run2B: CBHC, MTAK, SHA, MCG, SKJ, MMR, MDN, MPD, HFS
Run2C: CBHC, MTAK, SHA, MCG, MISD, SKJ, MISE, SKJ, MISD, MSS, MISD, HFS logged in combination.
 Rm, Rmf, Rmc measured on samples from Mud Engineer given on 04.09.2024
Caliper measurements and averages from TD to casing:
   Total hole volume =  35.32 cubic meters
   Annular volume = 20.52 cubic meters, based on future casing size of 5.5 inches
   Average hole diameter = 8.49 inches (215.77 mm), based on XY caliper
------------------------------------------------------------------------------------------------
#
#          DEPT           CGXT           SMTU           CCLG           DSLL           DDLL           DGLL           SPDL           GRGM           MRRS           MATC            BIT
#
~ASCII Log Data
# ...
          762.0      35.031360    1544.049878       1.670807       3.207012       3.043319       3.053476    -107.557216     117.952381       2.680920       8.488284       8.500000
          762.1      35.103404    1544.999878      -1.113750       3.038456       2.903247       2.913423    -107.557897     117.300054       2.438608       8.485994       8.500000
          762.2      35.106393    1544.999878       1.542947       2.916310       2.804102       2.812674    -107.552597     115.140072       2.280031       8.485680       8.500000
          762.3      35.138481    1544.999878       0.052880       2.849978       2.750629       2.757812    -107.548889     112.307007       2.236615       8.489097       8.500000
          762.4      35.125310    1545.599878      -4.121965       2.830003       2.730806       2.736997    -107.532513     109.893338       2.270347       8.495614       8.500000
          762.5      35.156082    1547.799878       1.542700       2.837280       2.732097       2.736981    -107.515794     107.239703       2.354235       8.504836       8.500000
          762.6      35.090767    1548.749878       1.876874       2.857655       2.747171       2.752107    -107.505430     106.369826       2.444769       8.513145       8.500000
          762.7      35.032893    1548.749878      -0.943504       2.883471       2.766843       2.774615    -107.497741     107.810284       2.529997       8.520461       8.500000
          762.8      35.133866    1549.049878       0.197061       2.907542       2.784449       2.796066    -107.530603     110.527473       2.645419       8.523810       8.500000
          762.9      35.125879    1549.999878      -0.770237       2.924624       2.797835       2.812245    -107.596317     111.327312       2.761100       8.521749       8.500000
          763.0      35.162420    1549.999878      -0.068390       2.930508       2.801252       2.817021    -107.626607     111.312755       2.847612       8.515275       8.500000
          763.1      35.126325    1549.999878       0.916812       2.919189       2.788028       2.803156    -107.650723     111.375034       2.832569       8.508652       8.500000
          763.2      35.106099    1549.699878       0.825754       2.890862       2.761652       2.773840    -107.682064     112.094236       2.761767       8.504979       8.500000
          763.3      35.131613    1549.049878      -0.654165       2.855494       2.732022       2.740673    -107.673475     112.298098       2.610127       8.502004       8.500000
          763.4      35.173319    1549.999878      -2.352711       2.821349       2.705865       2.712279    -107.648316     113.689309       2.453190       8.500154       8.500000
          763.5      35.183322    1549.399878      -0.016748       2.793410       2.688241       2.694092    -107.647295     114.867170       2.339244       8.499045       8.500000
          763.6      35.110174    1547.199878       1.572581       2.778558       2.684188       2.691062    -107.658208     116.366035       2.332111       8.497027       8.500000
          763.7      35.077780    1546.249878      -2.640122       2.778941       2.692776       2.702137    -107.639782     116.495930       2.368880       8.491892       8.500000
          763.8      35.098326    1546.549878       1.350814       2.786796       2.705257       2.717869    -107.606358     118.173347       2.417590       8.486866       8.500000
          763.9      35.158466    1547.199878       2.775959       2.791836       2.711829       2.727068    -107.608777     119.582800       2.452486       8.484180       8.500000
          764.0      35.067841    1546.249878      -2.206005       2.787871       2.705854       2.722047    -107.621071     121.363696       2.465067       8.483772       8.500000
          764.1      35.165390    1546.249878      -0.689147       2.774236       2.687858       2.704000    -107.589567     121.941603       2.460235       8.483943       8.500000
          764.2      35.111591    1545.949878       2.631626       2.754147       2.664065       2.680047    -107.558813     122.142967       2.441011       8.484297       8.500000
          764.3      35.098806    1544.999878       2.365045       2.731481       2.640054       2.655778    -107.570784     121.189418       2.424885       8.484659       8.500000
          764.4      35.155178    1545.299878       2.614791       2.711677       2.620290       2.636192    -107.553296     120.713979       2.411645       8.484740       8.500000
          764.5      35.128432    1545.949878      -4.517100       2.699495       2.607862       2.624626    -107.488439     122.434224       2.400695       8.484723       8.500000
          764.6      35.164946    1544.999878      -3.143884       2.694692       2.603079       2.620591    -107.446362     124.930251       2.381573       8.484720       8.500000
          764.7      35.199819    1544.699878       1.992724       2.696493       2.605329       2.623315    -107.439624     126.933890       2.378645       8.484706       8.500000
          764.8      35.065380    1543.449878       3.835345       2.705246       2.613459       2.632096    -107.396588     126.541682       2.384833       8.484726       8.500000
          764.9      35.166718    1542.799878       6.415609       2.718493       2.625200       2.644520    -107.306665     125.624976       2.425497       8.484703       8.500000
          765.0      35.097646    1543.449878      -4.039269       2.732244       2.638078       2.658026    -107.275969     123.396255       2.465741       8.484682       8.500000
          765.1      35.233503    1542.199878      -9.716713       2.742872       2.649314       2.670032    -107.256370     120.722069       2.499235       8.484741       8.500000
          765.2      35.271344    1541.249878      -2.968604       2.747505       2.656429       2.677689    -107.184867     118.230873       2.499182       8.484727       8.500000
          765.3      35.194648    1541.249878       6.847320       2.746421       2.659106       2.680329    -107.132352     117.608858       2.474918       8.484715       8.500000
          765.4      35.053020    1541.249878      -0.698473       2.742903       2.659794       2.680682    -107.138998     117.301400       2.432403       8.484672       8.500000
          765.5      35.123108    1540.949878      -4.719352       2.740648       2.661692       2.682339    -107.155929     116.611570       2.398095       8.484711       8.500000
          765.6      35.242650    1539.699878       0.231395       2.742808       2.666103       2.687010    -107.187032     116.373812       2.390835       8.484712       8.500000
          765.7      35.126709    1538.749878       1.822044       2.749801       2.671795       2.693762    -107.241967     117.255193       2.400527       8.484635       8.500000
          765.8      35.149498    1538.749878       1.344143       2.758670       2.676750       2.700061    -107.275658     119.042275       2.421077       8.484487       8.500000
          765.9      35.114175    1538.749878       1.821496       2.765455       2.679347       2.703561    -107.292719     120.095011       2.432377       8.484883       8.500000
          766.0      35.136593    1539.649878      -0.687416       2.766841       2.678234       2.702839    -107.273311     120.994472       2.439086       8.487075       8.500000
          766.1      35.139268    1542.499878      -4.274728       2.761357       2.672655       2.697185    -107.232358     120.610307       2.429272       8.490771       8.500000
          766.2      35.186706    1542.799878       2.777031       2.749093       2.662475       2.686485    -107.186481     118.696550       2.424243       8.493970       8.500000
          766.3      35.101936    1544.049878       0.246303       2.731589       2.649082       2.672474    -107.327040     115.097908       2.438895       8.495471       8.500000
          766.4      35.116224    1544.699878      -3.836305       2.712761       2.635371       2.658451    -107.625280     113.264838       2.457115       8.494751       8.500000
