~Version Information
VERS .            2.00                          : CWLS Log ASCII Standard - Version 2.00
WRAP .            NO                            : One line per depth step
#
~Well Information
#MNEM.UNIT        DATA                          : DESCRIPTION
#----.----        ----                          : -----------
STRT .M            240.0                        : Start
STOP .M           1228.5                        : Stop
STEP .M              0.1                        : Step increment
NULL .            -999.250                      : Null value
COMP .            S.N.G.N. ROMGAZ S.A.          : Company
WELL .            209 NADES                     : Well
FLD  .            NADES                         : Field
PROV .            MURES                         : Province
CTRY .            Romania                       : State / Country
LOC  .            X = 529925.187 m              : Location
LOC2 .            Y = 477271.675 m              : Location 2
SRVC .            Weatherford                   : Service company
UWI  .                                          : Unique Well ID
LATI .            46 16'07.03" N                : Latitude
LONG .            24 42'12.69" E                : Longitude
UTME .                                          : Universal Transverse Mercator Easting
UTMN .                                          : Universal Transverse Mercator Northing
X    .                                          : X
Y    .                                          : Y
DATE .            04-Sep-2024                   : Logging Date
#
~Curve Information
#MNEM.UNIT        API CODES                     : CURVE DESCRIPTION
#----.----        ---------                     : -----------------
DEPT .M           00 001 00 00                  : Logged depth
CGXT .DEGC        30 660 01 00                  : MCG External Temperature
SMTU .LB          30 635 00 00                  : DST Uphole Tension
GRGC .GAPI        30 310 01 00                  : MCG Gamma Ray
CCLG .----        30 150 00 00                  : Casing Collar Locator
TR21 .US          60 520 30 00                  : 3' Transit Time
TR11 .US          60 520 04 00                  : 4' Transit Time
TR22 .US          60 520 50 00                  : 5' Transit Time
TR12 .US          60 520 60 00                  : 6' Transit Time
DT35 .US/F        60 520 32 00                  : 3-5' Compensated Sonic
BIT  .IN          70 282 00 00                  : Bit size
#
~Parameter Information
#MNEM.UNIT        VALUE                         : DESCRIPTION
#----.----        -----                         : -----------
RNID .                                          : Run ID
SON  .            24220368                      : Job Number
DREF .            KB                            : Depth reference
EREF .M            484.710                      : Elevation of depth reference
GL   .M            480.210                      : Ground elevation
KB   .M            484.710                      : Kelly Bushing
DF   .M            484.710                      : Drill Floor
DDRF .            KB                            : Drilling Depth Reference
DERF .M            484.710                      : Elevation of Drilling Depth Reference
RUN  .            2A+2B                         : Run number
TDD  .M           1225.000                      : TD (driller)
TDL  .M           1226.000                      : TD (logger)
BS   .IN             8.500                      : Bit size
TIMC .                                          : Time circulation ended
TIML .                                          : Time logger at bottom
UNIT .            13347                         : Equipment ID
BASE .            PLO                           : Equipment base location
ENG  .            MALEA CRISTIAN                : Recording engineer
WIT  .            VASILE FARCAS                 : Witnessed by
CSGT .            SURFACE                       : Casing type
CSGS .IN            16.000                      : Casing size
CSGW .LB/FT          0.000                      : Casing weight
CSGD .M            250.000                      : Casing bottom (driller)
CSGL .M            249.500                      : Casing bottom (logger)
CSUP .M              0.000                      : Casing Stick Up GL
MUD  .            INHIBITIV                     : Mud type
MUDS .            FLOWLINE                      : Mud sample source
MUDD .G/C3           1.100                      : Mud density
MUDV .SEC/L         50.000                      : Mud viscosity
PH   .               9.500                      : Mud pH
FL   .ML/30MIN       4.100                      : Mud fluid loss rate
RM   .OHMM           0.150                      : Mud resistivity
RMT  .DEGC          25.000                      : Mud sample temperature
RMF  .OHMM           0.120                      : Mud filtrate resistivity
RMFT .DEGC          25.000                      : Mud filtrate sample temperature
RMC  .OHMM           0.180                      : Mud cake resistivity
RMCT .DEGC          25.000                      : Mud cake sample temperature
RMBT .OHMM           0.110                      : Mud Resistivity at BHT
BHT  .DEGC          39.000                      : Bottom Hole Temperature
TMAX .DEGC          39.000                      : Max recorded temperature
#
~Other Information
------------------------------------------------------------------------------------------------
Clients intervals and scales logged
Acquisition software: Weatherford Well Manager, version 24.03.1279
Cable used: CAMESA  size 15/32", type 7J46RXZ with  cable head and 8k weakpoint set
Depth wheel calibration factor used 0.6096
Depth Control Procedure for Multiple runs in the well followed.
Run2A: CBHC, MTAK, MBE, MBE, SHA, MCG, MBN, MTC-Y, MSS, MTC-X, SKJ, MUG, MLE, MLG, MTI, MGS,HFS 
Run2B: CBHC, MTAK, SHA, MCG, SKJ, MMR, MDN, MPD, HFS
Run2C: CBHC, MTAK, SHA, MCG, MISD, SKJ, MISE, SKJ, MISD, MSS, MISD, HFS logged in combination.
 Rm, Rmf, Rmc measured on samples from Mud Engineer given on 04.09.2024
Caliper measurements and averages from TD to casing:
   Total hole volume =  35.32 cubic meters
   Annular volume = 20.52 cubic meters, based on future casing size of 5.5 inches
   Average hole diameter = 8.49 inches (215.77 mm), based on XY caliper
------------------------------------------------------------------------------------------------
#
#          DEPT           CGXT           SMTU           GRGC           CCLG           TR21           TR11           TR22           TR12           DT35            BIT
#
~ASCII Log Data
# ...
          431.1      31.645275    1205.000000     101.937210      -0.691021     492.750885     609.750854     731.750854     854.750854     124.315224       8.500000
          431.2      31.602715    1205.000000     102.224884      -0.063783     489.750885     610.750854     731.750854     854.750854     123.565666       8.500000
          431.3      31.615620    1203.750000     103.238686       2.152778     493.774628     610.750854     732.750854     855.750854     122.443192       8.500000
          431.4      31.589600    1202.500000     104.160156       1.428069     498.750885     612.750854     733.750854     854.750854     121.485687       8.500000
          431.5      31.641520    1201.250000     105.359879      -2.236404     493.750885     616.807007     734.844482     850.372192     121.088211       8.500000
          431.6      31.594965    1200.000000     105.432335      -0.822435     489.750885     622.750854     733.750854     850.962830     121.253860       8.500000
          431.7      31.536398    1200.000000     104.580292       2.305849     488.893372     616.750854     737.887878     852.141785     121.740669       8.500000
          431.8      31.678568    1200.000000     104.132416       1.874022     491.750885     607.080017     734.750854     856.220093     122.210777       8.500000
          431.9      31.608675    1200.000000     105.155006      -0.326976     487.796417     607.034302     730.750854     861.804993     122.300636       8.500000
          432.0      31.576487    1200.000000     105.809273       0.250000     485.750885     610.750854     729.782898     857.019409     121.980003       8.500000
          432.1      31.626259    1200.000000     104.190941      -1.429578     485.750885     612.753052     731.806519     853.064575     121.449409       8.500000
          432.2      31.621611    1200.000000     101.488106       0.059076     485.750885     611.750854     734.750854     852.750854     121.074760       8.500000
          432.3      31.590017    1200.000000      99.153595       0.680164     484.750885     609.750854     732.993286     854.750854     121.041473       8.500000
          432.4      31.666527    1200.000000      97.842621      -1.788243     482.753876     608.750854     730.772156     856.750854     121.419098       8.500000
          432.5      31.632788    1200.000000      98.733376       0.193075     482.750885     607.750854     729.926758     854.750854     122.018150       8.500000
          432.6      31.678627    1200.000000     100.997673       0.351624     482.936035     605.813171     728.750854     851.943481     122.563210       8.500000
          432.7      31.653830    1200.000000     105.744919      -0.087123     487.750885     605.750854     726.750854     850.983154     122.891586       8.500000
          432.8      31.646139    1200.000000     107.831032       0.252543     487.750885     605.750854     725.750854     850.750854     122.965164       8.500000
          432.9      31.643219    1197.500000     107.997467      -0.914286     485.913025     610.750854     726.750854     848.887207     122.858498       8.500000
          433.0      31.678806    1197.500000     103.222130       1.169992     485.750885     609.750854     730.958252     849.755859     122.650665       8.500000
          433.1      31.644201    1198.750000      99.271362       1.142254     484.750885     608.750854     731.872498     851.099731     122.468979       8.500000
          433.2      31.632578    1200.000000      96.168671      -4.126761     484.750885     608.087402     731.750854     855.798218     122.353874       8.500000
          433.3      31.651505    1202.500000      96.518646      -1.802817     484.750885     608.066589     731.750854     854.750854     122.331612       8.500000
          433.4      31.699251    1201.250000      97.933647       0.415493     484.750885     608.750854     730.750854     852.990112     122.359581       8.500000
          433.5      31.675020    1202.500000     100.391342       3.746675     485.750885     608.070496     729.785950     850.960876     122.468208       8.500000
          433.6      31.689327    1202.500000     101.508446       2.443663     486.750885     607.840332     727.835266     849.836365     122.598663       8.500000
          433.7      31.697285    1202.500000     101.080215      -1.090278     485.750885     608.750854     727.750854     849.008179     122.707039       8.500000
          433.8      31.618004    1202.500000      99.253540      -1.207942     485.750885     607.123779     726.956299     849.043396     122.679375       8.500000
          433.9      31.572641    1205.000000      98.126251      -1.000000     483.750885     606.750854     727.951050     849.750854     122.517212       8.500000
          434.0      31.652994    1206.250000      97.576561       0.304604     483.750885     606.043945     727.786133     850.750854     122.199348       8.500000
          434.1      31.646616    1207.500000      98.499802       0.590082     483.750885     606.750854     727.988037     851.750854     121.883621       8.500000
          434.2      31.667152    1207.500000      97.663773      -1.235160     483.918243     607.750854     728.750854     851.867310     121.635872       8.500000
          434.3      31.664618    1208.750000      97.853378      -0.652582     483.750885     607.938171     729.750854     852.750854     121.612465       8.500000
          434.4      31.628704    1208.750000      96.320702       0.312500     483.775177     608.750854     729.993042     852.750854     121.772255       8.500000
          434.5      31.641937    1208.750000      98.156273      -0.657277     484.750885     608.019043     730.768555     853.750854     122.110115       8.500000
          434.6      31.690489    1208.750000     100.426804       2.361209     485.750885     608.750854     730.019714     854.750854     122.477989       8.500000
          434.7      31.674902    1211.250000     104.418228       1.957747     487.750885     609.018616     730.750854     853.757751     122.825829       8.500000
          434.8      31.687836    1212.500000     106.473656      -1.591549     488.750885     609.929077     730.750854     852.905457     123.088493       8.500000
          434.9      31.757042    1211.250000     108.315521      -2.411581     487.855072     611.750854     731.031677     852.750854     123.255646       8.500000
          435.0      31.674484    1210.000000     107.711601       1.598591     488.750885     611.750854     731.852722     853.750854     123.333847       8.500000
          435.1      31.677494    1210.000000     105.721138       0.375000     487.750885     610.750854     732.892822     853.750854     123.309692       8.500000
          435.2      31.747564    1210.000000     103.577110      -0.035211     487.750885     610.750854     732.750854     851.750854     123.209068       8.500000
          435.3      31.620119    1208.750000     102.912079       0.000000     487.750885     610.750854     729.750854     851.750854     123.007698       8.500000
          435.4      31.652786    1207.500000     103.813347      -2.915493     487.750885     610.815674     727.940491     851.750854     122.703148       8.500000
          435.5      31.597975    1207.500000     105.769997       0.501369     487.750885     608.022583     728.750854     851.750854     122.271095       8.500000
          435.6      31.664827    1207.500000     108.023491       2.165787     484.760620     607.050781     728.750854     850.891724     121.746117       8.500000
          435.7      31.676420    1207.500000     108.705421      -1.661092     483.750885     606.750854     728.750854     851.750854     121.199875       8.500000
          435.8      31.581553    1206.250000     106.940170      -0.672829     482.750885     606.750854     728.750854     851.750854     120.721443       8.500000
          435.9      31.661877    1206.250000     104.698311       2.111111     483.750885     606.750854     727.933044     850.818237     120.425018       8.500000
