~Version Information
VERS .            2.00                          : CWLS Log ASCII Standard - Version 2.00
WRAP .            NO                            : One line per depth step
#
~Well Information
#MNEM.UNIT        DATA                          : DESCRIPTION
#----.----        ----                          : -----------
STRT .M            240.0                        : Start
STOP .M           1227.7                        : Stop
STEP .M              0.1                        : Step increment
NULL .            -999.250                      : Null value
COMP .            S.N.G.N. ROMGAZ S.A.          : Company
WELL .            209 NADES                     : Well
FLD  .            NADES                         : Field
PROV .            MURES                         : Province
CTRY .            Romania                       : State / Country
LOC  .            X = 529925.187 m              : Location
LOC2 .            Y = 477271.675 m              : Location 2
SRVC .            Weatherford                   : Service company
UWI  .                                          : Unique Well ID
LATI .            46 16'07.03" N                : Latitude
LONG .            24 42'12.69" E                : Longitude
UTME .                                          : Universal Transverse Mercator Easting
UTMN .                                          : Universal Transverse Mercator Northing
X    .                                          : X
Y    .                                          : Y
DATE .            04-Sep-2024                   : Logging Date
#
~Curve Information
#MNEM.UNIT        API CODES                     : CURVE DESCRIPTION
#----.----        ---------                     : -----------------
DEPT .M           00 001 00 00                  : Logged depth
CGXT .DEGC        30 660 01 00                  : MCG External Temperature
SMTU .LB          30 635 00 00                  : DST Uphole Tension
GRGC .GAPI        30 310 01 00                  : MCG Gamma Ray
CCLG .----        30 150 00 00                  : Casing Collar Locator
NPRL .PERC        42 890 01 00                  : Limestone Neutron Por.
NPRL .V/V         42 890 01 00                  : Limestone Neutron Por.
CLDC .IN          45 280 01 00                  : Density Caliper
DCOR .G/C3        42 356 01 00                  : Density Correction
DEN  .G/C3        42 350 01 00                  : Compensated Density
PDPE .B/E         45 358 01 00                  : PE
NPOR .PERC        42 890 04 00                  : Base Neutron Porosity
NPOR .V/V         42 890 04 00                  : Base Neutron Porosity
NPRS .PERC        42 890 03 00                  : Sandstone Neutron Por.
NPRS .V/V         42 890 03 00                  : Sandstone Neutron Por.
NPRD .PERC        42 890 02 00                  : Dolomite Neutron Por.
NPRD .V/V         42 890 02 00                  : Dolomite Neutron Por.
DPOR .PERC        45 890 13 00                  : Base Density Porosity
DPOR .V/V         45 890 13 00                  : Base Density Porosity
DPRL .PERC        45 890 10 00                  : Limestone Density Por.
DPRL .V/V         45 890 10 00                  : Limestone Density Por.
DPRS .PERC        45 890 12 00                  : Sandstone Density Por.
DPRS .V/V         45 890 12 00                  : Sandstone Density Por.
DPRD .PERC        45 890 11 00                  : Dolomite Density Por.
DPRD .V/V         45 890 11 00                  : Dolomite Density Por.
HDEN .G/C3        42 350 01 00                  : Vectar Processed Density
BIT  .IN          70 282 00 00                  : Bit size
#
~Parameter Information
#MNEM.UNIT        VALUE                         : DESCRIPTION
#----.----        -----                         : -----------
RNID .                                          : Run ID
SON  .            24220368                      : Job Number
DREF .            KB                            : Depth reference
EREF .M            484.710                      : Elevation of depth reference
GL   .M            480.210                      : Ground elevation
KB   .M            484.710                      : Kelly Bushing
DF   .M            484.710                      : Drill Floor
DDRF .            KB                            : Drilling Depth Reference
DERF .M            484.710                      : Elevation of Drilling Depth Reference
RUN  .            2A+2B                         : Run number
TDD  .M           1225.000                      : TD (driller)
TDL  .M           1226.000                      : TD (logger)
BS   .IN             8.500                      : Bit size
TIMC .                                          : Time circulation ended
TIML .                                          : Time logger at bottom
UNIT .            13347                         : Equipment ID
BASE .            PLO                           : Equipment base location
ENG  .            MALEA CRISTIAN                : Recording engineer
WIT  .            VASILE FARCAS                 : Witnessed by
CSGT .            SURFACE                       : Casing type
CSGS .IN            16.000                      : Casing size
CSGW .LB/FT          0.000                      : Casing weight
CSGD .M            250.000                      : Casing bottom (driller)
CSGL .M            249.500                      : Casing bottom (logger)
CSUP .M              0.000                      : Casing Stick Up GL
MUD  .            INHIBITIV                     : Mud type
MUDS .            FLOWLINE                      : Mud sample source
MUDD .G/C3           1.100                      : Mud density
MUDV .SEC/L         50.000                      : Mud viscosity
PH   .               9.500                      : Mud pH
FL   .ML/30MIN       4.100                      : Mud fluid loss rate
RM   .OHMM           0.150                      : Mud resistivity
RMT  .DEGC          25.000                      : Mud sample temperature
RMF  .OHMM           0.120                      : Mud filtrate resistivity
RMFT .DEGC          25.000                      : Mud filtrate sample temperature
RMC  .OHMM           0.180                      : Mud cake resistivity
RMCT .DEGC          25.000                      : Mud cake sample temperature
RMBT .OHMM           0.110                      : Mud Resistivity at BHT
BHT  .DEGC          39.000                      : Bottom Hole Temperature
TMAX .DEGC          39.000                      : Max recorded temperature
#
~Other Information
------------------------------------------------------------------------------------------------
Clients intervals and scales logged
Acquisition software: Weatherford Well Manager, version 24.03.1279
Cable used: CAMESA  size 15/32", type 7J46RXZ with  cable head and 8k weakpoint set
Depth wheel calibration factor used 0.6096
Depth Control Procedure for Multiple runs in the well followed.
Run2A: CBHC, MTAK, MBE, MBE, SHA, MCG, MBN, MTC-Y, MSS, MTC-X, SKJ, MUG, MLE, MLG, MTI, MGS,HFS 
Run2B: CBHC, MTAK, SHA, MCG, SKJ, MMR, MDN, MPD, HFS
Run2C: CBHC, MTAK, SHA, MCG, MISD, SKJ, MISE, SKJ, MISD, MSS, MISD, HFS logged in combination.
 Rm, Rmf, Rmc measured on samples from Mud Engineer given on 04.09.2024
Caliper measurements and averages from TD to casing:
   Total hole volume =  35.32 cubic meters
   Annular volume = 20.52 cubic meters, based on future casing size of 5.5 inches
   Average hole diameter = 8.49 inches (215.77 mm), based on XY caliper
------------------------------------------------------------------------------------------------
#
#          DEPT           CGXT           SMTU           GRGC           CCLG           NPRL           NPRL           CLDC           DCOR            DEN           PDPE           NPOR           NPOR           NPRS           NPRS           NPRD           NPRD           DPOR           DPOR           DPRL           DPRL           DPRS           DPRS           DPRD           DPRD           HDEN            BIT
#
~ASCII Log Data
# ...
          502.0      31.280600     849.374939     123.020855      -1.853245      38.176830       0.381768       8.437625       0.008032       2.349047       3.296334      36.281576       0.362816      43.144968       0.431450      34.798178       0.347982      21.108387       0.211084      21.108387       0.211084      18.239600       0.182396      27.858471       0.278585       2.349482       8.500000
          502.1      31.216922     848.749939     127.055309      -3.741403      36.624329       0.366243       8.438612       0.008032       2.350114       3.290451      34.809727       0.348097      41.830011       0.418300      33.365055       0.333651      21.045979       0.210460      21.045979       0.210460      18.174924       0.181749      27.801404       0.278014       2.350844       8.500000
          502.2      31.157893     848.749939     129.970764      -0.731403      35.397720       0.353977       8.440001       0.008527       2.354640       3.298987      33.646765       0.336468      40.792343       0.407923      32.232692       0.322327      20.781265       0.207813      20.781265       0.207813      17.900584       0.179006      27.559340       0.275593       2.355294       8.500000
          502.3      31.242122     848.124939     130.638779      -1.895351      34.848476       0.348485       8.442180       0.009167       2.358884       3.317239      33.126598       0.331266      40.329071       0.403291      31.725581       0.317256      20.533129       0.205331      20.533129       0.205331      17.643425       0.176434      27.332434       0.273324       2.359340       8.500000
          502.4      31.304965     846.874939     129.385414      -6.845351      34.905828       0.349058       8.445071       0.009942       2.361997       3.333740      33.182024       0.331820      40.383154       0.403832      31.777783       0.317778      20.351066       0.203511      20.351066       0.203511      17.454741       0.174547      27.165948       0.271659       2.362692       8.500000
          502.5      31.326812     846.249939     127.101887      -3.425351      35.339750       0.353398       8.448398       0.010797       2.363512       3.338778      33.595064       0.335951      40.760435       0.407604      32.176843       0.321768      20.262474       0.202625      20.262474       0.202625      17.362928       0.173629      27.084936       0.270849       2.364073       8.500000
          502.6      31.393023     846.249939     125.257416      11.221316      35.898443       0.358984       8.452161       0.011621       2.363420       3.332976      34.127230       0.341272      41.244421       0.412444      32.690809       0.326908      20.267815       0.202678      20.267815       0.202678      17.368463       0.173685      27.089820       0.270898       2.363285       8.500000
          502.7      31.487742     846.249939     124.957340      10.478422      36.418123       0.364181       8.455191       0.012270       2.362543       3.322639      34.622776       0.346228      41.692400       0.416924      33.169090       0.331691      20.319138       0.203191      20.319138       0.203191      17.421652       0.174217      27.136752       0.271368       2.361640       8.500000
          502.8      31.326558     846.874939     126.327942      -5.208246      36.732901       0.367329       8.454899       0.012793       2.363363       3.315619      34.922764       0.349228      41.962088       0.419621      33.458948       0.334589      20.271154       0.202712      20.271154       0.202712      17.371923       0.173719      27.092874       0.270929       2.362106       8.500000
          502.9      31.097271     848.124939     128.653740     -11.994430      36.865376       0.368654       8.450177       0.013118       2.366252       3.316995      35.047731       0.350477      42.074444       0.420744      33.581057       0.335811      20.102219       0.201022      20.102219       0.201022      17.196844       0.171968      26.938392       0.269384       2.365075       8.500000
          503.0      31.082354     849.374939     130.702278      -9.738728      37.083912       0.370839       8.443734       0.013105       2.369789       3.334085      35.252083       0.352521      42.257404       0.422574      33.783056       0.337831      19.895400       0.198954      19.895400       0.198954      16.982506       0.169825      26.749270       0.267493       2.368820       8.500000
          503.1      31.259542     851.249939     131.377518      -2.284781      37.714281       0.377143       8.439579       0.012895       2.373836       3.350784      35.845528       0.358455      42.782091       0.427821      34.366852       0.343669      19.658710       0.196587      19.658710       0.196587      16.737209       0.167372      26.532832       0.265328       2.373506       8.500000
          503.2      31.463511     853.749939     130.205246      11.733553      38.697956       0.386980       8.438922       0.012560       2.377115       3.345563      36.774496       0.367745      43.600571       0.436006      35.278084       0.352781      19.466945       0.194669      19.466945       0.194669      16.538469       0.165385      26.357473       0.263575       2.377303       8.500000
          503.3      31.573148     856.249939     128.665993       8.776316      39.667408       0.396674       8.440300       0.012301       2.380299       3.312232      37.691904       0.376919      44.409180       0.444092      36.175753       0.361758      19.280755       0.192808      19.280755       0.192808      16.345510       0.163455      26.187215       0.261872       2.380591       8.500000
          503.4      31.501154     856.874939     127.228565      -1.463816      40.286879       0.402869       8.442326       0.011957       2.381758       3.269156      38.279680       0.382797      44.929626       0.449296      36.748514       0.367485      19.195460       0.191955      19.195460       0.191955      16.257114       0.162571      26.109219       0.261092       2.381963       8.500000
          503.5      31.236101     855.624939     125.267433       0.477145      40.332977       0.403330       8.443707       0.011493       2.381256       3.237465      38.324411       0.383244      44.971769       0.449718      36.790457       0.367905      19.224810       0.192248      19.224810       0.192248      16.287531       0.162875      26.136057       0.261361       2.381341       8.500000
          503.6      31.275548     854.374939     123.090546      -2.279434      39.550842       0.395508       8.442314       0.010962       2.379516       3.224267      37.582708       0.375827      44.315161       0.443152      36.067089       0.360671      19.326550       0.193265      19.326550       0.193265      16.392969       0.163930      26.229091       0.262291       2.379823       8.500000
          503.7      31.324144     853.124939     121.989479      -2.323022      38.017916       0.380179       8.438129       0.010632       2.378881       3.226978      36.126740       0.361267      43.020605       0.430206      34.650600       0.346506      19.363679       0.193637      19.363679       0.193637      16.431448       0.164314      26.263042       0.262630       2.379528       8.500000
          503.8      31.350730     851.874939     122.390724       2.926978      36.261913       0.362619       8.433590       0.010462       2.378346       3.233065      34.457375       0.344574      41.527639       0.415276      33.029606       0.330296      19.394952       0.193950      19.394952       0.193950      16.463859       0.164639      26.291640       0.262916       2.378998       8.500000
          503.9      31.433751     851.874939     123.657612       1.893991      34.935768       0.349358       8.431045       0.010385       2.377326       3.242288      33.195343       0.331953      40.390228       0.403902      31.807127       0.318071      19.454605       0.194546      19.454605       0.194546      16.525681       0.165257      26.346189       0.263462       2.377538       8.500000
